<kml>
<Document>

<Region>
<LatLonAltBox>
<north>47.856400</north><south>45.736600</south><east>10.665400</east><west>5.792720</west>
<minAltitude>0.000000</minAltitude><maxAltitude>0.000000</maxAltitude>
</LatLonAltBox>
<minLodPixels>2048</minLodPixels><maxLodPixels>1000000000</maxLodPixels>
<minFadeExtent>0</minFadeExtent><maxFadeExtent>0</maxFadeExtent>
</Region>
<NetworkLink>
<name>00</name>

<Region>
<LatLonAltBox>
<north>47.856400</north><south>46.796500</south><east>8.229060</east><west>5.792720</west>
<minAltitude>0.000000</minAltitude><maxAltitude>0.000000</maxAltitude>
</LatLonAltBox>
<minLodPixels>256</minLodPixels><maxLodPixels>1000000000</maxLodPixels>
<minFadeExtent>0</minFadeExtent><maxFadeExtent>0</maxFadeExtent>
</Region>
<Link>
<href>00.kml</href><viewRefreshMode>onRegion</viewRefreshMode></Link>
</NetworkLink>
<NetworkLink>
<name>01</name>

<Region>
<LatLonAltBox>
<north>47.856400</north><south>46.796500</south><east>10.665400</east><west>8.229060</west>
<minAltitude>0.000000</minAltitude><maxAltitude>0.000000</maxAltitude>
</LatLonAltBox>
<minLodPixels>256</minLodPixels><maxLodPixels>1000000000</maxLodPixels>
<minFadeExtent>0</minFadeExtent><maxFadeExtent>0</maxFadeExtent>
</Region>
<Link>
<href>01.kml</href><viewRefreshMode>onRegion</viewRefreshMode></Link>
</NetworkLink>
<NetworkLink>
<name>02</name>

<Region>
<LatLonAltBox>
<north>46.796500</north><south>45.736600</south><east>8.229060</east><west>5.792720</west>
<minAltitude>0.000000</minAltitude><maxAltitude>0.000000</maxAltitude>
</LatLonAltBox>
<minLodPixels>256</minLodPixels><maxLodPixels>1000000000</maxLodPixels>
<minFadeExtent>0</minFadeExtent><maxFadeExtent>0</maxFadeExtent>
</Region>
<Link>
<href>02.kml</href><viewRefreshMode>onRegion</viewRefreshMode></Link>
</NetworkLink>
<NetworkLink>
<name>03</name>

<Region>
<LatLonAltBox>
<north>46.796500</north><south>45.736600</south><east>10.665400</east><west>8.229060</west>
<minAltitude>0.000000</minAltitude><maxAltitude>0.000000</maxAltitude>
</LatLonAltBox>
<minLodPixels>256</minLodPixels><maxLodPixels>1000000000</maxLodPixels>
<minFadeExtent>0</minFadeExtent><maxFadeExtent>0</maxFadeExtent>
</Region>
<Link>
<href>03.kml</href><viewRefreshMode>onRegion</viewRefreshMode></Link>
</NetworkLink>
<Placemark>
    <name>L'Abbaye, Place du village</name>
    <Style><LineStyle><width>2</width></LineStyle></Style>
    <Point>
      <extrude>1</extrude>
      <tesselate>0</tesselate>
      <altitudeMode>relativeToGround</altitudeMode>
      <coordinates>6.31914, 46.6487,20</coordinates>
    </Point>
  </Placemark><Placemark>
    <name>Winterthur, Deutweg</name>
    <Style><LineStyle><width>2</width></LineStyle></Style>
    <Point>
      <extrude>1</extrude>
      <tesselate>0</tesselate>
      <altitudeMode>relativeToGround</altitudeMode>
      <coordinates>8.74154, 47.4938,20</coordinates>
    </Point>
  </Placemark><Placemark>
    <name>Courrendlin, Magro</name>
    <Style><LineStyle><width>2</width></LineStyle></Style>
    <Point>
      <extrude>1</extrude>
      <tesselate>0</tesselate>
      <altitudeMode>relativeToGround</altitudeMode>
      <coordinates>7.37009, 47.3428,20</coordinates>
    </Point>
  </Placemark><Placemark>
    <name>Romont FR, école primaire</name>
    <Style><LineStyle><width>2</width></LineStyle></Style>
    <Point>
      <extrude>1</extrude>
      <tesselate>0</tesselate>
      <altitudeMode>relativeToGround</altitudeMode>
      <coordinates>6.91895, 46.6953,20</coordinates>
    </Point>
  </Placemark><Placemark>
    <name>Avenches, collège</name>
    <Style><LineStyle><width>2</width></LineStyle></Style>
    <Point>
      <extrude>1</extrude>
      <tesselate>0</tesselate>
      <altitudeMode>relativeToGround</altitudeMode>
      <coordinates>7.03701, 46.8615,20</coordinates>
    </Point>
  </Placemark><Placemark>
    <name>Leukerbad</name>
    <Style><LineStyle><width>2</width></LineStyle></Style>
    <Point>
      <extrude>1</extrude>
      <tesselate>0</tesselate>
      <altitudeMode>relativeToGround</altitudeMode>
      <coordinates>7.61935, 46.3923,20</coordinates>
    </Point>
  </Placemark><Placemark>
    <name>Inden</name>
    <Style><LineStyle><width>2</width></LineStyle></Style>
    <Point>
      <extrude>1</extrude>
      <tesselate>0</tesselate>
      <altitudeMode>relativeToGround</altitudeMode>
      <coordinates>7.61789, 46.3437,20</coordinates>
    </Point>
  </Placemark><Placemark>
    <name>Leukerbad, Russengraben</name>
    <Style><LineStyle><width>2</width></LineStyle></Style>
    <Point>
      <extrude>1</extrude>
      <tesselate>0</tesselate>
      <altitudeMode>relativeToGround</altitudeMode>
      <coordinates>7.61404, 46.3581,20</coordinates>
    </Point>
  </Placemark><Placemark>
    <name>Albinen, Post</name>
    <Style><LineStyle><width>2</width></LineStyle></Style>
    <Point>
      <extrude>1</extrude>
      <tesselate>0</tesselate>
      <altitudeMode>relativeToGround</altitudeMode>
      <coordinates>7.63476, 46.3401,20</coordinates>
    </Point>
  </Placemark><Placemark>
    <name>Rumeling</name>
    <Style><LineStyle><width>2</width></LineStyle></Style>
    <Point>
      <extrude>1</extrude>
      <tesselate>0</tesselate>
      <altitudeMode>relativeToGround</altitudeMode>
      <coordinates>7.62176, 46.3347,20</coordinates>
    </Point>
  </Placemark><Placemark>
    <name>Leuk, Bahnhof</name>
    <Style><LineStyle><width>2</width></LineStyle></Style>
    <Point>
      <extrude>1</extrude>
      <tesselate>0</tesselate>
      <altitudeMode>relativeToGround</altitudeMode>
      <coordinates>7.64403, 46.3118,20</coordinates>
    </Point>
  </Placemark><Placemark>
    <name>Leuk, Stadt</name>
    <Style><LineStyle><width>2</width></LineStyle></Style>
    <Point>
      <extrude>1</extrude>
      <tesselate>0</tesselate>
      <altitudeMode>relativeToGround</altitudeMode>
      <coordinates>7.63339, 46.3194,20</coordinates>
    </Point>
  </Placemark><Placemark>
    <name>Zürich Seebach</name>
    <Style><LineStyle><width>2</width></LineStyle></Style>
    <Point>
      <extrude>1</extrude>
      <tesselate>0</tesselate>
      <altitudeMode>relativeToGround</altitudeMode>
      <coordinates>8.54463, 47.4188,20</coordinates>
    </Point>
  </Placemark><Placemark>
    <name>Unterbäch VS</name>
    <Style><LineStyle><width>2</width></LineStyle></Style>
    <Point>
      <extrude>1</extrude>
      <tesselate>0</tesselate>
      <altitudeMode>relativeToGround</altitudeMode>
      <coordinates>7.80199, 46.2884,20</coordinates>
    </Point>
  </Placemark><Placemark>
    <name>Les Combes</name>
    <Style><LineStyle><width>2</width></LineStyle></Style>
    <Point>
      <extrude>1</extrude>
      <tesselate>0</tesselate>
      <altitudeMode>relativeToGround</altitudeMode>
      <coordinates>7.17183, 46.4775,20</coordinates>
    </Point>
  </Placemark><Placemark>
    <name>Granges (Veveyse)</name>
    <Style><LineStyle><width>2</width></LineStyle></Style>
    <Point>
      <extrude>1</extrude>
      <tesselate>0</tesselate>
      <altitudeMode>relativeToGround</altitudeMode>
      <coordinates>6.84245, 46.5286,20</coordinates>
    </Point>
  </Placemark><Placemark>
    <name>Collège</name>
    <Style><LineStyle><width>2</width></LineStyle></Style>
    <Point>
      <extrude>1</extrude>
      <tesselate>0</tesselate>
      <altitudeMode>relativeToGround</altitudeMode>
      <coordinates>6.90641, 46.4419,20</coordinates>
    </Point>
  </Placemark><Placemark>
    <name>Vuarennes</name>
    <Style><LineStyle><width>2</width></LineStyle></Style>
    <Point>
      <extrude>1</extrude>
      <tesselate>0</tesselate>
      <altitudeMode>relativeToGround</altitudeMode>
      <coordinates>6.90316, 46.4419,20</coordinates>
    </Point>
  </Placemark><Placemark>
    <name>Châtelard VD</name>
    <Style><LineStyle><width>2</width></LineStyle></Style>
    <Point>
      <extrude>1</extrude>
      <tesselate>0</tesselate>
      <altitudeMode>relativeToGround</altitudeMode>
      <coordinates>6.90058, 46.4524,20</coordinates>
    </Point>
  </Placemark><Placemark>
    <name>Planchamp</name>
    <Style><LineStyle><width>2</width></LineStyle></Style>
    <Point>
      <extrude>1</extrude>
      <tesselate>0</tesselate>
      <altitudeMode>relativeToGround</altitudeMode>
      <coordinates>6.902, 46.4541,20</coordinates>
    </Point>
  </Placemark><Placemark>
    <name>Sonzier</name>
    <Style><LineStyle><width>2</width></LineStyle></Style>
    <Point>
      <extrude>1</extrude>
      <tesselate>0</tesselate>
      <altitudeMode>relativeToGround</altitudeMode>
      <coordinates>6.92121, 46.439,20</coordinates>
    </Point>
  </Placemark><Placemark>
    <name>Sendy-Sollard</name>
    <Style><LineStyle><width>2</width></LineStyle></Style>
    <Point>
      <extrude>1</extrude>
      <tesselate>0</tesselate>
      <altitudeMode>relativeToGround</altitudeMode>
      <coordinates>6.92907, 46.4466,20</coordinates>
    </Point>
  </Placemark><Placemark>
    <name>Jor</name>
    <Style><LineStyle><width>2</width></LineStyle></Style>
    <Point>
      <extrude>1</extrude>
      <tesselate>0</tesselate>
      <altitudeMode>relativeToGround</altitudeMode>
      <coordinates>6.96512, 46.4547,20</coordinates>
    </Point>
  </Placemark><Placemark>
    <name>Les Cases</name>
    <Style><LineStyle><width>2</width></LineStyle></Style>
    <Point>
      <extrude>1</extrude>
      <tesselate>0</tesselate>
      <altitudeMode>relativeToGround</altitudeMode>
      <coordinates>6.99771, 46.4559,20</coordinates>
    </Point>
  </Placemark><Placemark>
    <name>Moutier, Suisse Est</name>
    <Style><LineStyle><width>2</width></LineStyle></Style>
    <Point>
      <extrude>1</extrude>
      <tesselate>0</tesselate>
      <altitudeMode>relativeToGround</altitudeMode>
      <coordinates>7.37123, 47.2803,20</coordinates>
    </Point>
  </Placemark><Placemark>
    <name>Moutier, Neusté</name>
    <Style><LineStyle><width>2</width></LineStyle></Style>
    <Point>
      <extrude>1</extrude>
      <tesselate>0</tesselate>
      <altitudeMode>relativeToGround</altitudeMode>
      <coordinates>7.36991, 47.2812,20</coordinates>
    </Point>
  </Placemark><Placemark>
    <name>Moutier, Suisse Ouest</name>
    <Style><LineStyle><width>2</width></LineStyle></Style>
    <Point>
      <extrude>1</extrude>
      <tesselate>0</tesselate>
      <altitudeMode>relativeToGround</altitudeMode>
      <coordinates>7.36991, 47.2794,20</coordinates>
    </Point>
  </Placemark><Placemark>
    <name>Prayoud</name>
    <Style><LineStyle><width>2</width></LineStyle></Style>
    <Point>
      <extrude>1</extrude>
      <tesselate>0</tesselate>
      <altitudeMode>relativeToGround</altitudeMode>
      <coordinates>6.90147, 46.5497,20</coordinates>
    </Point>
  </Placemark><Placemark>
    <name>Delémont, rue des Sources</name>
    <Style><LineStyle><width>2</width></LineStyle></Style>
    <Point>
      <extrude>1</extrude>
      <tesselate>0</tesselate>
      <altitudeMode>relativeToGround</altitudeMode>
      <coordinates>7.33937, 47.354,20</coordinates>
    </Point>
  </Placemark><Placemark>
    <name>Burg im Leimental, Dorfplatz</name>
    <Style><LineStyle><width>2</width></LineStyle></Style>
    <Point>
      <extrude>1</extrude>
      <tesselate>0</tesselate>
      <altitudeMode>relativeToGround</altitudeMode>
      <coordinates>7.44262, 47.4575,20</coordinates>
    </Point>
  </Placemark><Placemark>
    <name>Büttenhardt, Dorf</name>
    <Style><LineStyle><width>2</width></LineStyle></Style>
    <Point>
      <extrude>1</extrude>
      <tesselate>0</tesselate>
      <altitudeMode>relativeToGround</altitudeMode>
      <coordinates>8.65326, 47.7572,20</coordinates>
    </Point>
  </Placemark><Placemark>
    <name>Moutier, Petite-Fin</name>
    <Style><LineStyle><width>2</width></LineStyle></Style>
    <Point>
      <extrude>1</extrude>
      <tesselate>0</tesselate>
      <altitudeMode>relativeToGround</altitudeMode>
      <coordinates>7.36264, 47.278,20</coordinates>
    </Point>
  </Placemark><Placemark>
    <name>Moutier, Chantemerle</name>
    <Style><LineStyle><width>2</width></LineStyle></Style>
    <Point>
      <extrude>1</extrude>
      <tesselate>0</tesselate>
      <altitudeMode>relativeToGround</altitudeMode>
      <coordinates>7.36, 47.2776,20</coordinates>
    </Point>
  </Placemark><Placemark>
    <name>Zignau, spv.</name>
    <Style><LineStyle><width>2</width></LineStyle></Style>
    <Point>
      <extrude>1</extrude>
      <tesselate>0</tesselate>
      <altitudeMode>relativeToGround</altitudeMode>
      <coordinates>9.00705, 46.7438,20</coordinates>
    </Point>
  </Placemark><Placemark>
    <name>Häggenschwil-Winden, Bahnhof</name>
    <Style><LineStyle><width>2</width></LineStyle></Style>
    <Point>
      <extrude>1</extrude>
      <tesselate>0</tesselate>
      <altitudeMode>relativeToGround</altitudeMode>
      <coordinates>9.35872, 47.5039,20</coordinates>
    </Point>
  </Placemark><Placemark>
    <name>Rolle</name>
    <Style><LineStyle><width>2</width></LineStyle></Style>
    <Point>
      <extrude>1</extrude>
      <tesselate>0</tesselate>
      <altitudeMode>relativeToGround</altitudeMode>
      <coordinates>6.3364, 46.4627,20</coordinates>
    </Point>
  </Placemark><Placemark>
    <name>Nyon</name>
    <Style><LineStyle><width>2</width></LineStyle></Style>
    <Point>
      <extrude>1</extrude>
      <tesselate>0</tesselate>
      <altitudeMode>relativeToGround</altitudeMode>
      <coordinates>6.23596, 46.3844,20</coordinates>
    </Point>
  </Placemark><Placemark>
    <name>Gland</name>
    <Style><LineStyle><width>2</width></LineStyle></Style>
    <Point>
      <extrude>1</extrude>
      <tesselate>0</tesselate>
      <altitudeMode>relativeToGround</altitudeMode>
      <coordinates>6.26913, 46.42,20</coordinates>
    </Point>
  </Placemark><Placemark>
    <name>St-Prex</name>
    <Style><LineStyle><width>2</width></LineStyle></Style>
    <Point>
      <extrude>1</extrude>
      <tesselate>0</tesselate>
      <altitudeMode>relativeToGround</altitudeMode>
      <coordinates>6.4559, 46.4823,20</coordinates>
    </Point>
  </Placemark><Placemark>
    <name>Morges</name>
    <Style><LineStyle><width>2</width></LineStyle></Style>
    <Point>
      <extrude>1</extrude>
      <tesselate>0</tesselate>
      <altitudeMode>relativeToGround</altitudeMode>
      <coordinates>6.49396, 46.5111,20</coordinates>
    </Point>
  </Placemark><Placemark>
    <name>Flüh, Schulhaus</name>
    <Style><LineStyle><width>2</width></LineStyle></Style>
    <Point>
      <extrude>1</extrude>
      <tesselate>0</tesselate>
      <altitudeMode>relativeToGround</altitudeMode>
      <coordinates>7.49867, 47.4854,20</coordinates>
    </Point>
  </Placemark><Placemark>
    <name>Allaman</name>
    <Style><LineStyle><width>2</width></LineStyle></Style>
    <Point>
      <extrude>1</extrude>
      <tesselate>0</tesselate>
      <altitudeMode>relativeToGround</altitudeMode>
      <coordinates>6.3997, 46.4757,20</coordinates>
    </Point>
  </Placemark><Placemark>
    <name>Aesch BL, Schwimmbad</name>
    <Style><LineStyle><width>2</width></LineStyle></Style>
    <Point>
      <extrude>1</extrude>
      <tesselate>0</tesselate>
      <altitudeMode>relativeToGround</altitudeMode>
      <coordinates>7.60314, 47.479,20</coordinates>
    </Point>
  </Placemark><Placemark>
    <name>Lömmenschwil, Schöntal</name>
    <Style><LineStyle><width>2</width></LineStyle></Style>
    <Point>
      <extrude>1</extrude>
      <tesselate>0</tesselate>
      <altitudeMode>relativeToGround</altitudeMode>
      <coordinates>9.35301, 47.4927,20</coordinates>
    </Point>
  </Placemark><Placemark>
    <name>Cauco, Ponte</name>
    <Style><LineStyle><width>2</width></LineStyle></Style>
    <Point>
      <extrude>1</extrude>
      <tesselate>0</tesselate>
      <altitudeMode>relativeToGround</altitudeMode>
      <coordinates>9.11868, 46.3359,20</coordinates>
    </Point>
  </Placemark><Placemark>
    <name>Passugg, Schluocht</name>
    <Style><LineStyle><width>2</width></LineStyle></Style>
    <Point>
      <extrude>1</extrude>
      <tesselate>0</tesselate>
      <altitudeMode>relativeToGround</altitudeMode>
      <coordinates>9.5558, 46.8267,20</coordinates>
    </Point>
  </Placemark><Placemark>
    <name>Moutier, Mercier</name>
    <Style><LineStyle><width>2</width></LineStyle></Style>
    <Point>
      <extrude>1</extrude>
      <tesselate>0</tesselate>
      <altitudeMode>relativeToGround</altitudeMode>
      <coordinates>7.38497, 47.2821,20</coordinates>
    </Point>
  </Placemark><Placemark>
    <name>Augio, Tarco</name>
    <Style><LineStyle><width>2</width></LineStyle></Style>
    <Point>
      <extrude>1</extrude>
      <tesselate>0</tesselate>
      <altitudeMode>relativeToGround</altitudeMode>
      <coordinates>9.12617, 46.368,20</coordinates>
    </Point>
  </Placemark><Placemark>
    <name>Arvigo, Al Canton</name>
    <Style><LineStyle><width>2</width></LineStyle></Style>
    <Point>
      <extrude>1</extrude>
      <tesselate>0</tesselate>
      <altitudeMode>relativeToGround</altitudeMode>
      <coordinates>9.1144, 46.3022,20</coordinates>
    </Point>
  </Placemark></Document>
</kml>
