<kml>
<Document>

<Region>
<LatLonAltBox>
<north>47.856400</north><south>47.326450</south><east>8.229060</east><west>7.010890</west>
<minAltitude>0.000000</minAltitude><maxAltitude>0.000000</maxAltitude>
</LatLonAltBox>
<minLodPixels>2048</minLodPixels><maxLodPixels>1000000000</maxLodPixels>
<minFadeExtent>0</minFadeExtent><maxFadeExtent>0</maxFadeExtent>
</Region>
<NetworkLink>
<name>0010</name>

<Region>
<LatLonAltBox>
<north>47.856400</north><south>47.591425</south><east>7.619975</east><west>7.010890</west>
<minAltitude>0.000000</minAltitude><maxAltitude>0.000000</maxAltitude>
</LatLonAltBox>
<minLodPixels>256</minLodPixels><maxLodPixels>1000000000</maxLodPixels>
<minFadeExtent>0</minFadeExtent><maxFadeExtent>0</maxFadeExtent>
</Region>
<Link>
<href>0010.kml</href><viewRefreshMode>onRegion</viewRefreshMode></Link>
</NetworkLink>
<NetworkLink>
<name>0011</name>

<Region>
<LatLonAltBox>
<north>47.856400</north><south>47.591425</south><east>8.229060</east><west>7.619975</west>
<minAltitude>0.000000</minAltitude><maxAltitude>0.000000</maxAltitude>
</LatLonAltBox>
<minLodPixels>256</minLodPixels><maxLodPixels>1000000000</maxLodPixels>
<minFadeExtent>0</minFadeExtent><maxFadeExtent>0</maxFadeExtent>
</Region>
<Link>
<href>0011.kml</href><viewRefreshMode>onRegion</viewRefreshMode></Link>
</NetworkLink>
<NetworkLink>
<name>0012</name>

<Region>
<LatLonAltBox>
<north>47.591425</north><south>47.326450</south><east>7.619975</east><west>7.010890</west>
<minAltitude>0.000000</minAltitude><maxAltitude>0.000000</maxAltitude>
</LatLonAltBox>
<minLodPixels>256</minLodPixels><maxLodPixels>1000000000</maxLodPixels>
<minFadeExtent>0</minFadeExtent><maxFadeExtent>0</maxFadeExtent>
</Region>
<Link>
<href>0012.kml</href><viewRefreshMode>onRegion</viewRefreshMode></Link>
</NetworkLink>
<NetworkLink>
<name>0013</name>

<Region>
<LatLonAltBox>
<north>47.591425</north><south>47.326450</south><east>8.229060</east><west>7.619975</west>
<minAltitude>0.000000</minAltitude><maxAltitude>0.000000</maxAltitude>
</LatLonAltBox>
<minLodPixels>256</minLodPixels><maxLodPixels>1000000000</maxLodPixels>
<minFadeExtent>0</minFadeExtent><maxFadeExtent>0</maxFadeExtent>
</Region>
<Link>
<href>0013.kml</href><viewRefreshMode>onRegion</viewRefreshMode></Link>
</NetworkLink>
<Placemark>
    <name>Seewen SO, Zelgli</name>
    <Style><LineStyle><width>2</width></LineStyle></Style>
    <Point>
      <extrude>1</extrude>
      <tesselate>0</tesselate>
      <altitudeMode>relativeToGround</altitudeMode>
      <coordinates>7.66034, 47.4366,20</coordinates>
    </Point>
  </Placemark><Placemark>
    <name>Seewen SO, Löhr</name>
    <Style><LineStyle><width>2</width></LineStyle></Style>
    <Point>
      <extrude>1</extrude>
      <tesselate>0</tesselate>
      <altitudeMode>relativeToGround</altitudeMode>
      <coordinates>7.66531, 47.4352,20</coordinates>
    </Point>
  </Placemark><Placemark>
    <name>Delémont, rue des Primevères</name>
    <Style><LineStyle><width>2</width></LineStyle></Style>
    <Point>
      <extrude>1</extrude>
      <tesselate>0</tesselate>
      <altitudeMode>relativeToGround</altitudeMode>
      <coordinates>7.35656, 47.367,20</coordinates>
    </Point>
  </Placemark><Placemark>
    <name>Oberwil BL, Dorf</name>
    <Style><LineStyle><width>2</width></LineStyle></Style>
    <Point>
      <extrude>1</extrude>
      <tesselate>0</tesselate>
      <altitudeMode>relativeToGround</altitudeMode>
      <coordinates>7.55679, 47.5143,20</coordinates>
    </Point>
  </Placemark><Placemark>
    <name>Biel BL, Dorf</name>
    <Style><LineStyle><width>2</width></LineStyle></Style>
    <Point>
      <extrude>1</extrude>
      <tesselate>0</tesselate>
      <altitudeMode>relativeToGround</altitudeMode>
      <coordinates>7.52757, 47.506,20</coordinates>
    </Point>
  </Placemark><Placemark>
    <name>Liestal, Kinderheim auf Berg</name>
    <Style><LineStyle><width>2</width></LineStyle></Style>
    <Point>
      <extrude>1</extrude>
      <tesselate>0</tesselate>
      <altitudeMode>relativeToGround</altitudeMode>
      <coordinates>7.73112, 47.4711,20</coordinates>
    </Point>
  </Placemark><Placemark>
    <name>Schafisheim, Jumbo</name>
    <Style><LineStyle><width>2</width></LineStyle></Style>
    <Point>
      <extrude>1</extrude>
      <tesselate>0</tesselate>
      <altitudeMode>relativeToGround</altitudeMode>
      <coordinates>8.1392, 47.3852,20</coordinates>
    </Point>
  </Placemark><Placemark>
    <name>Seltisberg, alte Post</name>
    <Style><LineStyle><width>2</width></LineStyle></Style>
    <Point>
      <extrude>1</extrude>
      <tesselate>0</tesselate>
      <altitudeMode>relativeToGround</altitudeMode>
      <coordinates>7.71547, 47.4592,20</coordinates>
    </Point>
  </Placemark><Placemark>
    <name>Lupsingen, Oristalbrücke</name>
    <Style><LineStyle><width>2</width></LineStyle></Style>
    <Point>
      <extrude>1</extrude>
      <tesselate>0</tesselate>
      <altitudeMode>relativeToGround</altitudeMode>
      <coordinates>7.69788, 47.4554,20</coordinates>
    </Point>
  </Placemark><Placemark>
    <name>Unterbözberg, mittlerer Hafen</name>
    <Style><LineStyle><width>2</width></LineStyle></Style>
    <Point>
      <extrude>1</extrude>
      <tesselate>0</tesselate>
      <altitudeMode>relativeToGround</altitudeMode>
      <coordinates>8.17102, 47.484,20</coordinates>
    </Point>
  </Placemark><Placemark>
    <name>Unterbözberg, oberer Hafen</name>
    <Style><LineStyle><width>2</width></LineStyle></Style>
    <Point>
      <extrude>1</extrude>
      <tesselate>0</tesselate>
      <altitudeMode>relativeToGround</altitudeMode>
      <coordinates>8.16507, 47.4858,20</coordinates>
    </Point>
  </Placemark><Placemark>
    <name>Diegten, Hirschen</name>
    <Style><LineStyle><width>2</width></LineStyle></Style>
    <Point>
      <extrude>1</extrude>
      <tesselate>0</tesselate>
      <altitudeMode>relativeToGround</altitudeMode>
      <coordinates>7.81097, 47.4137,20</coordinates>
    </Point>
  </Placemark><Placemark>
    <name>Roggenburg, Abzw. Löwenburg</name>
    <Style><LineStyle><width>2</width></LineStyle></Style>
    <Point>
      <extrude>1</extrude>
      <tesselate>0</tesselate>
      <altitudeMode>relativeToGround</altitudeMode>
      <coordinates>7.32531, 47.4343,20</coordinates>
    </Point>
  </Placemark><Placemark>
    <name>Roggenburg, Neumühle</name>
    <Style><LineStyle><width>2</width></LineStyle></Style>
    <Point>
      <extrude>1</extrude>
      <tesselate>0</tesselate>
      <altitudeMode>relativeToGround</altitudeMode>
      <coordinates>7.32761, 47.4399,20</coordinates>
    </Point>
  </Placemark><Placemark>
    <name>Roggenburg, Sägemühle</name>
    <Style><LineStyle><width>2</width></LineStyle></Style>
    <Point>
      <extrude>1</extrude>
      <tesselate>0</tesselate>
      <altitudeMode>relativeToGround</altitudeMode>
      <coordinates>7.34021, 47.4399,20</coordinates>
    </Point>
  </Placemark><Placemark>
    <name>Roggenburg, Hammerschmitte</name>
    <Style><LineStyle><width>2</width></LineStyle></Style>
    <Point>
      <extrude>1</extrude>
      <tesselate>0</tesselate>
      <altitudeMode>relativeToGround</altitudeMode>
      <coordinates>7.34949, 47.4359,20</coordinates>
    </Point>
  </Placemark><Placemark>
    <name>Roggenburg, Neuhus</name>
    <Style><LineStyle><width>2</width></LineStyle></Style>
    <Point>
      <extrude>1</extrude>
      <tesselate>0</tesselate>
      <altitudeMode>relativeToGround</altitudeMode>
      <coordinates>7.36872, 47.4343,20</coordinates>
    </Point>
  </Placemark><Placemark>
    <name>Kleinlützel, Chlösterli</name>
    <Style><LineStyle><width>2</width></LineStyle></Style>
    <Point>
      <extrude>1</extrude>
      <tesselate>0</tesselate>
      <altitudeMode>relativeToGround</altitudeMode>
      <coordinates>7.38264, 47.4318,20</coordinates>
    </Point>
  </Placemark><Placemark>
    <name>Kleinlützel, Ziegelscheune</name>
    <Style><LineStyle><width>2</width></LineStyle></Style>
    <Point>
      <extrude>1</extrude>
      <tesselate>0</tesselate>
      <altitudeMode>relativeToGround</altitudeMode>
      <coordinates>7.39954, 47.4262,20</coordinates>
    </Point>
  </Placemark><Placemark>
    <name>Kleinlützel, Garage</name>
    <Style><LineStyle><width>2</width></LineStyle></Style>
    <Point>
      <extrude>1</extrude>
      <tesselate>0</tesselate>
      <altitudeMode>relativeToGround</altitudeMode>
      <coordinates>7.41213, 47.4274,20</coordinates>
    </Point>
  </Placemark><Placemark>
    <name>Wittnau, Mitteldorf</name>
    <Style><LineStyle><width>2</width></LineStyle></Style>
    <Point>
      <extrude>1</extrude>
      <tesselate>0</tesselate>
      <altitudeMode>relativeToGround</altitudeMode>
      <coordinates>7.97494, 47.4792,20</coordinates>
    </Point>
  </Placemark><Placemark>
    <name>Wittnau, Hofmatt</name>
    <Style><LineStyle><width>2</width></LineStyle></Style>
    <Point>
      <extrude>1</extrude>
      <tesselate>0</tesselate>
      <altitudeMode>relativeToGround</altitudeMode>
      <coordinates>7.98193, 47.4825,20</coordinates>
    </Point>
  </Placemark><Placemark>
    <name>Challhöchi</name>
    <Style><LineStyle><width>2</width></LineStyle></Style>
    <Point>
      <extrude>1</extrude>
      <tesselate>0</tesselate>
      <altitudeMode>relativeToGround</altitudeMode>
      <coordinates>7.45853, 47.4507,20</coordinates>
    </Point>
  </Placemark><Placemark>
    <name>Röschenz, Oberdorf</name>
    <Style><LineStyle><width>2</width></LineStyle></Style>
    <Point>
      <extrude>1</extrude>
      <tesselate>0</tesselate>
      <altitudeMode>relativeToGround</altitudeMode>
      <coordinates>7.47409, 47.4258,20</coordinates>
    </Point>
  </Placemark><Placemark>
    <name>Basel SBB</name>
    <Style><LineStyle><width>2</width></LineStyle></Style>
    <Point>
      <extrude>1</extrude>
      <tesselate>0</tesselate>
      <altitudeMode>relativeToGround</altitudeMode>
      <coordinates>7.58956, 47.5474,20</coordinates>
    </Point>
  </Placemark><Placemark>
    <name>Schweizerhalle</name>
    <Style><LineStyle><width>2</width></LineStyle></Style>
    <Point>
      <extrude>1</extrude>
      <tesselate>0</tesselate>
      <altitudeMode>relativeToGround</altitudeMode>
      <coordinates>7.675, 47.5326,20</coordinates>
    </Point>
  </Placemark><Placemark>
    <name>Röschenz, Unterdorf</name>
    <Style><LineStyle><width>2</width></LineStyle></Style>
    <Point>
      <extrude>1</extrude>
      <tesselate>0</tesselate>
      <altitudeMode>relativeToGround</altitudeMode>
      <coordinates>7.47972, 47.4233,20</coordinates>
    </Point>
  </Placemark><Placemark>
    <name>Aesch BL Dorf, Bus BLT</name>
    <Style><LineStyle><width>2</width></LineStyle></Style>
    <Point>
      <extrude>1</extrude>
      <tesselate>0</tesselate>
      <altitudeMode>relativeToGround</altitudeMode>
      <coordinates>7.5978, 47.4682,20</coordinates>
    </Point>
  </Placemark><Placemark>
    <name>Tenniken</name>
    <Style><LineStyle><width>2</width></LineStyle></Style>
    <Point>
      <extrude>1</extrude>
      <tesselate>0</tesselate>
      <altitudeMode>relativeToGround</altitudeMode>
      <coordinates>7.8098, 47.4362,20</coordinates>
    </Point>
  </Placemark><Placemark>
    <name>Benken BL, Brücke</name>
    <Style><LineStyle><width>2</width></LineStyle></Style>
    <Point>
      <extrude>1</extrude>
      <tesselate>0</tesselate>
      <altitudeMode>relativeToGround</altitudeMode>
      <coordinates>7.51827, 47.5051,20</coordinates>
    </Point>
  </Placemark><Placemark>
    <name>Arisdorf, Kreuz</name>
    <Style><LineStyle><width>2</width></LineStyle></Style>
    <Point>
      <extrude>1</extrude>
      <tesselate>0</tesselate>
      <altitudeMode>relativeToGround</altitudeMode>
      <coordinates>7.7648, 47.5016,20</coordinates>
    </Point>
  </Placemark><Placemark>
    <name>Arisdorf, Schulhaus</name>
    <Style><LineStyle><width>2</width></LineStyle></Style>
    <Point>
      <extrude>1</extrude>
      <tesselate>0</tesselate>
      <altitudeMode>relativeToGround</altitudeMode>
      <coordinates>7.76551, 47.5099,20</coordinates>
    </Point>
  </Placemark><Placemark>
    <name>Liestal, Leisenberg</name>
    <Style><LineStyle><width>2</width></LineStyle></Style>
    <Point>
      <extrude>1</extrude>
      <tesselate>0</tesselate>
      <altitudeMode>relativeToGround</altitudeMode>
      <coordinates>7.75142, 47.4845,20</coordinates>
    </Point>
  </Placemark><Placemark>
    <name>Liestal, Altersheim</name>
    <Style><LineStyle><width>2</width></LineStyle></Style>
    <Point>
      <extrude>1</extrude>
      <tesselate>0</tesselate>
      <altitudeMode>relativeToGround</altitudeMode>
      <coordinates>7.74248, 47.4861,20</coordinates>
    </Point>
  </Placemark><Placemark>
    <name>Liestal, äussere Arisdörferstr</name>
    <Style><LineStyle><width>2</width></LineStyle></Style>
    <Point>
      <extrude>1</extrude>
      <tesselate>0</tesselate>
      <altitudeMode>relativeToGround</altitudeMode>
      <coordinates>7.74512, 47.4845,20</coordinates>
    </Point>
  </Placemark><Placemark>
    <name>Hersberg, Schützen</name>
    <Style><LineStyle><width>2</width></LineStyle></Style>
    <Point>
      <extrude>1</extrude>
      <tesselate>0</tesselate>
      <altitudeMode>relativeToGround</altitudeMode>
      <coordinates>7.78264, 47.4898,20</coordinates>
    </Point>
  </Placemark><Placemark>
    <name>Arisdorf, Weieren</name>
    <Style><LineStyle><width>2</width></LineStyle></Style>
    <Point>
      <extrude>1</extrude>
      <tesselate>0</tesselate>
      <altitudeMode>relativeToGround</altitudeMode>
      <coordinates>7.76577, 47.4977,20</coordinates>
    </Point>
  </Placemark><Placemark>
    <name>Liestal, Windenthal</name>
    <Style><LineStyle><width>2</width></LineStyle></Style>
    <Point>
      <extrude>1</extrude>
      <tesselate>0</tesselate>
      <altitudeMode>relativeToGround</altitudeMode>
      <coordinates>7.75806, 47.4852,20</coordinates>
    </Point>
  </Placemark><Placemark>
    <name>Liestal, Abzw. Hersberg</name>
    <Style><LineStyle><width>2</width></LineStyle></Style>
    <Point>
      <extrude>1</extrude>
      <tesselate>0</tesselate>
      <altitudeMode>relativeToGround</altitudeMode>
      <coordinates>7.76837, 47.4892,20</coordinates>
    </Point>
  </Placemark><Placemark>
    <name>Villigen, PSI West</name>
    <Style><LineStyle><width>2</width></LineStyle></Style>
    <Point>
      <extrude>1</extrude>
      <tesselate>0</tesselate>
      <altitudeMode>relativeToGround</altitudeMode>
      <coordinates>8.22225, 47.5389,20</coordinates>
    </Point>
  </Placemark><Placemark>
    <name>Böttstein, Post</name>
    <Style><LineStyle><width>2</width></LineStyle></Style>
    <Point>
      <extrude>1</extrude>
      <tesselate>0</tesselate>
      <altitudeMode>relativeToGround</altitudeMode>
      <coordinates>8.22286, 47.5578,20</coordinates>
    </Point>
  </Placemark><Placemark>
    <name>Seltisberg, Sonnenblick</name>
    <Style><LineStyle><width>2</width></LineStyle></Style>
    <Point>
      <extrude>1</extrude>
      <tesselate>0</tesselate>
      <altitudeMode>relativeToGround</altitudeMode>
      <coordinates>7.72446, 47.4657,20</coordinates>
    </Point>
  </Placemark><Placemark>
    <name>Alle, poste/gare</name>
    <Style><LineStyle><width>2</width></LineStyle></Style>
    <Point>
      <extrude>1</extrude>
      <tesselate>0</tesselate>
      <altitudeMode>relativeToGround</altitudeMode>
      <coordinates>7.12878, 47.425,20</coordinates>
    </Point>
  </Placemark><Placemark>
    <name>Asuel, école</name>
    <Style><LineStyle><width>2</width></LineStyle></Style>
    <Point>
      <extrude>1</extrude>
      <tesselate>0</tesselate>
      <altitudeMode>relativeToGround</altitudeMode>
      <coordinates>7.21079, 47.4018,20</coordinates>
    </Point>
  </Placemark><Placemark>
    <name>Asuel, Maison communale</name>
    <Style><LineStyle><width>2</width></LineStyle></Style>
    <Point>
      <extrude>1</extrude>
      <tesselate>0</tesselate>
      <altitudeMode>relativeToGround</altitudeMode>
      <coordinates>7.21159, 47.3993,20</coordinates>
    </Point>
  </Placemark><Placemark>
    <name>Fregiécourt, village</name>
    <Style><LineStyle><width>2</width></LineStyle></Style>
    <Point>
      <extrude>1</extrude>
      <tesselate>0</tesselate>
      <altitudeMode>relativeToGround</altitudeMode>
      <coordinates>7.19815, 47.4127,20</coordinates>
    </Point>
  </Placemark><Placemark>
    <name>Cornol, poste</name>
    <Style><LineStyle><width>2</width></LineStyle></Style>
    <Point>
      <extrude>1</extrude>
      <tesselate>0</tesselate>
      <altitudeMode>relativeToGround</altitudeMode>
      <coordinates>7.16453, 47.4073,20</coordinates>
    </Point>
  </Placemark><Placemark>
    <name>Miserez-Dessus</name>
    <Style><LineStyle><width>2</width></LineStyle></Style>
    <Point>
      <extrude>1</extrude>
      <tesselate>0</tesselate>
      <altitudeMode>relativeToGround</altitudeMode>
      <coordinates>7.19028, 47.4234,20</coordinates>
    </Point>
  </Placemark><Placemark>
    <name>Charmoille, anc. poste</name>
    <Style><LineStyle><width>2</width></LineStyle></Style>
    <Point>
      <extrude>1</extrude>
      <tesselate>0</tesselate>
      <altitudeMode>relativeToGround</altitudeMode>
      <coordinates>7.20407, 47.4226,20</coordinates>
    </Point>
  </Placemark></Document>
</kml>
