<kml>
<Document>

<Region>
<LatLonAltBox>
<north>47.458938</north><south>47.392694</south><east>7.163161</east><west>7.010890</west>
<minAltitude>0.000000</minAltitude><maxAltitude>0.000000</maxAltitude>
</LatLonAltBox>
<minLodPixels>2048</minLodPixels><maxLodPixels>1000000000</maxLodPixels>
<minFadeExtent>0</minFadeExtent><maxFadeExtent>0</maxFadeExtent>
</Region>
<Placemark>
    <name>Courgenay, anc. poste</name>
    <Style><LineStyle><width>2</width></LineStyle></Style>
    <Point>
      <extrude>1</extrude>
      <tesselate>0</tesselate>
      <altitudeMode>relativeToGround</altitudeMode>
      <coordinates>7.12467, 47.4037,20</coordinates>
    </Point>
  </Placemark><Placemark>
    <name>Courgenay, Pierre Percée</name>
    <Style><LineStyle><width>2</width></LineStyle></Style>
    <Point>
      <extrude>1</extrude>
      <tesselate>0</tesselate>
      <altitudeMode>relativeToGround</altitudeMode>
      <coordinates>7.12015, 47.4054,20</coordinates>
    </Point>
  </Placemark><Placemark>
    <name>Courchavon, gare</name>
    <Style><LineStyle><width>2</width></LineStyle></Style>
    <Point>
      <extrude>1</extrude>
      <tesselate>0</tesselate>
      <altitudeMode>relativeToGround</altitudeMode>
      <coordinates>7.05618, 47.4399,20</coordinates>
    </Point>
  </Placemark><Placemark>
    <name>Porrentruy</name>
    <Style><LineStyle><width>2</width></LineStyle></Style>
    <Point>
      <extrude>1</extrude>
      <tesselate>0</tesselate>
      <altitudeMode>relativeToGround</altitudeMode>
      <coordinates>7.08009, 47.4209,20</coordinates>
    </Point>
  </Placemark><Placemark>
    <name>Courgenay</name>
    <Style><LineStyle><width>2</width></LineStyle></Style>
    <Point>
      <extrude>1</extrude>
      <tesselate>0</tesselate>
      <altitudeMode>relativeToGround</altitudeMode>
      <coordinates>7.12421, 47.4052,20</coordinates>
    </Point>
  </Placemark><Placemark>
    <name>Courtedoux, Combatte</name>
    <Style><LineStyle><width>2</width></LineStyle></Style>
    <Point>
      <extrude>1</extrude>
      <tesselate>0</tesselate>
      <altitudeMode>relativeToGround</altitudeMode>
      <coordinates>7.04958, 47.4007,20</coordinates>
    </Point>
  </Placemark><Placemark>
    <name>Porrentruy, avenue Cuenin</name>
    <Style><LineStyle><width>2</width></LineStyle></Style>
    <Point>
      <extrude>1</extrude>
      <tesselate>0</tesselate>
      <altitudeMode>relativeToGround</altitudeMode>
      <coordinates>7.07752, 47.4207,20</coordinates>
    </Point>
  </Placemark><Placemark>
    <name>Porrentruy, Mont Terri</name>
    <Style><LineStyle><width>2</width></LineStyle></Style>
    <Point>
      <extrude>1</extrude>
      <tesselate>0</tesselate>
      <altitudeMode>relativeToGround</altitudeMode>
      <coordinates>7.06632, 47.4121,20</coordinates>
    </Point>
  </Placemark><Placemark>
    <name>Courtedoux, poste</name>
    <Style><LineStyle><width>2</width></LineStyle></Style>
    <Point>
      <extrude>1</extrude>
      <tesselate>0</tesselate>
      <altitudeMode>relativeToGround</altitudeMode>
      <coordinates>7.04183, 47.4096,20</coordinates>
    </Point>
  </Placemark><Placemark>
    <name>Porrentruy, Hôpital entrée</name>
    <Style><LineStyle><width>2</width></LineStyle></Style>
    <Point>
      <extrude>1</extrude>
      <tesselate>0</tesselate>
      <altitudeMode>relativeToGround</altitudeMode>
      <coordinates>7.05632, 47.4209,20</coordinates>
    </Point>
  </Placemark><Placemark>
    <name>Porrentruy, Belle-Croix</name>
    <Style><LineStyle><width>2</width></LineStyle></Style>
    <Point>
      <extrude>1</extrude>
      <tesselate>0</tesselate>
      <altitudeMode>relativeToGround</altitudeMode>
      <coordinates>7.05966, 47.4173,20</coordinates>
    </Point>
  </Placemark></Document>
</kml>
