<kml>
<Document>

<Region>
<LatLonAltBox>
<north>47.591425</north><south>47.458938</south><east>7.315433</east><west>7.010890</west>
<minAltitude>0.000000</minAltitude><maxAltitude>0.000000</maxAltitude>
</LatLonAltBox>
<minLodPixels>2048</minLodPixels><maxLodPixels>1000000000</maxLodPixels>
<minFadeExtent>0</minFadeExtent><maxFadeExtent>0</maxFadeExtent>
</Region>
<Placemark>
    <name>Damphreux, Sous la Côte</name>
    <Style><LineStyle><width>2</width></LineStyle></Style>
    <Point>
      <extrude>1</extrude>
      <tesselate>0</tesselate>
      <altitudeMode>relativeToGround</altitudeMode>
      <coordinates>7.1009, 47.4754,20</coordinates>
    </Point>
  </Placemark><Placemark>
    <name>Boncourt</name>
    <Style><LineStyle><width>2</width></LineStyle></Style>
    <Point>
      <extrude>1</extrude>
      <tesselate>0</tesselate>
      <altitudeMode>relativeToGround</altitudeMode>
      <coordinates>7.01656, 47.4926,20</coordinates>
    </Point>
  </Placemark><Placemark>
    <name>Buix</name>
    <Style><LineStyle><width>2</width></LineStyle></Style>
    <Point>
      <extrude>1</extrude>
      <tesselate>0</tesselate>
      <altitudeMode>relativeToGround</altitudeMode>
      <coordinates>7.02998, 47.4793,20</coordinates>
    </Point>
  </Placemark><Placemark>
    <name>Grandgourt</name>
    <Style><LineStyle><width>2</width></LineStyle></Style>
    <Point>
      <extrude>1</extrude>
      <tesselate>0</tesselate>
      <altitudeMode>relativeToGround</altitudeMode>
      <coordinates>7.04811, 47.4699,20</coordinates>
    </Point>
  </Placemark><Placemark>
    <name>Boncourt, gare</name>
    <Style><LineStyle><width>2</width></LineStyle></Style>
    <Point>
      <extrude>1</extrude>
      <tesselate>0</tesselate>
      <altitudeMode>relativeToGround</altitudeMode>
      <coordinates>7.01747, 47.49,20</coordinates>
    </Point>
  </Placemark><Placemark>
    <name>Grandgourt, gare</name>
    <Style><LineStyle><width>2</width></LineStyle></Style>
    <Point>
      <extrude>1</extrude>
      <tesselate>0</tesselate>
      <altitudeMode>relativeToGround</altitudeMode>
      <coordinates>7.04767, 47.4706,20</coordinates>
    </Point>
  </Placemark><Placemark>
    <name>Montignez</name>
    <Style><LineStyle><width>2</width></LineStyle></Style>
    <Point>
      <extrude>1</extrude>
      <tesselate>0</tesselate>
      <altitudeMode>relativeToGround</altitudeMode>
      <coordinates>7.05903, 47.4873,20</coordinates>
    </Point>
  </Placemark><Placemark>
    <name>Damphreux, Le Coinat</name>
    <Style><LineStyle><width>2</width></LineStyle></Style>
    <Point>
      <extrude>1</extrude>
      <tesselate>0</tesselate>
      <altitudeMode>relativeToGround</altitudeMode>
      <coordinates>7.10221, 47.4781,20</coordinates>
    </Point>
  </Placemark><Placemark>
    <name>Lugnez, Union</name>
    <Style><LineStyle><width>2</width></LineStyle></Style>
    <Point>
      <extrude>1</extrude>
      <tesselate>0</tesselate>
      <altitudeMode>relativeToGround</altitudeMode>
      <coordinates>7.10153, 47.4809,20</coordinates>
    </Point>
  </Placemark><Placemark>
    <name>Lugnez, Rauracienne</name>
    <Style><LineStyle><width>2</width></LineStyle></Style>
    <Point>
      <extrude>1</extrude>
      <tesselate>0</tesselate>
      <altitudeMode>relativeToGround</altitudeMode>
      <coordinates>7.09733, 47.4843,20</coordinates>
    </Point>
  </Placemark><Placemark>
    <name>Lugnez, Terrain de football</name>
    <Style><LineStyle><width>2</width></LineStyle></Style>
    <Point>
      <extrude>1</extrude>
      <tesselate>0</tesselate>
      <altitudeMode>relativeToGround</altitudeMode>
      <coordinates>7.10441, 47.4863,20</coordinates>
    </Point>
  </Placemark><Placemark>
    <name>Beurnevésin, poste</name>
    <Style><LineStyle><width>2</width></LineStyle></Style>
    <Point>
      <extrude>1</extrude>
      <tesselate>0</tesselate>
      <altitudeMode>relativeToGround</altitudeMode>
      <coordinates>7.13541, 47.495,20</coordinates>
    </Point>
  </Placemark><Placemark>
    <name>Beurnevésin, Couronne</name>
    <Style><LineStyle><width>2</width></LineStyle></Style>
    <Point>
      <extrude>1</extrude>
      <tesselate>0</tesselate>
      <altitudeMode>relativeToGround</altitudeMode>
      <coordinates>7.13941, 47.4916,20</coordinates>
    </Point>
  </Placemark><Placemark>
    <name>Buix, gare</name>
    <Style><LineStyle><width>2</width></LineStyle></Style>
    <Point>
      <extrude>1</extrude>
      <tesselate>0</tesselate>
      <altitudeMode>relativeToGround</altitudeMode>
      <coordinates>7.03003, 47.4793,20</coordinates>
    </Point>
  </Placemark></Document>
</kml>
