<kml>
<Document>

<Region>
<LatLonAltBox>
<north>47.591425</north><south>47.525181</south><east>7.619975</east><west>7.467704</west>
<minAltitude>0.000000</minAltitude><maxAltitude>0.000000</maxAltitude>
</LatLonAltBox>
<minLodPixels>2048</minLodPixels><maxLodPixels>1000000000</maxLodPixels>
<minFadeExtent>0</minFadeExtent><maxFadeExtent>0</maxFadeExtent>
</Region>
<Placemark>
    <name>Basel Markthalle</name>
    <Style><LineStyle><width>2</width></LineStyle></Style>
    <Point>
      <extrude>1</extrude>
      <tesselate>0</tesselate>
      <altitudeMode>relativeToGround</altitudeMode>
      <coordinates>7.58642, 47.5489,20</coordinates>
    </Point>
  </Placemark><Placemark>
    <name>Basel Theater</name>
    <Style><LineStyle><width>2</width></LineStyle></Style>
    <Point>
      <extrude>1</extrude>
      <tesselate>0</tesselate>
      <altitudeMode>relativeToGround</altitudeMode>
      <coordinates>7.58997, 47.5538,20</coordinates>
    </Point>
  </Placemark><Placemark>
    <name>Basel, Neuweilerstrasse</name>
    <Style><LineStyle><width>2</width></LineStyle></Style>
    <Point>
      <extrude>1</extrude>
      <tesselate>0</tesselate>
      <altitudeMode>relativeToGround</altitudeMode>
      <coordinates>7.55686, 47.5456,20</coordinates>
    </Point>
  </Placemark><Placemark>
    <name>Basel, Aeschenplatz AAGL</name>
    <Style><LineStyle><width>2</width></LineStyle></Style>
    <Point>
      <extrude>1</extrude>
      <tesselate>0</tesselate>
      <altitudeMode>relativeToGround</altitudeMode>
      <coordinates>7.59683, 47.5516,20</coordinates>
    </Point>
  </Placemark><Placemark>
    <name>Basel Schiffl채nde</name>
    <Style><LineStyle><width>2</width></LineStyle></Style>
    <Point>
      <extrude>1</extrude>
      <tesselate>0</tesselate>
      <altitudeMode>relativeToGround</altitudeMode>
      <coordinates>7.58851, 47.5596,20</coordinates>
    </Point>
  </Placemark><Placemark>
    <name>Basel, Jakobsberg</name>
    <Style><LineStyle><width>2</width></LineStyle></Style>
    <Point>
      <extrude>1</extrude>
      <tesselate>0</tesselate>
      <altitudeMode>relativeToGround</altitudeMode>
      <coordinates>7.60995, 47.5325,20</coordinates>
    </Point>
  </Placemark><Placemark>
    <name>St-Louis Grenze</name>
    <Style><LineStyle><width>2</width></LineStyle></Style>
    <Point>
      <extrude>1</extrude>
      <tesselate>0</tesselate>
      <altitudeMode>relativeToGround</altitudeMode>
      <coordinates>7.5733, 47.5756,20</coordinates>
    </Point>
  </Placemark><Placemark>
    <name>Basel Dreispitz</name>
    <Style><LineStyle><width>2</width></LineStyle></Style>
    <Point>
      <extrude>1</extrude>
      <tesselate>0</tesselate>
      <altitudeMode>relativeToGround</altitudeMode>
      <coordinates>7.60895, 47.5379,20</coordinates>
    </Point>
  </Placemark><Placemark>
    <name>Basel, Brausebad</name>
    <Style><LineStyle><width>2</width></LineStyle></Style>
    <Point>
      <extrude>1</extrude>
      <tesselate>0</tesselate>
      <altitudeMode>relativeToGround</altitudeMode>
      <coordinates>7.57614, 47.5559,20</coordinates>
    </Point>
  </Placemark><Placemark>
    <name>Basel, Friedrich-Miescher-Str.</name>
    <Style><LineStyle><width>2</width></LineStyle></Style>
    <Point>
      <extrude>1</extrude>
      <tesselate>0</tesselate>
      <altitudeMode>relativeToGround</altitudeMode>
      <coordinates>7.56456, 47.5739,20</coordinates>
    </Point>
  </Placemark><Placemark>
    <name>Basel Museum Jean Tinguely</name>
    <Style><LineStyle><width>2</width></LineStyle></Style>
    <Point>
      <extrude>1</extrude>
      <tesselate>0</tesselate>
      <altitudeMode>relativeToGround</altitudeMode>
      <coordinates>7.61412, 47.5571,20</coordinates>
    </Point>
  </Placemark><Placemark>
    <name>Dreispitz</name>
    <Style><LineStyle><width>2</width></LineStyle></Style>
    <Point>
      <extrude>1</extrude>
      <tesselate>0</tesselate>
      <altitudeMode>relativeToGround</altitudeMode>
      <coordinates>7.60869, 47.5372,20</coordinates>
    </Point>
  </Placemark><Placemark>
    <name>Basel Barf체sserplatz BLT</name>
    <Style><LineStyle><width>2</width></LineStyle></Style>
    <Point>
      <extrude>1</extrude>
      <tesselate>0</tesselate>
      <altitudeMode>relativeToGround</altitudeMode>
      <coordinates>7.58929, 47.5548,20</coordinates>
    </Point>
  </Placemark><Placemark>
    <name>Basel Claraplatz</name>
    <Style><LineStyle><width>2</width></LineStyle></Style>
    <Point>
      <extrude>1</extrude>
      <tesselate>0</tesselate>
      <altitudeMode>relativeToGround</altitudeMode>
      <coordinates>7.5932, 47.5617,20</coordinates>
    </Point>
  </Placemark><Placemark>
    <name>M체nchenstein, Neuewelt/Gr체n 80</name>
    <Style><LineStyle><width>2</width></LineStyle></Style>
    <Point>
      <extrude>1</extrude>
      <tesselate>0</tesselate>
      <altitudeMode>relativeToGround</altitudeMode>
      <coordinates>7.61394, 47.5286,20</coordinates>
    </Point>
  </Placemark><Placemark>
    <name>Basel Heuwaage</name>
    <Style><LineStyle><width>2</width></LineStyle></Style>
    <Point>
      <extrude>1</extrude>
      <tesselate>0</tesselate>
      <altitudeMode>relativeToGround</altitudeMode>
      <coordinates>7.58683, 47.5514,20</coordinates>
    </Point>
  </Placemark><Placemark>
    <name>Basel Aeschenplatz</name>
    <Style><LineStyle><width>2</width></LineStyle></Style>
    <Point>
      <extrude>1</extrude>
      <tesselate>0</tesselate>
      <altitudeMode>relativeToGround</altitudeMode>
      <coordinates>7.59485, 47.5513,20</coordinates>
    </Point>
  </Placemark></Document>
</kml>
