<kml>
<Document>

<Region>
<LatLonAltBox>
<north>47.392694</north><south>47.326450</south><east>7.467704</east><west>7.315433</west>
<minAltitude>0.000000</minAltitude><maxAltitude>0.000000</maxAltitude>
</LatLonAltBox>
<minLodPixels>2048</minLodPixels><maxLodPixels>1000000000</maxLodPixels>
<minFadeExtent>0</minFadeExtent><maxFadeExtent>0</maxFadeExtent>
</Region>
<Placemark>
    <name>Delémont, Cras des Fourches</name>
    <Style><LineStyle><width>2</width></LineStyle></Style>
    <Point>
      <extrude>1</extrude>
      <tesselate>0</tesselate>
      <altitudeMode>relativeToGround</altitudeMode>
      <coordinates>7.3466, 47.3815,20</coordinates>
    </Point>
  </Placemark><Placemark>
    <name>Delémont, Communance</name>
    <Style><LineStyle><width>2</width></LineStyle></Style>
    <Point>
      <extrude>1</extrude>
      <tesselate>0</tesselate>
      <altitudeMode>relativeToGround</altitudeMode>
      <coordinates>7.33937, 47.354,20</coordinates>
    </Point>
  </Placemark><Placemark>
    <name>Courroux, Sous-Rosé</name>
    <Style><LineStyle><width>2</width></LineStyle></Style>
    <Point>
      <extrude>1</extrude>
      <tesselate>0</tesselate>
      <altitudeMode>relativeToGround</altitudeMode>
      <coordinates>7.38225, 47.3602,20</coordinates>
    </Point>
  </Placemark><Placemark>
    <name>Delémont, Hôpital</name>
    <Style><LineStyle><width>2</width></LineStyle></Style>
    <Point>
      <extrude>1</extrude>
      <tesselate>0</tesselate>
      <altitudeMode>relativeToGround</altitudeMode>
      <coordinates>7.33868, 47.3689,20</coordinates>
    </Point>
  </Placemark><Placemark>
    <name>Delémont, Home de la Promenade</name>
    <Style><LineStyle><width>2</width></LineStyle></Style>
    <Point>
      <extrude>1</extrude>
      <tesselate>0</tesselate>
      <altitudeMode>relativeToGround</altitudeMode>
      <coordinates>7.33486, 47.3587,20</coordinates>
    </Point>
  </Placemark><Placemark>
    <name>Delémont, rte de Bâle</name>
    <Style><LineStyle><width>2</width></LineStyle></Style>
    <Point>
      <extrude>1</extrude>
      <tesselate>0</tesselate>
      <altitudeMode>relativeToGround</altitudeMode>
      <coordinates>7.35292, 47.3677,20</coordinates>
    </Point>
  </Placemark><Placemark>
    <name>Delémont, Av. de la gare</name>
    <Style><LineStyle><width>2</width></LineStyle></Style>
    <Point>
      <extrude>1</extrude>
      <tesselate>0</tesselate>
      <altitudeMode>relativeToGround</altitudeMode>
      <coordinates>7.34928, 47.3632,20</coordinates>
    </Point>
  </Placemark><Placemark>
    <name>Delémont, rue des Andains</name>
    <Style><LineStyle><width>2</width></LineStyle></Style>
    <Point>
      <extrude>1</extrude>
      <tesselate>0</tesselate>
      <altitudeMode>relativeToGround</altitudeMode>
      <coordinates>7.35257, 47.3745,20</coordinates>
    </Point>
  </Placemark><Placemark>
    <name>Delémont, Chapelle Montcroix</name>
    <Style><LineStyle><width>2</width></LineStyle></Style>
    <Point>
      <extrude>1</extrude>
      <tesselate>0</tesselate>
      <altitudeMode>relativeToGround</altitudeMode>
      <coordinates>7.3453, 47.3676,20</coordinates>
    </Point>
  </Placemark><Placemark>
    <name>Delémont, Musée - Château</name>
    <Style><LineStyle><width>2</width></LineStyle></Style>
    <Point>
      <extrude>1</extrude>
      <tesselate>0</tesselate>
      <altitudeMode>relativeToGround</altitudeMode>
      <coordinates>7.3422, 47.3648,20</coordinates>
    </Point>
  </Placemark><Placemark>
    <name>Courrendlin, centre</name>
    <Style><LineStyle><width>2</width></LineStyle></Style>
    <Point>
      <extrude>1</extrude>
      <tesselate>0</tesselate>
      <altitudeMode>relativeToGround</altitudeMode>
      <coordinates>7.36917, 47.3381,20</coordinates>
    </Point>
  </Placemark><Placemark>
    <name>Courrendlin, écoles</name>
    <Style><LineStyle><width>2</width></LineStyle></Style>
    <Point>
      <extrude>1</extrude>
      <tesselate>0</tesselate>
      <altitudeMode>relativeToGround</altitudeMode>
      <coordinates>7.37314, 47.3361,20</coordinates>
    </Point>
  </Placemark><Placemark>
    <name>Delémont, ch. du Puits</name>
    <Style><LineStyle><width>2</width></LineStyle></Style>
    <Point>
      <extrude>1</extrude>
      <tesselate>0</tesselate>
      <altitudeMode>relativeToGround</altitudeMode>
      <coordinates>7.34465, 47.3621,20</coordinates>
    </Point>
  </Placemark><Placemark>
    <name>Rossemaison, bas du village</name>
    <Style><LineStyle><width>2</width></LineStyle></Style>
    <Point>
      <extrude>1</extrude>
      <tesselate>0</tesselate>
      <altitudeMode>relativeToGround</altitudeMode>
      <coordinates>7.345, 47.35,20</coordinates>
    </Point>
  </Placemark><Placemark>
    <name>Delémont, rue de Fer</name>
    <Style><LineStyle><width>2</width></LineStyle></Style>
    <Point>
      <extrude>1</extrude>
      <tesselate>0</tesselate>
      <altitudeMode>relativeToGround</altitudeMode>
      <coordinates>7.34293, 47.3655,20</coordinates>
    </Point>
  </Placemark><Placemark>
    <name>Delémont, Centre la Blancherie</name>
    <Style><LineStyle><width>2</width></LineStyle></Style>
    <Point>
      <extrude>1</extrude>
      <tesselate>0</tesselate>
      <altitudeMode>relativeToGround</altitudeMode>
      <coordinates>7.34273, 47.3627,20</coordinates>
    </Point>
  </Placemark><Placemark>
    <name>Delémont, Sous-Mexique</name>
    <Style><LineStyle><width>2</width></LineStyle></Style>
    <Point>
      <extrude>1</extrude>
      <tesselate>0</tesselate>
      <altitudeMode>relativeToGround</altitudeMode>
      <coordinates>7.33486, 47.3587,20</coordinates>
    </Point>
  </Placemark><Placemark>
    <name>Delémont, rue des Bordgeais</name>
    <Style><LineStyle><width>2</width></LineStyle></Style>
    <Point>
      <extrude>1</extrude>
      <tesselate>0</tesselate>
      <altitudeMode>relativeToGround</altitudeMode>
      <coordinates>7.35688, 47.373,20</coordinates>
    </Point>
  </Placemark><Placemark>
    <name>Delémont, rue des Moissons</name>
    <Style><LineStyle><width>2</width></LineStyle></Style>
    <Point>
      <extrude>1</extrude>
      <tesselate>0</tesselate>
      <altitudeMode>relativeToGround</altitudeMode>
      <coordinates>7.35351, 47.3717,20</coordinates>
    </Point>
  </Placemark><Placemark>
    <name>Delémont, Pré-Guillaume</name>
    <Style><LineStyle><width>2</width></LineStyle></Style>
    <Point>
      <extrude>1</extrude>
      <tesselate>0</tesselate>
      <altitudeMode>relativeToGround</altitudeMode>
      <coordinates>7.33486, 47.3587,20</coordinates>
    </Point>
  </Placemark><Placemark>
    <name>Courtételle</name>
    <Style><LineStyle><width>2</width></LineStyle></Style>
    <Point>
      <extrude>1</extrude>
      <tesselate>0</tesselate>
      <altitudeMode>relativeToGround</altitudeMode>
      <coordinates>7.31794, 47.3428,20</coordinates>
    </Point>
  </Placemark><Placemark>
    <name>Delémont, Von Roll</name>
    <Style><LineStyle><width>2</width></LineStyle></Style>
    <Point>
      <extrude>1</extrude>
      <tesselate>0</tesselate>
      <altitudeMode>relativeToGround</altitudeMode>
      <coordinates>7.36014, 47.363,20</coordinates>
    </Point>
  </Placemark><Placemark>
    <name>Courroux, Coop</name>
    <Style><LineStyle><width>2</width></LineStyle></Style>
    <Point>
      <extrude>1</extrude>
      <tesselate>0</tesselate>
      <altitudeMode>relativeToGround</altitudeMode>
      <coordinates>7.37457, 47.3612,20</coordinates>
    </Point>
  </Placemark><Placemark>
    <name>Courroux, Jardin d'enfants</name>
    <Style><LineStyle><width>2</width></LineStyle></Style>
    <Point>
      <extrude>1</extrude>
      <tesselate>0</tesselate>
      <altitudeMode>relativeToGround</altitudeMode>
      <coordinates>7.37762, 47.3575,20</coordinates>
    </Point>
  </Placemark><Placemark>
    <name>Courroux, La Plaine</name>
    <Style><LineStyle><width>2</width></LineStyle></Style>
    <Point>
      <extrude>1</extrude>
      <tesselate>0</tesselate>
      <altitudeMode>relativeToGround</altitudeMode>
      <coordinates>7.38172, 47.3579,20</coordinates>
    </Point>
  </Placemark><Placemark>
    <name>Châtillon JU, bas du village</name>
    <Style><LineStyle><width>2</width></LineStyle></Style>
    <Point>
      <extrude>1</extrude>
      <tesselate>0</tesselate>
      <altitudeMode>relativeToGround</altitudeMode>
      <coordinates>7.34372, 47.3304,20</coordinates>
    </Point>
  </Placemark><Placemark>
    <name>Courcelon</name>
    <Style><LineStyle><width>2</width></LineStyle></Style>
    <Point>
      <extrude>1</extrude>
      <tesselate>0</tesselate>
      <altitudeMode>relativeToGround</altitudeMode>
      <coordinates>7.38999, 47.3612,20</coordinates>
    </Point>
  </Placemark><Placemark>
    <name>Rossemaison, école/poste</name>
    <Style><LineStyle><width>2</width></LineStyle></Style>
    <Point>
      <extrude>1</extrude>
      <tesselate>0</tesselate>
      <altitudeMode>relativeToGround</altitudeMode>
      <coordinates>7.34468, 47.3464,20</coordinates>
    </Point>
  </Placemark><Placemark>
    <name>Delémont, rte de Courroux</name>
    <Style><LineStyle><width>2</width></LineStyle></Style>
    <Point>
      <extrude>1</extrude>
      <tesselate>0</tesselate>
      <altitudeMode>relativeToGround</altitudeMode>
      <coordinates>7.36153, 47.3621,20</coordinates>
    </Point>
  </Placemark><Placemark>
    <name>Delémont, gare</name>
    <Style><LineStyle><width>2</width></LineStyle></Style>
    <Point>
      <extrude>1</extrude>
      <tesselate>0</tesselate>
      <altitudeMode>relativeToGround</altitudeMode>
      <coordinates>7.34895, 47.3623,20</coordinates>
    </Point>
  </Placemark><Placemark>
    <name>Courroux, Les 3 Farine</name>
    <Style><LineStyle><width>2</width></LineStyle></Style>
    <Point>
      <extrude>1</extrude>
      <tesselate>0</tesselate>
      <altitudeMode>relativeToGround</altitudeMode>
      <coordinates>7.37675, 47.3617,20</coordinates>
    </Point>
  </Placemark><Placemark>
    <name>Delémont, rue des Martins</name>
    <Style><LineStyle><width>2</width></LineStyle></Style>
    <Point>
      <extrude>1</extrude>
      <tesselate>0</tesselate>
      <altitudeMode>relativeToGround</altitudeMode>
      <coordinates>7.35013, 47.3711,20</coordinates>
    </Point>
  </Placemark><Placemark>
    <name>Recolaine, Pont de Cran</name>
    <Style><LineStyle><width>2</width></LineStyle></Style>
    <Point>
      <extrude>1</extrude>
      <tesselate>0</tesselate>
      <altitudeMode>relativeToGround</altitudeMode>
      <coordinates>7.43599, 47.3478,20</coordinates>
    </Point>
  </Placemark><Placemark>
    <name>Courchapoix, bas du village</name>
    <Style><LineStyle><width>2</width></LineStyle></Style>
    <Point>
      <extrude>1</extrude>
      <tesselate>0</tesselate>
      <altitudeMode>relativeToGround</altitudeMode>
      <coordinates>7.45253, 47.3489,20</coordinates>
    </Point>
  </Placemark><Placemark>
    <name>Courchapoix, village</name>
    <Style><LineStyle><width>2</width></LineStyle></Style>
    <Point>
      <extrude>1</extrude>
      <tesselate>0</tesselate>
      <altitudeMode>relativeToGround</altitudeMode>
      <coordinates>7.4565, 47.3484,20</coordinates>
    </Point>
  </Placemark><Placemark>
    <name>Courroux, La Forge</name>
    <Style><LineStyle><width>2</width></LineStyle></Style>
    <Point>
      <extrude>1</extrude>
      <tesselate>0</tesselate>
      <altitudeMode>relativeToGround</altitudeMode>
      <coordinates>7.38039, 47.3615,20</coordinates>
    </Point>
  </Placemark><Placemark>
    <name>Vicques, bas du village</name>
    <Style><LineStyle><width>2</width></LineStyle></Style>
    <Point>
      <extrude>1</extrude>
      <tesselate>0</tesselate>
      <altitudeMode>relativeToGround</altitudeMode>
      <coordinates>7.40754, 47.3491,20</coordinates>
    </Point>
  </Placemark><Placemark>
    <name>Recolaine, Es Montes</name>
    <Style><LineStyle><width>2</width></LineStyle></Style>
    <Point>
      <extrude>1</extrude>
      <tesselate>0</tesselate>
      <altitudeMode>relativeToGround</altitudeMode>
      <coordinates>7.42309, 47.3509,20</coordinates>
    </Point>
  </Placemark><Placemark>
    <name>Delémont, Parc Gros-Pré</name>
    <Style><LineStyle><width>2</width></LineStyle></Style>
    <Point>
      <extrude>1</extrude>
      <tesselate>0</tesselate>
      <altitudeMode>relativeToGround</altitudeMode>
      <coordinates>7.34385, 47.3654,20</coordinates>
    </Point>
  </Placemark><Placemark>
    <name>Courroux, Les Suédois</name>
    <Style><LineStyle><width>2</width></LineStyle></Style>
    <Point>
      <extrude>1</extrude>
      <tesselate>0</tesselate>
      <altitudeMode>relativeToGround</altitudeMode>
      <coordinates>7.37921, 47.3558,20</coordinates>
    </Point>
  </Placemark><Placemark>
    <name>Delémont, rte de Porrentruy</name>
    <Style><LineStyle><width>2</width></LineStyle></Style>
    <Point>
      <extrude>1</extrude>
      <tesselate>0</tesselate>
      <altitudeMode>relativeToGround</altitudeMode>
      <coordinates>7.34068, 47.363,20</coordinates>
    </Point>
  </Placemark><Placemark>
    <name>Delémont, La Golatte</name>
    <Style><LineStyle><width>2</width></LineStyle></Style>
    <Point>
      <extrude>1</extrude>
      <tesselate>0</tesselate>
      <altitudeMode>relativeToGround</altitudeMode>
      <coordinates>7.33704, 47.3619,20</coordinates>
    </Point>
  </Placemark><Placemark>
    <name>Delémont, place de la Foire</name>
    <Style><LineStyle><width>2</width></LineStyle></Style>
    <Point>
      <extrude>1</extrude>
      <tesselate>0</tesselate>
      <altitudeMode>relativeToGround</altitudeMode>
      <coordinates>7.34491, 47.3666,20</coordinates>
    </Point>
  </Placemark><Placemark>
    <name>Delémont, Righi</name>
    <Style><LineStyle><width>2</width></LineStyle></Style>
    <Point>
      <extrude>1</extrude>
      <tesselate>0</tesselate>
      <altitudeMode>relativeToGround</altitudeMode>
      <coordinates>7.35623, 47.3635,20</coordinates>
    </Point>
  </Placemark><Placemark>
    <name>Delémont, Morépont</name>
    <Style><LineStyle><width>2</width></LineStyle></Style>
    <Point>
      <extrude>1</extrude>
      <tesselate>0</tesselate>
      <altitudeMode>relativeToGround</altitudeMode>
      <coordinates>7.35556, 47.37,20</coordinates>
    </Point>
  </Placemark><Placemark>
    <name>Delémont, Giratoire Vorbourg</name>
    <Style><LineStyle><width>2</width></LineStyle></Style>
    <Point>
      <extrude>1</extrude>
      <tesselate>0</tesselate>
      <altitudeMode>relativeToGround</altitudeMode>
      <coordinates>7.34993, 47.3712,20</coordinates>
    </Point>
  </Placemark><Placemark>
    <name>Delémont, centre l'Avenir</name>
    <Style><LineStyle><width>2</width></LineStyle></Style>
    <Point>
      <extrude>1</extrude>
      <tesselate>0</tesselate>
      <altitudeMode>relativeToGround</altitudeMode>
      <coordinates>7.35405, 47.3652,20</coordinates>
    </Point>
  </Placemark><Placemark>
    <name>Vermes, bif. Tiergarten</name>
    <Style><LineStyle><width>2</width></LineStyle></Style>
    <Point>
      <extrude>1</extrude>
      <tesselate>0</tesselate>
      <altitudeMode>relativeToGround</altitudeMode>
      <coordinates>7.45616, 47.3266,20</coordinates>
    </Point>
  </Placemark><Placemark>
    <name>Delémont, Le Ticle</name>
    <Style><LineStyle><width>2</width></LineStyle></Style>
    <Point>
      <extrude>1</extrude>
      <tesselate>0</tesselate>
      <altitudeMode>relativeToGround</altitudeMode>
      <coordinates>7.34762, 47.3668,20</coordinates>
    </Point>
  </Placemark></Document>
</kml>
