<kml>
<Document>

<Region>
<LatLonAltBox>
<north>47.591425</north><south>47.326450</south><east>7.619975</east><west>7.010890</west>
<minAltitude>0.000000</minAltitude><maxAltitude>0.000000</maxAltitude>
</LatLonAltBox>
<minLodPixels>2048</minLodPixels><maxLodPixels>1000000000</maxLodPixels>
<minFadeExtent>0</minFadeExtent><maxFadeExtent>0</maxFadeExtent>
</Region>
<NetworkLink>
<name>00120</name>

<Region>
<LatLonAltBox>
<north>47.591425</north><south>47.458938</south><east>7.315433</east><west>7.010890</west>
<minAltitude>0.000000</minAltitude><maxAltitude>0.000000</maxAltitude>
</LatLonAltBox>
<minLodPixels>256</minLodPixels><maxLodPixels>1000000000</maxLodPixels>
<minFadeExtent>0</minFadeExtent><maxFadeExtent>0</maxFadeExtent>
</Region>
<Link>
<href>00120.kml</href><viewRefreshMode>onRegion</viewRefreshMode></Link>
</NetworkLink>
<NetworkLink>
<name>00121</name>

<Region>
<LatLonAltBox>
<north>47.591425</north><south>47.458938</south><east>7.619975</east><west>7.315433</west>
<minAltitude>0.000000</minAltitude><maxAltitude>0.000000</maxAltitude>
</LatLonAltBox>
<minLodPixels>256</minLodPixels><maxLodPixels>1000000000</maxLodPixels>
<minFadeExtent>0</minFadeExtent><maxFadeExtent>0</maxFadeExtent>
</Region>
<Link>
<href>00121.kml</href><viewRefreshMode>onRegion</viewRefreshMode></Link>
</NetworkLink>
<NetworkLink>
<name>00122</name>

<Region>
<LatLonAltBox>
<north>47.458938</north><south>47.326450</south><east>7.315433</east><west>7.010890</west>
<minAltitude>0.000000</minAltitude><maxAltitude>0.000000</maxAltitude>
</LatLonAltBox>
<minLodPixels>256</minLodPixels><maxLodPixels>1000000000</maxLodPixels>
<minFadeExtent>0</minFadeExtent><maxFadeExtent>0</maxFadeExtent>
</Region>
<Link>
<href>00122.kml</href><viewRefreshMode>onRegion</viewRefreshMode></Link>
</NetworkLink>
<NetworkLink>
<name>00123</name>

<Region>
<LatLonAltBox>
<north>47.458938</north><south>47.326450</south><east>7.619975</east><west>7.315433</west>
<minAltitude>0.000000</minAltitude><maxAltitude>0.000000</maxAltitude>
</LatLonAltBox>
<minLodPixels>256</minLodPixels><maxLodPixels>1000000000</maxLodPixels>
<minFadeExtent>0</minFadeExtent><maxFadeExtent>0</maxFadeExtent>
</Region>
<Link>
<href>00123.kml</href><viewRefreshMode>onRegion</viewRefreshMode></Link>
</NetworkLink>
<Placemark>
    <name>Hofstetten SO, Ettingerstrasse</name>
    <Style><LineStyle><width>2</width></LineStyle></Style>
    <Point>
      <extrude>1</extrude>
      <tesselate>0</tesselate>
      <altitudeMode>relativeToGround</altitudeMode>
      <coordinates>7.52287, 47.4741,20</coordinates>
    </Point>
  </Placemark><Placemark>
    <name>Schönenbuch, Dorf</name>
    <Style><LineStyle><width>2</width></LineStyle></Style>
    <Point>
      <extrude>1</extrude>
      <tesselate>0</tesselate>
      <altitudeMode>relativeToGround</altitudeMode>
      <coordinates>7.50106, 47.5366,20</coordinates>
    </Point>
  </Placemark><Placemark>
    <name>Wahlen b. Laufen, Oberdorf</name>
    <Style><LineStyle><width>2</width></LineStyle></Style>
    <Point>
      <extrude>1</extrude>
      <tesselate>0</tesselate>
      <altitudeMode>relativeToGround</altitudeMode>
      <coordinates>7.51547, 47.3995,20</coordinates>
    </Point>
  </Placemark><Placemark>
    <name>Wahlen b. Laufen, Traube</name>
    <Style><LineStyle><width>2</width></LineStyle></Style>
    <Point>
      <extrude>1</extrude>
      <tesselate>0</tesselate>
      <altitudeMode>relativeToGround</altitudeMode>
      <coordinates>7.51382, 47.4033,20</coordinates>
    </Point>
  </Placemark><Placemark>
    <name>Grindel, Unterdorf</name>
    <Style><LineStyle><width>2</width></LineStyle></Style>
    <Point>
      <extrude>1</extrude>
      <tesselate>0</tesselate>
      <altitudeMode>relativeToGround</altitudeMode>
      <coordinates>7.50485, 47.3814,20</coordinates>
    </Point>
  </Placemark><Placemark>
    <name>Bärschwil, Hölzlirank</name>
    <Style><LineStyle><width>2</width></LineStyle></Style>
    <Point>
      <extrude>1</extrude>
      <tesselate>0</tesselate>
      <altitudeMode>relativeToGround</altitudeMode>
      <coordinates>7.46711, 47.3889,20</coordinates>
    </Point>
  </Placemark><Placemark>
    <name>Bärschwil, Oberdorf</name>
    <Style><LineStyle><width>2</width></LineStyle></Style>
    <Point>
      <extrude>1</extrude>
      <tesselate>0</tesselate>
      <altitudeMode>relativeToGround</altitudeMode>
      <coordinates>7.47505, 47.3806,20</coordinates>
    </Point>
  </Placemark><Placemark>
    <name>Dittingen, Industriezone Ried</name>
    <Style><LineStyle><width>2</width></LineStyle></Style>
    <Point>
      <extrude>1</extrude>
      <tesselate>0</tesselate>
      <altitudeMode>relativeToGround</altitudeMode>
      <coordinates>7.50988, 47.43,20</coordinates>
    </Point>
  </Placemark><Placemark>
    <name>Laufen, Ricola/Spilag</name>
    <Style><LineStyle><width>2</width></LineStyle></Style>
    <Point>
      <extrude>1</extrude>
      <tesselate>0</tesselate>
      <altitudeMode>relativeToGround</altitudeMode>
      <coordinates>7.50722, 47.4235,20</coordinates>
    </Point>
  </Placemark><Placemark>
    <name>Zwingen, Schulhaus</name>
    <Style><LineStyle><width>2</width></LineStyle></Style>
    <Point>
      <extrude>1</extrude>
      <tesselate>0</tesselate>
      <altitudeMode>relativeToGround</altitudeMode>
      <coordinates>7.53077, 47.4368,20</coordinates>
    </Point>
  </Placemark><Placemark>
    <name>Zwingen, Laufenstrasse</name>
    <Style><LineStyle><width>2</width></LineStyle></Style>
    <Point>
      <extrude>1</extrude>
      <tesselate>0</tesselate>
      <altitudeMode>relativeToGround</altitudeMode>
      <coordinates>7.52513, 47.4377,20</coordinates>
    </Point>
  </Placemark><Placemark>
    <name>Dornach, Kirche</name>
    <Style><LineStyle><width>2</width></LineStyle></Style>
    <Point>
      <extrude>1</extrude>
      <tesselate>0</tesselate>
      <altitudeMode>relativeToGround</altitudeMode>
      <coordinates>7.61542, 47.4807,20</coordinates>
    </Point>
  </Placemark><Placemark>
    <name>Dornach-Arlesheim, Bahnhof</name>
    <Style><LineStyle><width>2</width></LineStyle></Style>
    <Point>
      <extrude>1</extrude>
      <tesselate>0</tesselate>
      <altitudeMode>relativeToGround</altitudeMode>
      <coordinates>7.6108, 47.4888,20</coordinates>
    </Point>
  </Placemark><Placemark>
    <name>Metzerlen, Post</name>
    <Style><LineStyle><width>2</width></LineStyle></Style>
    <Point>
      <extrude>1</extrude>
      <tesselate>0</tesselate>
      <altitudeMode>relativeToGround</altitudeMode>
      <coordinates>7.4645, 47.4642,20</coordinates>
    </Point>
  </Placemark><Placemark>
    <name>Hofstetten SO, Mariasteinstr.</name>
    <Style><LineStyle><width>2</width></LineStyle></Style>
    <Point>
      <extrude>1</extrude>
      <tesselate>0</tesselate>
      <altitudeMode>relativeToGround</altitudeMode>
      <coordinates>7.51524, 47.4746,20</coordinates>
    </Point>
  </Placemark><Placemark>
    <name>Zullwil, Post</name>
    <Style><LineStyle><width>2</width></LineStyle></Style>
    <Point>
      <extrude>1</extrude>
      <tesselate>0</tesselate>
      <altitudeMode>relativeToGround</altitudeMode>
      <coordinates>7.60022, 47.3908,20</coordinates>
    </Point>
  </Placemark><Placemark>
    <name>Meltingen, Post</name>
    <Style><LineStyle><width>2</width></LineStyle></Style>
    <Point>
      <extrude>1</extrude>
      <tesselate>0</tesselate>
      <altitudeMode>relativeToGround</altitudeMode>
      <coordinates>7.59028, 47.3897,20</coordinates>
    </Point>
  </Placemark><Placemark>
    <name>Fehren, Post</name>
    <Style><LineStyle><width>2</width></LineStyle></Style>
    <Point>
      <extrude>1</extrude>
      <tesselate>0</tesselate>
      <altitudeMode>relativeToGround</altitudeMode>
      <coordinates>7.57838, 47.3971,20</coordinates>
    </Point>
  </Placemark><Placemark>
    <name>Delémont, Sainte-Catherine</name>
    <Style><LineStyle><width>2</width></LineStyle></Style>
    <Point>
      <extrude>1</extrude>
      <tesselate>0</tesselate>
      <altitudeMode>relativeToGround</altitudeMode>
      <coordinates>7.33658, 47.361,20</coordinates>
    </Point>
  </Placemark><Placemark>
    <name>Courtemaîche, gare</name>
    <Style><LineStyle><width>2</width></LineStyle></Style>
    <Point>
      <extrude>1</extrude>
      <tesselate>0</tesselate>
      <altitudeMode>relativeToGround</altitudeMode>
      <coordinates>7.04957, 47.4554,20</coordinates>
    </Point>
  </Placemark><Placemark>
    <name>Himmelried, Post</name>
    <Style><LineStyle><width>2</width></LineStyle></Style>
    <Point>
      <extrude>1</extrude>
      <tesselate>0</tesselate>
      <altitudeMode>relativeToGround</altitudeMode>
      <coordinates>7.59733, 47.4219,20</coordinates>
    </Point>
  </Placemark><Placemark>
    <name>Breitenbach, Dorfplatz</name>
    <Style><LineStyle><width>2</width></LineStyle></Style>
    <Point>
      <extrude>1</extrude>
      <tesselate>0</tesselate>
      <altitudeMode>relativeToGround</altitudeMode>
      <coordinates>7.54529, 47.4082,20</coordinates>
    </Point>
  </Placemark><Placemark>
    <name>Brislach, Post</name>
    <Style><LineStyle><width>2</width></LineStyle></Style>
    <Point>
      <extrude>1</extrude>
      <tesselate>0</tesselate>
      <altitudeMode>relativeToGround</altitudeMode>
      <coordinates>7.54266, 47.419,20</coordinates>
    </Point>
  </Placemark><Placemark>
    <name>Büsserach, Post</name>
    <Style><LineStyle><width>2</width></LineStyle></Style>
    <Point>
      <extrude>1</extrude>
      <tesselate>0</tesselate>
      <altitudeMode>relativeToGround</altitudeMode>
      <coordinates>7.54095, 47.3931,20</coordinates>
    </Point>
  </Placemark><Placemark>
    <name>Erschwil, Post</name>
    <Style><LineStyle><width>2</width></LineStyle></Style>
    <Point>
      <extrude>1</extrude>
      <tesselate>0</tesselate>
      <altitudeMode>relativeToGround</altitudeMode>
      <coordinates>7.54191, 47.3734,20</coordinates>
    </Point>
  </Placemark><Placemark>
    <name>Meltingen, Meltingerbrücke</name>
    <Style><LineStyle><width>2</width></LineStyle></Style>
    <Point>
      <extrude>1</extrude>
      <tesselate>0</tesselate>
      <altitudeMode>relativeToGround</altitudeMode>
      <coordinates>7.59161, 47.392,20</coordinates>
    </Point>
  </Placemark><Placemark>
    <name>Fehren, Steinenbühlhöhe</name>
    <Style><LineStyle><width>2</width></LineStyle></Style>
    <Point>
      <extrude>1</extrude>
      <tesselate>0</tesselate>
      <altitudeMode>relativeToGround</altitudeMode>
      <coordinates>7.584, 47.394,20</coordinates>
    </Point>
  </Placemark><Placemark>
    <name>Laufen, Bahnhof</name>
    <Style><LineStyle><width>2</width></LineStyle></Style>
    <Point>
      <extrude>1</extrude>
      <tesselate>0</tesselate>
      <altitudeMode>relativeToGround</altitudeMode>
      <coordinates>7.50191, 47.4193,20</coordinates>
    </Point>
  </Placemark><Placemark>
    <name>Breitenbach, TCS Rastplatz</name>
    <Style><LineStyle><width>2</width></LineStyle></Style>
    <Point>
      <extrude>1</extrude>
      <tesselate>0</tesselate>
      <altitudeMode>relativeToGround</altitudeMode>
      <coordinates>7.56879, 47.4017,20</coordinates>
    </Point>
  </Placemark><Placemark>
    <name>Breitenbach, Oberdorf</name>
    <Style><LineStyle><width>2</width></LineStyle></Style>
    <Point>
      <extrude>1</extrude>
      <tesselate>0</tesselate>
      <altitudeMode>relativeToGround</altitudeMode>
      <coordinates>7.54827, 47.4066,20</coordinates>
    </Point>
  </Placemark><Placemark>
    <name>Breitenbach, Grien</name>
    <Style><LineStyle><width>2</width></LineStyle></Style>
    <Point>
      <extrude>1</extrude>
      <tesselate>0</tesselate>
      <altitudeMode>relativeToGround</altitudeMode>
      <coordinates>7.53999, 47.4071,20</coordinates>
    </Point>
  </Placemark><Placemark>
    <name>Wahlen b. Laufen, Weiern</name>
    <Style><LineStyle><width>2</width></LineStyle></Style>
    <Point>
      <extrude>1</extrude>
      <tesselate>0</tesselate>
      <altitudeMode>relativeToGround</altitudeMode>
      <coordinates>7.52476, 47.4111,20</coordinates>
    </Point>
  </Placemark><Placemark>
    <name>Grindel, Dorfmatt</name>
    <Style><LineStyle><width>2</width></LineStyle></Style>
    <Point>
      <extrude>1</extrude>
      <tesselate>0</tesselate>
      <altitudeMode>relativeToGround</altitudeMode>
      <coordinates>7.50286, 47.3815,20</coordinates>
    </Point>
  </Placemark><Placemark>
    <name>Riedes-Dessus</name>
    <Style><LineStyle><width>2</width></LineStyle></Style>
    <Point>
      <extrude>1</extrude>
      <tesselate>0</tesselate>
      <altitudeMode>relativeToGround</altitudeMode>
      <coordinates>7.40817, 47.3959,20</coordinates>
    </Point>
  </Placemark><Placemark>
    <name>Delémont, rue St-Randoald</name>
    <Style><LineStyle><width>2</width></LineStyle></Style>
    <Point>
      <extrude>1</extrude>
      <tesselate>0</tesselate>
      <altitudeMode>relativeToGround</altitudeMode>
      <coordinates>7.33938, 47.3522,20</coordinates>
    </Point>
  </Placemark><Placemark>
    <name>Oberwil BL, Ziegelei</name>
    <Style><LineStyle><width>2</width></LineStyle></Style>
    <Point>
      <extrude>1</extrude>
      <tesselate>0</tesselate>
      <altitudeMode>relativeToGround</altitudeMode>
      <coordinates>7.55345, 47.5202,20</coordinates>
    </Point>
  </Placemark><Placemark>
    <name>Oberwil BL, Hüslimatt (Bus)</name>
    <Style><LineStyle><width>2</width></LineStyle></Style>
    <Point>
      <extrude>1</extrude>
      <tesselate>0</tesselate>
      <altitudeMode>relativeToGround</altitudeMode>
      <coordinates>7.55454, 47.5073,20</coordinates>
    </Point>
  </Placemark><Placemark>
    <name>Beinwil SO, Post</name>
    <Style><LineStyle><width>2</width></LineStyle></Style>
    <Point>
      <extrude>1</extrude>
      <tesselate>0</tesselate>
      <altitudeMode>relativeToGround</altitudeMode>
      <coordinates>7.57696, 47.3612,20</coordinates>
    </Point>
  </Placemark><Placemark>
    <name>Münchenstein Schaulager</name>
    <Style><LineStyle><width>2</width></LineStyle></Style>
    <Point>
      <extrude>1</extrude>
      <tesselate>0</tesselate>
      <altitudeMode>relativeToGround</altitudeMode>
      <coordinates>7.61162, 47.5278,20</coordinates>
    </Point>
  </Placemark><Placemark>
    <name>Münchenstein Neuewelt/Grün 80</name>
    <Style><LineStyle><width>2</width></LineStyle></Style>
    <Point>
      <extrude>1</extrude>
      <tesselate>0</tesselate>
      <altitudeMode>relativeToGround</altitudeMode>
      <coordinates>7.61344, 47.5279,20</coordinates>
    </Point>
  </Placemark><Placemark>
    <name>Grellingen, Neutal</name>
    <Style><LineStyle><width>2</width></LineStyle></Style>
    <Point>
      <extrude>1</extrude>
      <tesselate>0</tesselate>
      <altitudeMode>relativeToGround</altitudeMode>
      <coordinates>7.59274, 47.4392,20</coordinates>
    </Point>
  </Placemark><Placemark>
    <name>Himmelried, Schulhaus</name>
    <Style><LineStyle><width>2</width></LineStyle></Style>
    <Point>
      <extrude>1</extrude>
      <tesselate>0</tesselate>
      <altitudeMode>relativeToGround</altitudeMode>
      <coordinates>7.59567, 47.4212,20</coordinates>
    </Point>
  </Placemark><Placemark>
    <name>Porrentruy, Collège Thurmann</name>
    <Style><LineStyle><width>2</width></LineStyle></Style>
    <Point>
      <extrude>1</extrude>
      <tesselate>0</tesselate>
      <altitudeMode>relativeToGround</altitudeMode>
      <coordinates>7.08001, 47.4256,20</coordinates>
    </Point>
  </Placemark><Placemark>
    <name>Kleinlützel, Schulhaus</name>
    <Style><LineStyle><width>2</width></LineStyle></Style>
    <Point>
      <extrude>1</extrude>
      <tesselate>0</tesselate>
      <altitudeMode>relativeToGround</altitudeMode>
      <coordinates>7.41796, 47.4233,20</coordinates>
    </Point>
  </Placemark><Placemark>
    <name>Glovelier, gare</name>
    <Style><LineStyle><width>2</width></LineStyle></Style>
    <Point>
      <extrude>1</extrude>
      <tesselate>0</tesselate>
      <altitudeMode>relativeToGround</altitudeMode>
      <coordinates>7.20902, 47.3352,20</coordinates>
    </Point>
  </Placemark><Placemark>
    <name>Delémont, rte de Rossemaison</name>
    <Style><LineStyle><width>2</width></LineStyle></Style>
    <Point>
      <extrude>1</extrude>
      <tesselate>0</tesselate>
      <altitudeMode>relativeToGround</altitudeMode>
      <coordinates>7.34546, 47.3561,20</coordinates>
    </Point>
  </Placemark><Placemark>
    <name>Vendlincourt</name>
    <Style><LineStyle><width>2</width></LineStyle></Style>
    <Point>
      <extrude>1</extrude>
      <tesselate>0</tesselate>
      <altitudeMode>relativeToGround</altitudeMode>
      <coordinates>7.15667, 47.4526,20</coordinates>
    </Point>
  </Placemark><Placemark>
    <name>Alle</name>
    <Style><LineStyle><width>2</width></LineStyle></Style>
    <Point>
      <extrude>1</extrude>
      <tesselate>0</tesselate>
      <altitudeMode>relativeToGround</altitudeMode>
      <coordinates>7.12835, 47.4242,20</coordinates>
    </Point>
  </Placemark><Placemark>
    <name>Bonfol</name>
    <Style><LineStyle><width>2</width></LineStyle></Style>
    <Point>
      <extrude>1</extrude>
      <tesselate>0</tesselate>
      <altitudeMode>relativeToGround</altitudeMode>
      <coordinates>7.15541, 47.474,20</coordinates>
    </Point>
  </Placemark></Document>
</kml>
