<kml>
<Document>

<Region>
<LatLonAltBox>
<north>47.591425</north><south>47.525181</south><east>8.076789</east><west>7.924518</west>
<minAltitude>0.000000</minAltitude><maxAltitude>0.000000</maxAltitude>
</LatLonAltBox>
<minLodPixels>2048</minLodPixels><maxLodPixels>1000000000</maxLodPixels>
<minFadeExtent>0</minFadeExtent><maxFadeExtent>0</maxFadeExtent>
</Region>
<Placemark>
    <name>Obermumpf, Ausserdorf</name>
    <Style><LineStyle><width>2</width></LineStyle></Style>
    <Point>
      <extrude>1</extrude>
      <tesselate>0</tesselate>
      <altitudeMode>relativeToGround</altitudeMode>
      <coordinates>7.93792, 47.529,20</coordinates>
    </Point>
  </Placemark><Placemark>
    <name>Obermumpf, Bündtematt</name>
    <Style><LineStyle><width>2</width></LineStyle></Style>
    <Point>
      <extrude>1</extrude>
      <tesselate>0</tesselate>
      <altitudeMode>relativeToGround</altitudeMode>
      <coordinates>7.93067, 47.5343,20</coordinates>
    </Point>
  </Placemark><Placemark>
    <name>Kaisten, Steigstich</name>
    <Style><LineStyle><width>2</width></LineStyle></Style>
    <Point>
      <extrude>1</extrude>
      <tesselate>0</tesselate>
      <altitudeMode>relativeToGround</altitudeMode>
      <coordinates>8.04718, 47.5321,20</coordinates>
    </Point>
  </Placemark><Placemark>
    <name>Laufenburg, Schulhaus Blauen</name>
    <Style><LineStyle><width>2</width></LineStyle></Style>
    <Point>
      <extrude>1</extrude>
      <tesselate>0</tesselate>
      <altitudeMode>relativeToGround</altitudeMode>
      <coordinates>8.05772, 47.553,20</coordinates>
    </Point>
  </Placemark><Placemark>
    <name>Sisseln AG, Roche</name>
    <Style><LineStyle><width>2</width></LineStyle></Style>
    <Point>
      <extrude>1</extrude>
      <tesselate>0</tesselate>
      <altitudeMode>relativeToGround</altitudeMode>
      <coordinates>7.97999, 47.5518,20</coordinates>
    </Point>
  </Placemark><Placemark>
    <name>Sisseln AG, Novartis</name>
    <Style><LineStyle><width>2</width></LineStyle></Style>
    <Point>
      <extrude>1</extrude>
      <tesselate>0</tesselate>
      <altitudeMode>relativeToGround</altitudeMode>
      <coordinates>7.96738, 47.553,20</coordinates>
    </Point>
  </Placemark><Placemark>
    <name>Münchwilen AG, Wendeplatz</name>
    <Style><LineStyle><width>2</width></LineStyle></Style>
    <Point>
      <extrude>1</extrude>
      <tesselate>0</tesselate>
      <altitudeMode>relativeToGround</altitudeMode>
      <coordinates>7.96486, 47.5399,20</coordinates>
    </Point>
  </Placemark><Placemark>
    <name>Kaisten, Weidstrasse</name>
    <Style><LineStyle><width>2</width></LineStyle></Style>
    <Point>
      <extrude>1</extrude>
      <tesselate>0</tesselate>
      <altitudeMode>relativeToGround</altitudeMode>
      <coordinates>8.04465, 47.5432,20</coordinates>
    </Point>
  </Placemark><Placemark>
    <name>Laufenburg, Bahnhof</name>
    <Style><LineStyle><width>2</width></LineStyle></Style>
    <Point>
      <extrude>1</extrude>
      <tesselate>0</tesselate>
      <altitudeMode>relativeToGround</altitudeMode>
      <coordinates>8.06112, 47.5602,20</coordinates>
    </Point>
  </Placemark><Placemark>
    <name>Laufenburg, Kera-Werke</name>
    <Style><LineStyle><width>2</width></LineStyle></Style>
    <Point>
      <extrude>1</extrude>
      <tesselate>0</tesselate>
      <altitudeMode>relativeToGround</altitudeMode>
      <coordinates>8.05741, 47.5552,20</coordinates>
    </Point>
  </Placemark><Placemark>
    <name>Kaisten, Ritanne</name>
    <Style><LineStyle><width>2</width></LineStyle></Style>
    <Point>
      <extrude>1</extrude>
      <tesselate>0</tesselate>
      <altitudeMode>relativeToGround</altitudeMode>
      <coordinates>8.03111, 47.5495,20</coordinates>
    </Point>
  </Placemark><Placemark>
    <name>Obermumpf, Post</name>
    <Style><LineStyle><width>2</width></LineStyle></Style>
    <Point>
      <extrude>1</extrude>
      <tesselate>0</tesselate>
      <altitudeMode>relativeToGround</altitudeMode>
      <coordinates>7.93463, 47.5318,20</coordinates>
    </Point>
  </Placemark><Placemark>
    <name>Eiken, Post</name>
    <Style><LineStyle><width>2</width></LineStyle></Style>
    <Point>
      <extrude>1</extrude>
      <tesselate>0</tesselate>
      <altitudeMode>relativeToGround</altitudeMode>
      <coordinates>7.98809, 47.5324,20</coordinates>
    </Point>
  </Placemark><Placemark>
    <name>Eiken</name>
    <Style><LineStyle><width>2</width></LineStyle></Style>
    <Point>
      <extrude>1</extrude>
      <tesselate>0</tesselate>
      <altitudeMode>relativeToGround</altitudeMode>
      <coordinates>7.98978, 47.5331,20</coordinates>
    </Point>
  </Placemark><Placemark>
    <name>Stein-Säckingen, Bahnhof</name>
    <Style><LineStyle><width>2</width></LineStyle></Style>
    <Point>
      <extrude>1</extrude>
      <tesselate>0</tesselate>
      <altitudeMode>relativeToGround</altitudeMode>
      <coordinates>7.94933, 47.5416,20</coordinates>
    </Point>
  </Placemark><Placemark>
    <name>Stein-Säckingen</name>
    <Style><LineStyle><width>2</width></LineStyle></Style>
    <Point>
      <extrude>1</extrude>
      <tesselate>0</tesselate>
      <altitudeMode>relativeToGround</altitudeMode>
      <coordinates>7.94883, 47.5416,20</coordinates>
    </Point>
  </Placemark><Placemark>
    <name>Laufenburg</name>
    <Style><LineStyle><width>2</width></LineStyle></Style>
    <Point>
      <extrude>1</extrude>
      <tesselate>0</tesselate>
      <altitudeMode>relativeToGround</altitudeMode>
      <coordinates>8.06128, 47.5598,20</coordinates>
    </Point>
  </Placemark><Placemark>
    <name>Stein AG, Zürcherstrasse</name>
    <Style><LineStyle><width>2</width></LineStyle></Style>
    <Point>
      <extrude>1</extrude>
      <tesselate>0</tesselate>
      <altitudeMode>relativeToGround</altitudeMode>
      <coordinates>7.95531, 47.5413,20</coordinates>
    </Point>
  </Placemark><Placemark>
    <name>Stein AG, Coop</name>
    <Style><LineStyle><width>2</width></LineStyle></Style>
    <Point>
      <extrude>1</extrude>
      <tesselate>0</tesselate>
      <altitudeMode>relativeToGround</altitudeMode>
      <coordinates>7.9517, 47.5463,20</coordinates>
    </Point>
  </Placemark><Placemark>
    <name>Stein AG, Novartis</name>
    <Style><LineStyle><width>2</width></LineStyle></Style>
    <Point>
      <extrude>1</extrude>
      <tesselate>0</tesselate>
      <altitudeMode>relativeToGround</altitudeMode>
      <coordinates>7.95906, 47.5512,20</coordinates>
    </Point>
  </Placemark><Placemark>
    <name>Laufenburg, Regionalspital</name>
    <Style><LineStyle><width>2</width></LineStyle></Style>
    <Point>
      <extrude>1</extrude>
      <tesselate>0</tesselate>
      <altitudeMode>relativeToGround</altitudeMode>
      <coordinates>8.06314, 47.5624,20</coordinates>
    </Point>
  </Placemark></Document>
</kml>
