<kml>
<Document>

<Region>
<LatLonAltBox>
<north>47.525181</north><south>47.458938</south><east>7.924518</east><west>7.772246</west>
<minAltitude>0.000000</minAltitude><maxAltitude>0.000000</maxAltitude>
</LatLonAltBox>
<minLodPixels>2048</minLodPixels><maxLodPixels>1000000000</maxLodPixels>
<minFadeExtent>0</minFadeExtent><maxFadeExtent>0</maxFadeExtent>
</Region>
<Placemark>
    <name>Böckten</name>
    <Style><LineStyle><width>2</width></LineStyle></Style>
    <Point>
      <extrude>1</extrude>
      <tesselate>0</tesselate>
      <altitudeMode>relativeToGround</altitudeMode>
      <coordinates>7.83518, 47.4622,20</coordinates>
    </Point>
  </Placemark><Placemark>
    <name>Sissach, Bahnhof</name>
    <Style><LineStyle><width>2</width></LineStyle></Style>
    <Point>
      <extrude>1</extrude>
      <tesselate>0</tesselate>
      <altitudeMode>relativeToGround</altitudeMode>
      <coordinates>7.81131, 47.4632,20</coordinates>
    </Point>
  </Placemark><Placemark>
    <name>Wintersingen, Post</name>
    <Style><LineStyle><width>2</width></LineStyle></Style>
    <Point>
      <extrude>1</extrude>
      <tesselate>0</tesselate>
      <altitudeMode>relativeToGround</altitudeMode>
      <coordinates>7.82216, 47.4964,20</coordinates>
    </Point>
  </Placemark><Placemark>
    <name>Olsberg, Mitteldorf</name>
    <Style><LineStyle><width>2</width></LineStyle></Style>
    <Point>
      <extrude>1</extrude>
      <tesselate>0</tesselate>
      <altitudeMode>relativeToGround</altitudeMode>
      <coordinates>7.78317, 47.5208,20</coordinates>
    </Point>
  </Placemark><Placemark>
    <name>Olsberg, Vorstadt</name>
    <Style><LineStyle><width>2</width></LineStyle></Style>
    <Point>
      <extrude>1</extrude>
      <tesselate>0</tesselate>
      <altitudeMode>relativeToGround</altitudeMode>
      <coordinates>7.78716, 47.5217,20</coordinates>
    </Point>
  </Placemark><Placemark>
    <name>Olsberg, Schönenbühl</name>
    <Style><LineStyle><width>2</width></LineStyle></Style>
    <Point>
      <extrude>1</extrude>
      <tesselate>0</tesselate>
      <altitudeMode>relativeToGround</altitudeMode>
      <coordinates>7.79579, 47.5215,20</coordinates>
    </Point>
  </Placemark><Placemark>
    <name>Sissach</name>
    <Style><LineStyle><width>2</width></LineStyle></Style>
    <Point>
      <extrude>1</extrude>
      <tesselate>0</tesselate>
      <altitudeMode>relativeToGround</altitudeMode>
      <coordinates>7.81203, 47.4628,20</coordinates>
    </Point>
  </Placemark><Placemark>
    <name>Gelterkinden</name>
    <Style><LineStyle><width>2</width></LineStyle></Style>
    <Point>
      <extrude>1</extrude>
      <tesselate>0</tesselate>
      <altitudeMode>relativeToGround</altitudeMode>
      <coordinates>7.84766, 47.4659,20</coordinates>
    </Point>
  </Placemark><Placemark>
    <name>Itingen</name>
    <Style><LineStyle><width>2</width></LineStyle></Style>
    <Point>
      <extrude>1</extrude>
      <tesselate>0</tesselate>
      <altitudeMode>relativeToGround</altitudeMode>
      <coordinates>7.78721, 47.4673,20</coordinates>
    </Point>
  </Placemark><Placemark>
    <name>Buus, Tagungszentrum Waldegg</name>
    <Style><LineStyle><width>2</width></LineStyle></Style>
    <Point>
      <extrude>1</extrude>
      <tesselate>0</tesselate>
      <altitudeMode>relativeToGround</altitudeMode>
      <coordinates>7.85233, 47.493,20</coordinates>
    </Point>
  </Placemark><Placemark>
    <name>Hellikon, Post</name>
    <Style><LineStyle><width>2</width></LineStyle></Style>
    <Point>
      <extrude>1</extrude>
      <tesselate>0</tesselate>
      <altitudeMode>relativeToGround</altitudeMode>
      <coordinates>7.92447, 47.5093,20</coordinates>
    </Point>
  </Placemark><Placemark>
    <name>Gelterkinden, Post</name>
    <Style><LineStyle><width>2</width></LineStyle></Style>
    <Point>
      <extrude>1</extrude>
      <tesselate>0</tesselate>
      <altitudeMode>relativeToGround</altitudeMode>
      <coordinates>7.85344, 47.4655,20</coordinates>
    </Point>
  </Placemark><Placemark>
    <name>Hemmiken, Dorf</name>
    <Style><LineStyle><width>2</width></LineStyle></Style>
    <Point>
      <extrude>1</extrude>
      <tesselate>0</tesselate>
      <altitudeMode>relativeToGround</altitudeMode>
      <coordinates>7.89276, 47.4881,20</coordinates>
    </Point>
  </Placemark><Placemark>
    <name>Gelterkinden, Schwimmbad</name>
    <Style><LineStyle><width>2</width></LineStyle></Style>
    <Point>
      <extrude>1</extrude>
      <tesselate>0</tesselate>
      <altitudeMode>relativeToGround</altitudeMode>
      <coordinates>7.86566, 47.4594,20</coordinates>
    </Point>
  </Placemark><Placemark>
    <name>Gelterkinden, Bleichiweg</name>
    <Style><LineStyle><width>2</width></LineStyle></Style>
    <Point>
      <extrude>1</extrude>
      <tesselate>0</tesselate>
      <altitudeMode>relativeToGround</altitudeMode>
      <coordinates>7.86036, 47.4603,20</coordinates>
    </Point>
  </Placemark><Placemark>
    <name>Gelterkinden, Bahnhof</name>
    <Style><LineStyle><width>2</width></LineStyle></Style>
    <Point>
      <extrude>1</extrude>
      <tesselate>0</tesselate>
      <altitudeMode>relativeToGround</altitudeMode>
      <coordinates>7.8488, 47.466,20</coordinates>
    </Point>
  </Placemark><Placemark>
    <name>Ormalingen, Schulhaus</name>
    <Style><LineStyle><width>2</width></LineStyle></Style>
    <Point>
      <extrude>1</extrude>
      <tesselate>0</tesselate>
      <altitudeMode>relativeToGround</altitudeMode>
      <coordinates>7.87502, 47.469,20</coordinates>
    </Point>
  </Placemark><Placemark>
    <name>Buus, Untere Farnsburg</name>
    <Style><LineStyle><width>2</width></LineStyle></Style>
    <Point>
      <extrude>1</extrude>
      <tesselate>0</tesselate>
      <altitudeMode>relativeToGround</altitudeMode>
      <coordinates>7.86199, 47.4981,20</coordinates>
    </Point>
  </Placemark><Placemark>
    <name>Rickenbach BL, Hinterdorf</name>
    <Style><LineStyle><width>2</width></LineStyle></Style>
    <Point>
      <extrude>1</extrude>
      <tesselate>0</tesselate>
      <altitudeMode>relativeToGround</altitudeMode>
      <coordinates>7.84995, 47.4858,20</coordinates>
    </Point>
  </Placemark><Placemark>
    <name>Gelterkinden, Rünenbergerbr.</name>
    <Style><LineStyle><width>2</width></LineStyle></Style>
    <Point>
      <extrude>1</extrude>
      <tesselate>0</tesselate>
      <altitudeMode>relativeToGround</altitudeMode>
      <coordinates>7.85806, 47.4633,20</coordinates>
    </Point>
  </Placemark><Placemark>
    <name>Hemmiken, Stiegelmatt</name>
    <Style><LineStyle><width>2</width></LineStyle></Style>
    <Point>
      <extrude>1</extrude>
      <tesselate>0</tesselate>
      <altitudeMode>relativeToGround</altitudeMode>
      <coordinates>7.88475, 47.4827,20</coordinates>
    </Point>
  </Placemark><Placemark>
    <name>Ormalingen, Oberdorf</name>
    <Style><LineStyle><width>2</width></LineStyle></Style>
    <Point>
      <extrude>1</extrude>
      <tesselate>0</tesselate>
      <altitudeMode>relativeToGround</altitudeMode>
      <coordinates>7.87833, 47.4681,20</coordinates>
    </Point>
  </Placemark><Placemark>
    <name>Rothenfluh, Säge</name>
    <Style><LineStyle><width>2</width></LineStyle></Style>
    <Point>
      <extrude>1</extrude>
      <tesselate>0</tesselate>
      <altitudeMode>relativeToGround</altitudeMode>
      <coordinates>7.89856, 47.4687,20</coordinates>
    </Point>
  </Placemark><Placemark>
    <name>Buus, Aufgend</name>
    <Style><LineStyle><width>2</width></LineStyle></Style>
    <Point>
      <extrude>1</extrude>
      <tesselate>0</tesselate>
      <altitudeMode>relativeToGround</altitudeMode>
      <coordinates>7.85908, 47.5085,20</coordinates>
    </Point>
  </Placemark><Placemark>
    <name>Buus, Turnhalle</name>
    <Style><LineStyle><width>2</width></LineStyle></Style>
    <Point>
      <extrude>1</extrude>
      <tesselate>0</tesselate>
      <altitudeMode>relativeToGround</altitudeMode>
      <coordinates>7.86435, 47.5028,20</coordinates>
    </Point>
  </Placemark><Placemark>
    <name>Maisprach, Hofmet</name>
    <Style><LineStyle><width>2</width></LineStyle></Style>
    <Point>
      <extrude>1</extrude>
      <tesselate>0</tesselate>
      <altitudeMode>relativeToGround</altitudeMode>
      <coordinates>7.83996, 47.5245,20</coordinates>
    </Point>
  </Placemark><Placemark>
    <name>Nusshof, Dorf</name>
    <Style><LineStyle><width>2</width></LineStyle></Style>
    <Point>
      <extrude>1</extrude>
      <tesselate>0</tesselate>
      <altitudeMode>relativeToGround</altitudeMode>
      <coordinates>7.80355, 47.4911,20</coordinates>
    </Point>
  </Placemark></Document>
</kml>
