<kml>
<Document>

<Region>
<LatLonAltBox>
<north>47.525181</north><south>47.458938</south><east>8.229060</east><west>8.076789</west>
<minAltitude>0.000000</minAltitude><maxAltitude>0.000000</maxAltitude>
</LatLonAltBox>
<minLodPixels>2048</minLodPixels><maxLodPixels>1000000000</maxLodPixels>
<minFadeExtent>0</minFadeExtent><maxFadeExtent>0</maxFadeExtent>
</Region>
<NetworkLink>
<name>0013131</name>

<Region>
<LatLonAltBox>
<north>47.525181</north><south>47.492059</south><east>8.229060</east><west>8.152924</west>
<minAltitude>0.000000</minAltitude><maxAltitude>0.000000</maxAltitude>
</LatLonAltBox>
<minLodPixels>256</minLodPixels><maxLodPixels>1000000000</maxLodPixels>
<minFadeExtent>0</minFadeExtent><maxFadeExtent>0</maxFadeExtent>
</Region>
<Link>
<href>0013131.kml</href><viewRefreshMode>onRegion</viewRefreshMode></Link>
</NetworkLink>
<NetworkLink>
<name>0013132</name>

<Region>
<LatLonAltBox>
<north>47.492059</north><south>47.458938</south><east>8.152924</east><west>8.076789</west>
<minAltitude>0.000000</minAltitude><maxAltitude>0.000000</maxAltitude>
</LatLonAltBox>
<minLodPixels>256</minLodPixels><maxLodPixels>1000000000</maxLodPixels>
<minFadeExtent>0</minFadeExtent><maxFadeExtent>0</maxFadeExtent>
</Region>
<Link>
<href>0013132.kml</href><viewRefreshMode>onRegion</viewRefreshMode></Link>
</NetworkLink>
<NetworkLink>
<name>0013133</name>

<Region>
<LatLonAltBox>
<north>47.492059</north><south>47.458938</south><east>8.229060</east><west>8.152924</west>
<minAltitude>0.000000</minAltitude><maxAltitude>0.000000</maxAltitude>
</LatLonAltBox>
<minLodPixels>256</minLodPixels><maxLodPixels>1000000000</maxLodPixels>
<minFadeExtent>0</minFadeExtent><maxFadeExtent>0</maxFadeExtent>
</Region>
<Link>
<href>0013133.kml</href><viewRefreshMode>onRegion</viewRefreshMode></Link>
</NetworkLink>
<Placemark>
    <name>Windisch, Reformierte Kirche</name>
    <Style><LineStyle><width>2</width></LineStyle></Style>
    <Point>
      <extrude>1</extrude>
      <tesselate>0</tesselate>
      <altitudeMode>relativeToGround</altitudeMode>
      <coordinates>8.22472, 47.4816,20</coordinates>
    </Point>
  </Placemark><Placemark>
    <name>Unterbözberg, Egenwil</name>
    <Style><LineStyle><width>2</width></LineStyle></Style>
    <Point>
      <extrude>1</extrude>
      <tesselate>0</tesselate>
      <altitudeMode>relativeToGround</altitudeMode>
      <coordinates>8.14392, 47.4918,20</coordinates>
    </Point>
  </Placemark><Placemark>
    <name>Brugg AG, Aare AG</name>
    <Style><LineStyle><width>2</width></LineStyle></Style>
    <Point>
      <extrude>1</extrude>
      <tesselate>0</tesselate>
      <altitudeMode>relativeToGround</altitudeMode>
      <coordinates>8.18008, 47.4677,20</coordinates>
    </Point>
  </Placemark><Placemark>
    <name>Windisch, Zentrum</name>
    <Style><LineStyle><width>2</width></LineStyle></Style>
    <Point>
      <extrude>1</extrude>
      <tesselate>0</tesselate>
      <altitudeMode>relativeToGround</altitudeMode>
      <coordinates>8.21605, 47.4787,20</coordinates>
    </Point>
  </Placemark><Placemark>
    <name>Windisch, Löwen</name>
    <Style><LineStyle><width>2</width></LineStyle></Style>
    <Point>
      <extrude>1</extrude>
      <tesselate>0</tesselate>
      <altitudeMode>relativeToGround</altitudeMode>
      <coordinates>8.22739, 47.4827,20</coordinates>
    </Point>
  </Placemark><Placemark>
    <name>Ursprung, Post Unterbözberg</name>
    <Style><LineStyle><width>2</width></LineStyle></Style>
    <Point>
      <extrude>1</extrude>
      <tesselate>0</tesselate>
      <altitudeMode>relativeToGround</altitudeMode>
      <coordinates>8.15807, 47.4831,20</coordinates>
    </Point>
  </Placemark><Placemark>
    <name>Villigen, Post</name>
    <Style><LineStyle><width>2</width></LineStyle></Style>
    <Point>
      <extrude>1</extrude>
      <tesselate>0</tesselate>
      <altitudeMode>relativeToGround</altitudeMode>
      <coordinates>8.2157, 47.5228,20</coordinates>
    </Point>
  </Placemark><Placemark>
    <name>Schinznach Dorf, Wallbach</name>
    <Style><LineStyle><width>2</width></LineStyle></Style>
    <Point>
      <extrude>1</extrude>
      <tesselate>0</tesselate>
      <altitudeMode>relativeToGround</altitudeMode>
      <coordinates>8.15614, 47.4631,20</coordinates>
    </Point>
  </Placemark><Placemark>
    <name>Villnachern</name>
    <Style><LineStyle><width>2</width></LineStyle></Style>
    <Point>
      <extrude>1</extrude>
      <tesselate>0</tesselate>
      <altitudeMode>relativeToGround</altitudeMode>
      <coordinates>8.15763, 47.4744,20</coordinates>
    </Point>
  </Placemark><Placemark>
    <name>Unterbözberg, Kirchbözberg</name>
    <Style><LineStyle><width>2</width></LineStyle></Style>
    <Point>
      <extrude>1</extrude>
      <tesselate>0</tesselate>
      <altitudeMode>relativeToGround</altitudeMode>
      <coordinates>8.16117, 47.4912,20</coordinates>
    </Point>
  </Placemark><Placemark>
    <name>Rüfenach AG, Hinterrein</name>
    <Style><LineStyle><width>2</width></LineStyle></Style>
    <Point>
      <extrude>1</extrude>
      <tesselate>0</tesselate>
      <altitudeMode>relativeToGround</altitudeMode>
      <coordinates>8.22013, 47.5079,20</coordinates>
    </Point>
  </Placemark><Placemark>
    <name>Brugg AG, Brücke</name>
    <Style><LineStyle><width>2</width></LineStyle></Style>
    <Point>
      <extrude>1</extrude>
      <tesselate>0</tesselate>
      <altitudeMode>relativeToGround</altitudeMode>
      <coordinates>8.20655, 47.4864,20</coordinates>
    </Point>
  </Placemark><Placemark>
    <name>Unterbözberg, Haldensteinstr.</name>
    <Style><LineStyle><width>2</width></LineStyle></Style>
    <Point>
      <extrude>1</extrude>
      <tesselate>0</tesselate>
      <altitudeMode>relativeToGround</altitudeMode>
      <coordinates>8.17229, 47.4801,20</coordinates>
    </Point>
  </Placemark><Placemark>
    <name>Mönthal, Post</name>
    <Style><LineStyle><width>2</width></LineStyle></Style>
    <Point>
      <extrude>1</extrude>
      <tesselate>0</tesselate>
      <altitudeMode>relativeToGround</altitudeMode>
      <coordinates>8.14426, 47.5174,20</coordinates>
    </Point>
  </Placemark><Placemark>
    <name>Umiken, Mühlehalde</name>
    <Style><LineStyle><width>2</width></LineStyle></Style>
    <Point>
      <extrude>1</extrude>
      <tesselate>0</tesselate>
      <altitudeMode>relativeToGround</altitudeMode>
      <coordinates>8.19757, 47.4847,20</coordinates>
    </Point>
  </Placemark><Placemark>
    <name>Brugg AG, Eisi</name>
    <Style><LineStyle><width>2</width></LineStyle></Style>
    <Point>
      <extrude>1</extrude>
      <tesselate>0</tesselate>
      <altitudeMode>relativeToGround</altitudeMode>
      <coordinates>8.20684, 47.484,20</coordinates>
    </Point>
  </Placemark><Placemark>
    <name>Windisch, Zelgli</name>
    <Style><LineStyle><width>2</width></LineStyle></Style>
    <Point>
      <extrude>1</extrude>
      <tesselate>0</tesselate>
      <altitudeMode>relativeToGround</altitudeMode>
      <coordinates>8.22333, 47.4773,20</coordinates>
    </Point>
  </Placemark><Placemark>
    <name>Windisch, Gemeindehaus</name>
    <Style><LineStyle><width>2</width></LineStyle></Style>
    <Point>
      <extrude>1</extrude>
      <tesselate>0</tesselate>
      <altitudeMode>relativeToGround</altitudeMode>
      <coordinates>8.21605, 47.4785,20</coordinates>
    </Point>
  </Placemark><Placemark>
    <name>Zeihen, Stauftel</name>
    <Style><LineStyle><width>2</width></LineStyle></Style>
    <Point>
      <extrude>1</extrude>
      <tesselate>0</tesselate>
      <altitudeMode>relativeToGround</altitudeMode>
      <coordinates>8.08869, 47.4782,20</coordinates>
    </Point>
  </Placemark><Placemark>
    <name>Effingen, Schwerzbrünneli</name>
    <Style><LineStyle><width>2</width></LineStyle></Style>
    <Point>
      <extrude>1</extrude>
      <tesselate>0</tesselate>
      <altitudeMode>relativeToGround</altitudeMode>
      <coordinates>8.10207, 47.4878,20</coordinates>
    </Point>
  </Placemark><Placemark>
    <name>Bözen, Ausserdorf</name>
    <Style><LineStyle><width>2</width></LineStyle></Style>
    <Point>
      <extrude>1</extrude>
      <tesselate>0</tesselate>
      <altitudeMode>relativeToGround</altitudeMode>
      <coordinates>8.0902, 47.4934,20</coordinates>
    </Point>
  </Placemark><Placemark>
    <name>Bözen, Mitteldorf</name>
    <Style><LineStyle><width>2</width></LineStyle></Style>
    <Point>
      <extrude>1</extrude>
      <tesselate>0</tesselate>
      <altitudeMode>relativeToGround</altitudeMode>
      <coordinates>8.08259, 47.4948,20</coordinates>
    </Point>
  </Placemark><Placemark>
    <name>Umiken, Abzw. Riniken</name>
    <Style><LineStyle><width>2</width></LineStyle></Style>
    <Point>
      <extrude>1</extrude>
      <tesselate>0</tesselate>
      <altitudeMode>relativeToGround</altitudeMode>
      <coordinates>8.18493, 47.4825,20</coordinates>
    </Point>
  </Placemark><Placemark>
    <name>Gallenkirch, Dorf</name>
    <Style><LineStyle><width>2</width></LineStyle></Style>
    <Point>
      <extrude>1</extrude>
      <tesselate>0</tesselate>
      <altitudeMode>relativeToGround</altitudeMode>
      <coordinates>8.13047, 47.4779,20</coordinates>
    </Point>
  </Placemark><Placemark>
    <name>Linn, Linde</name>
    <Style><LineStyle><width>2</width></LineStyle></Style>
    <Point>
      <extrude>1</extrude>
      <tesselate>0</tesselate>
      <altitudeMode>relativeToGround</altitudeMode>
      <coordinates>8.1327, 47.4707,20</coordinates>
    </Point>
  </Placemark><Placemark>
    <name>Windisch, Dägerli</name>
    <Style><LineStyle><width>2</width></LineStyle></Style>
    <Point>
      <extrude>1</extrude>
      <tesselate>0</tesselate>
      <altitudeMode>relativeToGround</altitudeMode>
      <coordinates>8.22854, 47.471,20</coordinates>
    </Point>
  </Placemark><Placemark>
    <name>Bözen, Post</name>
    <Style><LineStyle><width>2</width></LineStyle></Style>
    <Point>
      <extrude>1</extrude>
      <tesselate>0</tesselate>
      <altitudeMode>relativeToGround</altitudeMode>
      <coordinates>8.08426, 47.4964,20</coordinates>
    </Point>
  </Placemark><Placemark>
    <name>Zeihen, Hohbächli</name>
    <Style><LineStyle><width>2</width></LineStyle></Style>
    <Point>
      <extrude>1</extrude>
      <tesselate>0</tesselate>
      <altitudeMode>relativeToGround</altitudeMode>
      <coordinates>8.08602, 47.4768,20</coordinates>
    </Point>
  </Placemark><Placemark>
    <name>Oberbözberg, Mitteldorf</name>
    <Style><LineStyle><width>2</width></LineStyle></Style>
    <Point>
      <extrude>1</extrude>
      <tesselate>0</tesselate>
      <altitudeMode>relativeToGround</altitudeMode>
      <coordinates>8.1586, 47.4978,20</coordinates>
    </Point>
  </Placemark><Placemark>
    <name>Riniken, Bruggerstrasse</name>
    <Style><LineStyle><width>2</width></LineStyle></Style>
    <Point>
      <extrude>1</extrude>
      <tesselate>0</tesselate>
      <altitudeMode>relativeToGround</altitudeMode>
      <coordinates>8.1863, 47.4854,20</coordinates>
    </Point>
  </Placemark><Placemark>
    <name>Umiken, Oberdorf</name>
    <Style><LineStyle><width>2</width></LineStyle></Style>
    <Point>
      <extrude>1</extrude>
      <tesselate>0</tesselate>
      <altitudeMode>relativeToGround</altitudeMode>
      <coordinates>8.18991, 47.4829,20</coordinates>
    </Point>
  </Placemark><Placemark>
    <name>Brugg AG, Bahnhof Süd Windisch</name>
    <Style><LineStyle><width>2</width></LineStyle></Style>
    <Point>
      <extrude>1</extrude>
      <tesselate>0</tesselate>
      <altitudeMode>relativeToGround</altitudeMode>
      <coordinates>8.20979, 47.4815,20</coordinates>
    </Point>
  </Placemark><Placemark>
    <name>Unterbözberg, hinterer Hafen</name>
    <Style><LineStyle><width>2</width></LineStyle></Style>
    <Point>
      <extrude>1</extrude>
      <tesselate>0</tesselate>
      <altitudeMode>relativeToGround</altitudeMode>
      <coordinates>8.17165, 47.4819,20</coordinates>
    </Point>
  </Placemark><Placemark>
    <name>Brugg AG, Wildischachen</name>
    <Style><LineStyle><width>2</width></LineStyle></Style>
    <Point>
      <extrude>1</extrude>
      <tesselate>0</tesselate>
      <altitudeMode>relativeToGround</altitudeMode>
      <coordinates>8.18472, 47.4675,20</coordinates>
    </Point>
  </Placemark><Placemark>
    <name>Windisch, Kurve</name>
    <Style><LineStyle><width>2</width></LineStyle></Style>
    <Point>
      <extrude>1</extrude>
      <tesselate>0</tesselate>
      <altitudeMode>relativeToGround</altitudeMode>
      <coordinates>8.22873, 47.4836,20</coordinates>
    </Point>
  </Placemark><Placemark>
    <name>Unterbözberg, Vierlinden</name>
    <Style><LineStyle><width>2</width></LineStyle></Style>
    <Point>
      <extrude>1</extrude>
      <tesselate>0</tesselate>
      <altitudeMode>relativeToGround</altitudeMode>
      <coordinates>8.15935, 47.4795,20</coordinates>
    </Point>
  </Placemark><Placemark>
    <name>Elfingen, Sternen</name>
    <Style><LineStyle><width>2</width></LineStyle></Style>
    <Point>
      <extrude>1</extrude>
      <tesselate>0</tesselate>
      <altitudeMode>relativeToGround</altitudeMode>
      <coordinates>8.09932, 47.5069,20</coordinates>
    </Point>
  </Placemark><Placemark>
    <name>Remigen, Abzw. Ueberthal</name>
    <Style><LineStyle><width>2</width></LineStyle></Style>
    <Point>
      <extrude>1</extrude>
      <tesselate>0</tesselate>
      <altitudeMode>relativeToGround</altitudeMode>
      <coordinates>8.15944, 47.5108,20</coordinates>
    </Point>
  </Placemark><Placemark>
    <name>Stalden b. Brugg, Neustalden</name>
    <Style><LineStyle><width>2</width></LineStyle></Style>
    <Point>
      <extrude>1</extrude>
      <tesselate>0</tesselate>
      <altitudeMode>relativeToGround</altitudeMode>
      <coordinates>8.13847, 47.481,20</coordinates>
    </Point>
  </Placemark><Placemark>
    <name>Rüfenach AG, Post</name>
    <Style><LineStyle><width>2</width></LineStyle></Style>
    <Point>
      <extrude>1</extrude>
      <tesselate>0</tesselate>
      <altitudeMode>relativeToGround</altitudeMode>
      <coordinates>8.20555, 47.5096,20</coordinates>
    </Point>
  </Placemark><Placemark>
    <name>Riniken, Gemeindehaus</name>
    <Style><LineStyle><width>2</width></LineStyle></Style>
    <Point>
      <extrude>1</extrude>
      <tesselate>0</tesselate>
      <altitudeMode>relativeToGround</altitudeMode>
      <coordinates>8.18808, 47.4944,20</coordinates>
    </Point>
  </Placemark><Placemark>
    <name>Riniken, Post</name>
    <Style><LineStyle><width>2</width></LineStyle></Style>
    <Point>
      <extrude>1</extrude>
      <tesselate>0</tesselate>
      <altitudeMode>relativeToGround</altitudeMode>
      <coordinates>8.18738, 47.4915,20</coordinates>
    </Point>
  </Placemark><Placemark>
    <name>Remigen, Post</name>
    <Style><LineStyle><width>2</width></LineStyle></Style>
    <Point>
      <extrude>1</extrude>
      <tesselate>0</tesselate>
      <altitudeMode>relativeToGround</altitudeMode>
      <coordinates>8.18937, 47.5153,20</coordinates>
    </Point>
  </Placemark><Placemark>
    <name>Brugg AG</name>
    <Style><LineStyle><width>2</width></LineStyle></Style>
    <Point>
      <extrude>1</extrude>
      <tesselate>0</tesselate>
      <altitudeMode>relativeToGround</altitudeMode>
      <coordinates>8.20883, 47.4809,20</coordinates>
    </Point>
  </Placemark><Placemark>
    <name>Zeihen, Abzw. Station Effingen</name>
    <Style><LineStyle><width>2</width></LineStyle></Style>
    <Point>
      <extrude>1</extrude>
      <tesselate>0</tesselate>
      <altitudeMode>relativeToGround</altitudeMode>
      <coordinates>8.09798, 47.4786,20</coordinates>
    </Point>
  </Placemark><Placemark>
    <name>Effingen, Dorf</name>
    <Style><LineStyle><width>2</width></LineStyle></Style>
    <Point>
      <extrude>1</extrude>
      <tesselate>0</tesselate>
      <altitudeMode>relativeToGround</altitudeMode>
      <coordinates>8.10275, 47.4889,20</coordinates>
    </Point>
  </Placemark><Placemark>
    <name>Brugg AG, Au</name>
    <Style><LineStyle><width>2</width></LineStyle></Style>
    <Point>
      <extrude>1</extrude>
      <tesselate>0</tesselate>
      <altitudeMode>relativeToGround</altitudeMode>
      <coordinates>8.21855, 47.4904,20</coordinates>
    </Point>
  </Placemark><Placemark>
    <name>Brugg AG, Bahnhof</name>
    <Style><LineStyle><width>2</width></LineStyle></Style>
    <Point>
      <extrude>1</extrude>
      <tesselate>0</tesselate>
      <altitudeMode>relativeToGround</altitudeMode>
      <coordinates>8.20946, 47.4815,20</coordinates>
    </Point>
  </Placemark><Placemark>
    <name>Unterbözberg, Altstalden</name>
    <Style><LineStyle><width>2</width></LineStyle></Style>
    <Point>
      <extrude>1</extrude>
      <tesselate>0</tesselate>
      <altitudeMode>relativeToGround</altitudeMode>
      <coordinates>8.13788, 47.4864,20</coordinates>
    </Point>
  </Placemark></Document>
</kml>
