<kml>
<Document>

<Region>
<LatLonAltBox>
<north>47.525181</north><south>47.458938</south><east>7.772246</east><west>7.619975</west>
<minAltitude>0.000000</minAltitude><maxAltitude>0.000000</maxAltitude>
</LatLonAltBox>
<minLodPixels>2048</minLodPixels><maxLodPixels>1000000000</maxLodPixels>
<minFadeExtent>0</minFadeExtent><maxFadeExtent>0</maxFadeExtent>
</Region>
<Placemark>
    <name>Dornach, Schiessstand</name>
    <Style><LineStyle><width>2</width></LineStyle></Style>
    <Point>
      <extrude>1</extrude>
      <tesselate>0</tesselate>
      <altitudeMode>relativeToGround</altitudeMode>
      <coordinates>7.62303, 47.4756,20</coordinates>
    </Point>
  </Placemark><Placemark>
    <name>Liestal, Gestadeckplatz</name>
    <Style><LineStyle><width>2</width></LineStyle></Style>
    <Point>
      <extrude>1</extrude>
      <tesselate>0</tesselate>
      <altitudeMode>relativeToGround</altitudeMode>
      <coordinates>7.7375, 47.4861,20</coordinates>
    </Point>
  </Placemark><Placemark>
    <name>St. Pantaleon, bei den Tannen</name>
    <Style><LineStyle><width>2</width></LineStyle></Style>
    <Point>
      <extrude>1</extrude>
      <tesselate>0</tesselate>
      <altitudeMode>relativeToGround</altitudeMode>
      <coordinates>7.6873, 47.462,20</coordinates>
    </Point>
  </Placemark><Placemark>
    <name>Nuglar, Neumatt</name>
    <Style><LineStyle><width>2</width></LineStyle></Style>
    <Point>
      <extrude>1</extrude>
      <tesselate>0</tesselate>
      <altitudeMode>relativeToGround</altitudeMode>
      <coordinates>7.69762, 47.4705,20</coordinates>
    </Point>
  </Placemark><Placemark>
    <name>Nuglar, Orismühle</name>
    <Style><LineStyle><width>2</width></LineStyle></Style>
    <Point>
      <extrude>1</extrude>
      <tesselate>0</tesselate>
      <altitudeMode>relativeToGround</altitudeMode>
      <coordinates>7.7019, 47.4639,20</coordinates>
    </Point>
  </Placemark><Placemark>
    <name>Nuglar, St. Pantaleonstrasse</name>
    <Style><LineStyle><width>2</width></LineStyle></Style>
    <Point>
      <extrude>1</extrude>
      <tesselate>0</tesselate>
      <altitudeMode>relativeToGround</altitudeMode>
      <coordinates>7.68567, 47.468,20</coordinates>
    </Point>
  </Placemark><Placemark>
    <name>Liestal, Oris</name>
    <Style><LineStyle><width>2</width></LineStyle></Style>
    <Point>
      <extrude>1</extrude>
      <tesselate>0</tesselate>
      <altitudeMode>relativeToGround</altitudeMode>
      <coordinates>7.73117, 47.4812,20</coordinates>
    </Point>
  </Placemark><Placemark>
    <name>Nuglar, Neunuglar</name>
    <Style><LineStyle><width>2</width></LineStyle></Style>
    <Point>
      <extrude>1</extrude>
      <tesselate>0</tesselate>
      <altitudeMode>relativeToGround</altitudeMode>
      <coordinates>7.70889, 47.4698,20</coordinates>
    </Point>
  </Placemark><Placemark>
    <name>Liestal, Zeughaus</name>
    <Style><LineStyle><width>2</width></LineStyle></Style>
    <Point>
      <extrude>1</extrude>
      <tesselate>0</tesselate>
      <altitudeMode>relativeToGround</altitudeMode>
      <coordinates>7.72186, 47.4758,20</coordinates>
    </Point>
  </Placemark><Placemark>
    <name>Frenkendorf-Füllinsdorf</name>
    <Style><LineStyle><width>2</width></LineStyle></Style>
    <Point>
      <extrude>1</extrude>
      <tesselate>0</tesselate>
      <altitudeMode>relativeToGround</altitudeMode>
      <coordinates>7.7191, 47.5015,20</coordinates>
    </Point>
  </Placemark><Placemark>
    <name>Liestal</name>
    <Style><LineStyle><width>2</width></LineStyle></Style>
    <Point>
      <extrude>1</extrude>
      <tesselate>0</tesselate>
      <altitudeMode>relativeToGround</altitudeMode>
      <coordinates>7.73136, 47.4845,20</coordinates>
    </Point>
  </Placemark><Placemark>
    <name>Pratteln</name>
    <Style><LineStyle><width>2</width></LineStyle></Style>
    <Point>
      <extrude>1</extrude>
      <tesselate>0</tesselate>
      <altitudeMode>relativeToGround</altitudeMode>
      <coordinates>7.69081, 47.5227,20</coordinates>
    </Point>
  </Placemark><Placemark>
    <name>Lausen</name>
    <Style><LineStyle><width>2</width></LineStyle></Style>
    <Point>
      <extrude>1</extrude>
      <tesselate>0</tesselate>
      <altitudeMode>relativeToGround</altitudeMode>
      <coordinates>7.76447, 47.4698,20</coordinates>
    </Point>
  </Placemark><Placemark>
    <name>Gempen, Post</name>
    <Style><LineStyle><width>2</width></LineStyle></Style>
    <Point>
      <extrude>1</extrude>
      <tesselate>0</tesselate>
      <altitudeMode>relativeToGround</altitudeMode>
      <coordinates>7.65885, 47.4764,20</coordinates>
    </Point>
  </Placemark><Placemark>
    <name>Liestal, im Rank</name>
    <Style><LineStyle><width>2</width></LineStyle></Style>
    <Point>
      <extrude>1</extrude>
      <tesselate>0</tesselate>
      <altitudeMode>relativeToGround</altitudeMode>
      <coordinates>7.75009, 47.4832,20</coordinates>
    </Point>
  </Placemark><Placemark>
    <name>Giebenach, Rainweg</name>
    <Style><LineStyle><width>2</width></LineStyle></Style>
    <Point>
      <extrude>1</extrude>
      <tesselate>0</tesselate>
      <altitudeMode>relativeToGround</altitudeMode>
      <coordinates>7.74402, 47.5234,20</coordinates>
    </Point>
  </Placemark><Placemark>
    <name>Pratteln, Lindli</name>
    <Style><LineStyle><width>2</width></LineStyle></Style>
    <Point>
      <extrude>1</extrude>
      <tesselate>0</tesselate>
      <altitudeMode>relativeToGround</altitudeMode>
      <coordinates>7.70075, 47.5193,20</coordinates>
    </Point>
  </Placemark><Placemark>
    <name>Arisdorf, Hofacker</name>
    <Style><LineStyle><width>2</width></LineStyle></Style>
    <Point>
      <extrude>1</extrude>
      <tesselate>0</tesselate>
      <altitudeMode>relativeToGround</altitudeMode>
      <coordinates>7.76483, 47.5065,20</coordinates>
    </Point>
  </Placemark><Placemark>
    <name>Seltisberg, Post</name>
    <Style><LineStyle><width>2</width></LineStyle></Style>
    <Point>
      <extrude>1</extrude>
      <tesselate>0</tesselate>
      <altitudeMode>relativeToGround</altitudeMode>
      <coordinates>7.71945, 47.4603,20</coordinates>
    </Point>
  </Placemark><Placemark>
    <name>Hochwald, Rest. Rössli</name>
    <Style><LineStyle><width>2</width></LineStyle></Style>
    <Point>
      <extrude>1</extrude>
      <tesselate>0</tesselate>
      <altitudeMode>relativeToGround</altitudeMode>
      <coordinates>7.64187, 47.4596,20</coordinates>
    </Point>
  </Placemark><Placemark>
    <name>Arlesheim Dorf, Bus BLT</name>
    <Style><LineStyle><width>2</width></LineStyle></Style>
    <Point>
      <extrude>1</extrude>
      <tesselate>0</tesselate>
      <altitudeMode>relativeToGround</altitudeMode>
      <coordinates>7.62176, 47.4933,20</coordinates>
    </Point>
  </Placemark></Document>
</kml>
