<kml>
<Document>

<Region>
<LatLonAltBox>
<north>46.928988</north><south>46.796500</south><east>6.706347</east><west>6.401805</west>
<minAltitude>0.000000</minAltitude><maxAltitude>0.000000</maxAltitude>
</LatLonAltBox>
<minLodPixels>2048</minLodPixels><maxLodPixels>1000000000</maxLodPixels>
<minFadeExtent>0</minFadeExtent><maxFadeExtent>0</maxFadeExtent>
</Region>
<NetworkLink>
<name>002320</name>

<Region>
<LatLonAltBox>
<north>46.928988</north><south>46.862744</south><east>6.554076</east><west>6.401805</west>
<minAltitude>0.000000</minAltitude><maxAltitude>0.000000</maxAltitude>
</LatLonAltBox>
<minLodPixels>256</minLodPixels><maxLodPixels>1000000000</maxLodPixels>
<minFadeExtent>0</minFadeExtent><maxFadeExtent>0</maxFadeExtent>
</Region>
<Link>
<href>002320.kml</href><viewRefreshMode>onRegion</viewRefreshMode></Link>
</NetworkLink>
<NetworkLink>
<name>002321</name>

<Region>
<LatLonAltBox>
<north>46.928988</north><south>46.862744</south><east>6.706347</east><west>6.554076</west>
<minAltitude>0.000000</minAltitude><maxAltitude>0.000000</maxAltitude>
</LatLonAltBox>
<minLodPixels>256</minLodPixels><maxLodPixels>1000000000</maxLodPixels>
<minFadeExtent>0</minFadeExtent><maxFadeExtent>0</maxFadeExtent>
</Region>
<Link>
<href>002321.kml</href><viewRefreshMode>onRegion</viewRefreshMode></Link>
</NetworkLink>
<NetworkLink>
<name>002322</name>

<Region>
<LatLonAltBox>
<north>46.862744</north><south>46.796500</south><east>6.554076</east><west>6.401805</west>
<minAltitude>0.000000</minAltitude><maxAltitude>0.000000</maxAltitude>
</LatLonAltBox>
<minLodPixels>256</minLodPixels><maxLodPixels>1000000000</maxLodPixels>
<minFadeExtent>0</minFadeExtent><maxFadeExtent>0</maxFadeExtent>
</Region>
<Link>
<href>002322.kml</href><viewRefreshMode>onRegion</viewRefreshMode></Link>
</NetworkLink>
<NetworkLink>
<name>002323</name>

<Region>
<LatLonAltBox>
<north>46.862744</north><south>46.796500</south><east>6.706347</east><west>6.554076</west>
<minAltitude>0.000000</minAltitude><maxAltitude>0.000000</maxAltitude>
</LatLonAltBox>
<minLodPixels>256</minLodPixels><maxLodPixels>1000000000</maxLodPixels>
<minFadeExtent>0</minFadeExtent><maxFadeExtent>0</maxFadeExtent>
</Region>
<Link>
<href>002323.kml</href><viewRefreshMode>onRegion</viewRefreshMode></Link>
</NetworkLink>
<Placemark>
    <name>Valeyres-sous-Montagny</name>
    <Style><LineStyle><width>2</width></LineStyle></Style>
    <Point>
      <extrude>1</extrude>
      <tesselate>0</tesselate>
      <altitudeMode>relativeToGround</altitudeMode>
      <coordinates>6.61136, 46.7969,20</coordinates>
    </Point>
  </Placemark><Placemark>
    <name>Tuileries-de-Grandson, Kiosque</name>
    <Style><LineStyle><width>2</width></LineStyle></Style>
    <Point>
      <extrude>1</extrude>
      <tesselate>0</tesselate>
      <altitudeMode>relativeToGround</altitudeMode>
      <coordinates>6.62813, 46.7987,20</coordinates>
    </Point>
  </Placemark><Placemark>
    <name>Les Verrières</name>
    <Style><LineStyle><width>2</width></LineStyle></Style>
    <Point>
      <extrude>1</extrude>
      <tesselate>0</tesselate>
      <altitudeMode>relativeToGround</altitudeMode>
      <coordinates>6.47939, 46.9053,20</coordinates>
    </Point>
  </Placemark><Placemark>
    <name>Bullet, village</name>
    <Style><LineStyle><width>2</width></LineStyle></Style>
    <Point>
      <extrude>1</extrude>
      <tesselate>0</tesselate>
      <altitudeMode>relativeToGround</altitudeMode>
      <coordinates>6.55392, 46.8307,20</coordinates>
    </Point>
  </Placemark><Placemark>
    <name>Mauborget, bif. La Magnenaz</name>
    <Style><LineStyle><width>2</width></LineStyle></Style>
    <Point>
      <extrude>1</extrude>
      <tesselate>0</tesselate>
      <altitudeMode>relativeToGround</altitudeMode>
      <coordinates>6.60462, 46.8572,20</coordinates>
    </Point>
  </Placemark><Placemark>
    <name>Couvet, centre commercial</name>
    <Style><LineStyle><width>2</width></LineStyle></Style>
    <Point>
      <extrude>1</extrude>
      <tesselate>0</tesselate>
      <altitudeMode>relativeToGround</altitudeMode>
      <coordinates>6.62329, 46.9234,20</coordinates>
    </Point>
  </Placemark><Placemark>
    <name>Orges, L'Epi</name>
    <Style><LineStyle><width>2</width></LineStyle></Style>
    <Point>
      <extrude>1</extrude>
      <tesselate>0</tesselate>
      <altitudeMode>relativeToGround</altitudeMode>
      <coordinates>6.5917, 46.8036,20</coordinates>
    </Point>
  </Placemark><Placemark>
    <name>Les Leuba</name>
    <Style><LineStyle><width>2</width></LineStyle></Style>
    <Point>
      <extrude>1</extrude>
      <tesselate>0</tesselate>
      <altitudeMode>relativeToGround</altitudeMode>
      <coordinates>6.50172, 46.8737,20</coordinates>
    </Point>
  </Placemark><Placemark>
    <name>Buttes, gare</name>
    <Style><LineStyle><width>2</width></LineStyle></Style>
    <Point>
      <extrude>1</extrude>
      <tesselate>0</tesselate>
      <altitudeMode>relativeToGround</altitudeMode>
      <coordinates>6.55297, 46.8883,20</coordinates>
    </Point>
  </Placemark><Placemark>
    <name>L'Auberson, Vers-chez-les-Jaq.</name>
    <Style><LineStyle><width>2</width></LineStyle></Style>
    <Point>
      <extrude>1</extrude>
      <tesselate>0</tesselate>
      <altitudeMode>relativeToGround</altitudeMode>
      <coordinates>6.45582, 46.8191,20</coordinates>
    </Point>
  </Placemark><Placemark>
    <name>Romairon, village</name>
    <Style><LineStyle><width>2</width></LineStyle></Style>
    <Point>
      <extrude>1</extrude>
      <tesselate>0</tesselate>
      <altitudeMode>relativeToGround</altitudeMode>
      <coordinates>6.64235, 46.8509,20</coordinates>
    </Point>
  </Placemark><Placemark>
    <name>Grandson, Le Repuis</name>
    <Style><LineStyle><width>2</width></LineStyle></Style>
    <Point>
      <extrude>1</extrude>
      <tesselate>0</tesselate>
      <altitudeMode>relativeToGround</altitudeMode>
      <coordinates>6.65245, 46.8152,20</coordinates>
    </Point>
  </Placemark><Placemark>
    <name>Les Rasses, village</name>
    <Style><LineStyle><width>2</width></LineStyle></Style>
    <Point>
      <extrude>1</extrude>
      <tesselate>0</tesselate>
      <altitudeMode>relativeToGround</altitudeMode>
      <coordinates>6.53953, 46.8288,20</coordinates>
    </Point>
  </Placemark><Placemark>
    <name>Ste-Croix</name>
    <Style><LineStyle><width>2</width></LineStyle></Style>
    <Point>
      <extrude>1</extrude>
      <tesselate>0</tesselate>
      <altitudeMode>relativeToGround</altitudeMode>
      <coordinates>6.50031, 46.8197,20</coordinates>
    </Point>
  </Placemark><Placemark>
    <name>Vuiteboeuf</name>
    <Style><LineStyle><width>2</width></LineStyle></Style>
    <Point>
      <extrude>1</extrude>
      <tesselate>0</tesselate>
      <altitudeMode>relativeToGround</altitudeMode>
      <coordinates>6.55361, 46.8038,20</coordinates>
    </Point>
  </Placemark><Placemark>
    <name>Trois-Villes</name>
    <Style><LineStyle><width>2</width></LineStyle></Style>
    <Point>
      <extrude>1</extrude>
      <tesselate>0</tesselate>
      <altitudeMode>relativeToGround</altitudeMode>
      <coordinates>6.53197, 46.8003,20</coordinates>
    </Point>
  </Placemark><Placemark>
    <name>Mont-de-Buttes</name>
    <Style><LineStyle><width>2</width></LineStyle></Style>
    <Point>
      <extrude>1</extrude>
      <tesselate>0</tesselate>
      <altitudeMode>relativeToGround</altitudeMode>
      <coordinates>6.5092, 46.8771,20</coordinates>
    </Point>
  </Placemark><Placemark>
    <name>Buttes, bif. Les Gouttettes</name>
    <Style><LineStyle><width>2</width></LineStyle></Style>
    <Point>
      <extrude>1</extrude>
      <tesselate>0</tesselate>
      <altitudeMode>relativeToGround</altitudeMode>
      <coordinates>6.53005, 46.8854,20</coordinates>
    </Point>
  </Placemark><Placemark>
    <name>La Côte-aux-Fées, Entre-Bolles</name>
    <Style><LineStyle><width>2</width></LineStyle></Style>
    <Point>
      <extrude>1</extrude>
      <tesselate>0</tesselate>
      <altitudeMode>relativeToGround</altitudeMode>
      <coordinates>6.48452, 46.8634,20</coordinates>
    </Point>
  </Placemark><Placemark>
    <name>La Côte-aux-Fées, Bolles-Vent</name>
    <Style><LineStyle><width>2</width></LineStyle></Style>
    <Point>
      <extrude>1</extrude>
      <tesselate>0</tesselate>
      <altitudeMode>relativeToGround</altitudeMode>
      <coordinates>6.48129, 46.8609,20</coordinates>
    </Point>
  </Placemark><Placemark>
    <name>Bonvillars, village</name>
    <Style><LineStyle><width>2</width></LineStyle></Style>
    <Point>
      <extrude>1</extrude>
      <tesselate>0</tesselate>
      <altitudeMode>relativeToGround</altitudeMode>
      <coordinates>6.67144, 46.8386,20</coordinates>
    </Point>
  </Placemark><Placemark>
    <name>Orges, Bois-du-Fey</name>
    <Style><LineStyle><width>2</width></LineStyle></Style>
    <Point>
      <extrude>1</extrude>
      <tesselate>0</tesselate>
      <altitudeMode>relativeToGround</altitudeMode>
      <coordinates>6.57474, 46.807,20</coordinates>
    </Point>
  </Placemark><Placemark>
    <name>Fiez, poste</name>
    <Style><LineStyle><width>2</width></LineStyle></Style>
    <Point>
      <extrude>1</extrude>
      <tesselate>0</tesselate>
      <altitudeMode>relativeToGround</altitudeMode>
      <coordinates>6.62344, 46.8272,20</coordinates>
    </Point>
  </Placemark><Placemark>
    <name>Bonvillars, Flusel</name>
    <Style><LineStyle><width>2</width></LineStyle></Style>
    <Point>
      <extrude>1</extrude>
      <tesselate>0</tesselate>
      <altitudeMode>relativeToGround</altitudeMode>
      <coordinates>6.66462, 46.8342,20</coordinates>
    </Point>
  </Placemark><Placemark>
    <name>Fontaines-sur-Grandson,collège</name>
    <Style><LineStyle><width>2</width></LineStyle></Style>
    <Point>
      <extrude>1</extrude>
      <tesselate>0</tesselate>
      <altitudeMode>relativeToGround</altitudeMode>
      <coordinates>6.61911, 46.8359,20</coordinates>
    </Point>
  </Placemark><Placemark>
    <name>Champagne, La Nationale</name>
    <Style><LineStyle><width>2</width></LineStyle></Style>
    <Point>
      <extrude>1</extrude>
      <tesselate>0</tesselate>
      <altitudeMode>relativeToGround</altitudeMode>
      <coordinates>6.66028, 46.8265,20</coordinates>
    </Point>
  </Placemark><Placemark>
    <name>Bonvillars, La Cour</name>
    <Style><LineStyle><width>2</width></LineStyle></Style>
    <Point>
      <extrude>1</extrude>
      <tesselate>0</tesselate>
      <altitudeMode>relativeToGround</altitudeMode>
      <coordinates>6.66838, 46.8372,20</coordinates>
    </Point>
  </Placemark><Placemark>
    <name>Onnens VD, La Fontaine</name>
    <Style><LineStyle><width>2</width></LineStyle></Style>
    <Point>
      <extrude>1</extrude>
      <tesselate>0</tesselate>
      <altitudeMode>relativeToGround</altitudeMode>
      <coordinates>6.68722, 46.84,20</coordinates>
    </Point>
  </Placemark><Placemark>
    <name>Les Rochats bif. (Romairon)</name>
    <Style><LineStyle><width>2</width></LineStyle></Style>
    <Point>
      <extrude>1</extrude>
      <tesselate>0</tesselate>
      <altitudeMode>relativeToGround</altitudeMode>
      <coordinates>6.64073, 46.881,20</coordinates>
    </Point>
  </Placemark><Placemark>
    <name>Provence, Vuissens</name>
    <Style><LineStyle><width>2</width></LineStyle></Style>
    <Point>
      <extrude>1</extrude>
      <tesselate>0</tesselate>
      <altitudeMode>relativeToGround</altitudeMode>
      <coordinates>6.62925, 46.8942,20</coordinates>
    </Point>
  </Placemark><Placemark>
    <name>Couvet, gare</name>
    <Style><LineStyle><width>2</width></LineStyle></Style>
    <Point>
      <extrude>1</extrude>
      <tesselate>0</tesselate>
      <altitudeMode>relativeToGround</altitudeMode>
      <coordinates>6.63512, 46.9226,20</coordinates>
    </Point>
  </Placemark><Placemark>
    <name>Romairon, collège</name>
    <Style><LineStyle><width>2</width></LineStyle></Style>
    <Point>
      <extrude>1</extrude>
      <tesselate>0</tesselate>
      <altitudeMode>relativeToGround</altitudeMode>
      <coordinates>6.64119, 46.8501,20</coordinates>
    </Point>
  </Placemark><Placemark>
    <name>Mauborget, anc. poste</name>
    <Style><LineStyle><width>2</width></LineStyle></Style>
    <Point>
      <extrude>1</extrude>
      <tesselate>0</tesselate>
      <altitudeMode>relativeToGround</altitudeMode>
      <coordinates>6.61678, 46.8557,20</coordinates>
    </Point>
  </Placemark><Placemark>
    <name>Couvet, centre sportif</name>
    <Style><LineStyle><width>2</width></LineStyle></Style>
    <Point>
      <extrude>1</extrude>
      <tesselate>0</tesselate>
      <altitudeMode>relativeToGround</altitudeMode>
      <coordinates>6.64029, 46.9285,20</coordinates>
    </Point>
  </Placemark><Placemark>
    <name>Novalles, collège</name>
    <Style><LineStyle><width>2</width></LineStyle></Style>
    <Point>
      <extrude>1</extrude>
      <tesselate>0</tesselate>
      <altitudeMode>relativeToGround</altitudeMode>
      <coordinates>6.59602, 46.8286,20</coordinates>
    </Point>
  </Placemark><Placemark>
    <name>Onnens VD, croisée</name>
    <Style><LineStyle><width>2</width></LineStyle></Style>
    <Point>
      <extrude>1</extrude>
      <tesselate>0</tesselate>
      <altitudeMode>relativeToGround</altitudeMode>
      <coordinates>6.68842, 46.8389,20</coordinates>
    </Point>
  </Placemark><Placemark>
    <name>Orges, poste</name>
    <Style><LineStyle><width>2</width></LineStyle></Style>
    <Point>
      <extrude>1</extrude>
      <tesselate>0</tesselate>
      <altitudeMode>relativeToGround</altitudeMode>
      <coordinates>6.58494, 46.8085,20</coordinates>
    </Point>
  </Placemark><Placemark>
    <name>Orges, croisée</name>
    <Style><LineStyle><width>2</width></LineStyle></Style>
    <Point>
      <extrude>1</extrude>
      <tesselate>0</tesselate>
      <altitudeMode>relativeToGround</altitudeMode>
      <coordinates>6.58901, 46.808,20</coordinates>
    </Point>
  </Placemark><Placemark>
    <name>Vuiteboeuf, bif.</name>
    <Style><LineStyle><width>2</width></LineStyle></Style>
    <Point>
      <extrude>1</extrude>
      <tesselate>0</tesselate>
      <altitudeMode>relativeToGround</altitudeMode>
      <coordinates>6.55643, 46.8053,20</coordinates>
    </Point>
  </Placemark><Placemark>
    <name>Giez, La Pommelaz</name>
    <Style><LineStyle><width>2</width></LineStyle></Style>
    <Point>
      <extrude>1</extrude>
      <tesselate>0</tesselate>
      <altitudeMode>relativeToGround</altitudeMode>
      <coordinates>6.62213, 46.8096,20</coordinates>
    </Point>
  </Placemark><Placemark>
    <name>Giez, La Croix</name>
    <Style><LineStyle><width>2</width></LineStyle></Style>
    <Point>
      <extrude>1</extrude>
      <tesselate>0</tesselate>
      <altitudeMode>relativeToGround</altitudeMode>
      <coordinates>6.61384, 46.812,20</coordinates>
    </Point>
  </Placemark><Placemark>
    <name>Grandson, Crêt-aux-Moines</name>
    <Style><LineStyle><width>2</width></LineStyle></Style>
    <Point>
      <extrude>1</extrude>
      <tesselate>0</tesselate>
      <altitudeMode>relativeToGround</altitudeMode>
      <coordinates>6.64174, 46.8084,20</coordinates>
    </Point>
  </Placemark><Placemark>
    <name>Grandson, Le Revelin</name>
    <Style><LineStyle><width>2</width></LineStyle></Style>
    <Point>
      <extrude>1</extrude>
      <tesselate>0</tesselate>
      <altitudeMode>relativeToGround</altitudeMode>
      <coordinates>6.63911, 46.8088,20</coordinates>
    </Point>
  </Placemark><Placemark>
    <name>Grandson, gare</name>
    <Style><LineStyle><width>2</width></LineStyle></Style>
    <Point>
      <extrude>1</extrude>
      <tesselate>0</tesselate>
      <altitudeMode>relativeToGround</altitudeMode>
      <coordinates>6.6421, 46.8064,20</coordinates>
    </Point>
  </Placemark><Placemark>
    <name>Grandson, place du Château</name>
    <Style><LineStyle><width>2</width></LineStyle></Style>
    <Point>
      <extrude>1</extrude>
      <tesselate>0</tesselate>
      <altitudeMode>relativeToGround</altitudeMode>
      <coordinates>6.64599, 46.8091,20</coordinates>
    </Point>
  </Placemark><Placemark>
    <name>L'Auberson, école</name>
    <Style><LineStyle><width>2</width></LineStyle></Style>
    <Point>
      <extrude>1</extrude>
      <tesselate>0</tesselate>
      <altitudeMode>relativeToGround</altitudeMode>
      <coordinates>6.46371, 46.8174,20</coordinates>
    </Point>
  </Placemark><Placemark>
    <name>Fleurier, poste/gare</name>
    <Style><LineStyle><width>2</width></LineStyle></Style>
    <Point>
      <extrude>1</extrude>
      <tesselate>0</tesselate>
      <altitudeMode>relativeToGround</altitudeMode>
      <coordinates>6.58223, 46.9047,20</coordinates>
    </Point>
  </Placemark><Placemark>
    <name>Villars-Burquin, poste</name>
    <Style><LineStyle><width>2</width></LineStyle></Style>
    <Point>
      <extrude>1</extrude>
      <tesselate>0</tesselate>
      <altitudeMode>relativeToGround</altitudeMode>
      <coordinates>6.6276, 46.8466,20</coordinates>
    </Point>
  </Placemark><Placemark>
    <name>Vuiteboeuf, collège</name>
    <Style><LineStyle><width>2</width></LineStyle></Style>
    <Point>
      <extrude>1</extrude>
      <tesselate>0</tesselate>
      <altitudeMode>relativeToGround</altitudeMode>
      <coordinates>6.54905, 46.808,20</coordinates>
    </Point>
  </Placemark></Document>
</kml>
