<kml>
<Document>

<Region>
<LatLonAltBox>
<north>46.928988</north><south>46.862744</south><east>6.858619</east><west>6.706347</west>
<minAltitude>0.000000</minAltitude><maxAltitude>0.000000</maxAltitude>
</LatLonAltBox>
<minLodPixels>2048</minLodPixels><maxLodPixels>1000000000</maxLodPixels>
<minFadeExtent>0</minFadeExtent><maxFadeExtent>0</maxFadeExtent>
</Region>
<Placemark>
    <name>Vaumarcus, bas du village</name>
    <Style><LineStyle><width>2</width></LineStyle></Style>
    <Point>
      <extrude>1</extrude>
      <tesselate>0</tesselate>
      <altitudeMode>relativeToGround</altitudeMode>
      <coordinates>6.75746, 46.8784,20</coordinates>
    </Point>
  </Placemark><Placemark>
    <name>Concise, La Rochelle</name>
    <Style><LineStyle><width>2</width></LineStyle></Style>
    <Point>
      <extrude>1</extrude>
      <tesselate>0</tesselate>
      <altitudeMode>relativeToGround</altitudeMode>
      <coordinates>6.75199, 46.8701,20</coordinates>
    </Point>
  </Placemark><Placemark>
    <name>Mutrux, anc. poste</name>
    <Style><LineStyle><width>2</width></LineStyle></Style>
    <Point>
      <extrude>1</extrude>
      <tesselate>0</tesselate>
      <altitudeMode>relativeToGround</altitudeMode>
      <coordinates>6.72598, 46.8831,20</coordinates>
    </Point>
  </Placemark><Placemark>
    <name>St-Aubin NE, Le Devens</name>
    <Style><LineStyle><width>2</width></LineStyle></Style>
    <Point>
      <extrude>1</extrude>
      <tesselate>0</tesselate>
      <altitudeMode>relativeToGround</altitudeMode>
      <coordinates>6.76075, 46.9036,20</coordinates>
    </Point>
  </Placemark><Placemark>
    <name>Fresens, bas du village</name>
    <Style><LineStyle><width>2</width></LineStyle></Style>
    <Point>
      <extrude>1</extrude>
      <tesselate>0</tesselate>
      <altitudeMode>relativeToGround</altitudeMode>
      <coordinates>6.74391, 46.886,20</coordinates>
    </Point>
  </Placemark><Placemark>
    <name>Vaumarcus</name>
    <Style><LineStyle><width>2</width></LineStyle></Style>
    <Point>
      <extrude>1</extrude>
      <tesselate>0</tesselate>
      <altitudeMode>relativeToGround</altitudeMode>
      <coordinates>6.75759, 46.8776,20</coordinates>
    </Point>
  </Placemark><Placemark>
    <name>Gorgier-St-Aubin</name>
    <Style><LineStyle><width>2</width></LineStyle></Style>
    <Point>
      <extrude>1</extrude>
      <tesselate>0</tesselate>
      <altitudeMode>relativeToGround</altitudeMode>
      <coordinates>6.78103, 46.8991,20</coordinates>
    </Point>
  </Placemark><Placemark>
    <name>Gorgier-St-Aubin, gare</name>
    <Style><LineStyle><width>2</width></LineStyle></Style>
    <Point>
      <extrude>1</extrude>
      <tesselate>0</tesselate>
      <altitudeMode>relativeToGround</altitudeMode>
      <coordinates>6.78115, 46.8991,20</coordinates>
    </Point>
  </Placemark><Placemark>
    <name>St-Aubin NE, village</name>
    <Style><LineStyle><width>2</width></LineStyle></Style>
    <Point>
      <extrude>1</extrude>
      <tesselate>0</tesselate>
      <altitudeMode>relativeToGround</altitudeMode>
      <coordinates>6.77006, 46.8938,20</coordinates>
    </Point>
  </Placemark><Placemark>
    <name>Chez-le-Bart, poste</name>
    <Style><LineStyle><width>2</width></LineStyle></Style>
    <Point>
      <extrude>1</extrude>
      <tesselate>0</tesselate>
      <altitudeMode>relativeToGround</altitudeMode>
      <coordinates>6.78604, 46.9013,20</coordinates>
    </Point>
  </Placemark><Placemark>
    <name>St-Aubin NE, Les Charrières</name>
    <Style><LineStyle><width>2</width></LineStyle></Style>
    <Point>
      <extrude>1</extrude>
      <tesselate>0</tesselate>
      <altitudeMode>relativeToGround</altitudeMode>
      <coordinates>6.7671, 46.894,20</coordinates>
    </Point>
  </Placemark><Placemark>
    <name>Sauges-près-Saint-Aubin</name>
    <Style><LineStyle><width>2</width></LineStyle></Style>
    <Point>
      <extrude>1</extrude>
      <tesselate>0</tesselate>
      <altitudeMode>relativeToGround</altitudeMode>
      <coordinates>6.76371, 46.8877,20</coordinates>
    </Point>
  </Placemark><Placemark>
    <name>St-Aubin NE, Pattus</name>
    <Style><LineStyle><width>2</width></LineStyle></Style>
    <Point>
      <extrude>1</extrude>
      <tesselate>0</tesselate>
      <altitudeMode>relativeToGround</altitudeMode>
      <coordinates>6.77461, 46.8974,20</coordinates>
    </Point>
  </Placemark><Placemark>
    <name>Vaumarcus débarcadère</name>
    <Style><LineStyle><width>2</width></LineStyle></Style>
    <Point>
      <extrude>1</extrude>
      <tesselate>0</tesselate>
      <altitudeMode>relativeToGround</altitudeMode>
      <coordinates>6.76126, 46.878,20</coordinates>
    </Point>
  </Placemark><Placemark>
    <name>Fresens-Montalchez, poste</name>
    <Style><LineStyle><width>2</width></LineStyle></Style>
    <Point>
      <extrude>1</extrude>
      <tesselate>0</tesselate>
      <altitudeMode>relativeToGround</altitudeMode>
      <coordinates>6.74598, 46.8887,20</coordinates>
    </Point>
  </Placemark><Placemark>
    <name>Fresens, village</name>
    <Style><LineStyle><width>2</width></LineStyle></Style>
    <Point>
      <extrude>1</extrude>
      <tesselate>0</tesselate>
      <altitudeMode>relativeToGround</altitudeMode>
      <coordinates>6.74769, 46.8883,20</coordinates>
    </Point>
  </Placemark><Placemark>
    <name>Montalchez, centre du village</name>
    <Style><LineStyle><width>2</width></LineStyle></Style>
    <Point>
      <extrude>1</extrude>
      <tesselate>0</tesselate>
      <altitudeMode>relativeToGround</altitudeMode>
      <coordinates>6.74508, 46.8973,20</coordinates>
    </Point>
  </Placemark><Placemark>
    <name>Montalchez, La Comballaz</name>
    <Style><LineStyle><width>2</width></LineStyle></Style>
    <Point>
      <extrude>1</extrude>
      <tesselate>0</tesselate>
      <altitudeMode>relativeToGround</altitudeMode>
      <coordinates>6.74639, 46.8977,20</coordinates>
    </Point>
  </Placemark><Placemark>
    <name>Gorgier-Chez-le-Bart</name>
    <Style><LineStyle><width>2</width></LineStyle></Style>
    <Point>
      <extrude>1</extrude>
      <tesselate>0</tesselate>
      <altitudeMode>relativeToGround</altitudeMode>
      <coordinates>6.7874, 46.9,20</coordinates>
    </Point>
  </Placemark><Placemark>
    <name>St-Aubin NE LNM</name>
    <Style><LineStyle><width>2</width></LineStyle></Style>
    <Point>
      <extrude>1</extrude>
      <tesselate>0</tesselate>
      <altitudeMode>relativeToGround</altitudeMode>
      <coordinates>6.775, 46.8899,20</coordinates>
    </Point>
  </Placemark><Placemark>
    <name>Bevaix LNM</name>
    <Style><LineStyle><width>2</width></LineStyle></Style>
    <Point>
      <extrude>1</extrude>
      <tesselate>0</tesselate>
      <altitudeMode>relativeToGround</altitudeMode>
      <coordinates>6.8219, 46.923,20</coordinates>
    </Point>
  </Placemark></Document>
</kml>
