<kml>
<Document>

<Region>
<LatLonAltBox>
<north>47.326450</north><south>47.260206</south><east>7.315433</east><west>7.163161</west>
<minAltitude>0.000000</minAltitude><maxAltitude>0.000000</maxAltitude>
</LatLonAltBox>
<minLodPixels>2048</minLodPixels><maxLodPixels>1000000000</maxLodPixels>
<minFadeExtent>0</minFadeExtent><maxFadeExtent>0</maxFadeExtent>
</Region>
<Placemark>
    <name>Châtelat, village</name>
    <Style><LineStyle><width>2</width></LineStyle></Style>
    <Point>
      <extrude>1</extrude>
      <tesselate>0</tesselate>
      <altitudeMode>relativeToGround</altitudeMode>
      <coordinates>7.19714, 47.2715,20</coordinates>
    </Point>
  </Placemark><Placemark>
    <name>Fornet-Dessous, bif. Prè-Piat</name>
    <Style><LineStyle><width>2</width></LineStyle></Style>
    <Point>
      <extrude>1</extrude>
      <tesselate>0</tesselate>
      <altitudeMode>relativeToGround</altitudeMode>
      <coordinates>7.18061, 47.2728,20</coordinates>
    </Point>
  </Placemark><Placemark>
    <name>Fornet-Dessous, village</name>
    <Style><LineStyle><width>2</width></LineStyle></Style>
    <Point>
      <extrude>1</extrude>
      <tesselate>0</tesselate>
      <altitudeMode>relativeToGround</altitudeMode>
      <coordinates>7.17364, 47.2798,20</coordinates>
    </Point>
  </Placemark><Placemark>
    <name>Undervelier, poste</name>
    <Style><LineStyle><width>2</width></LineStyle></Style>
    <Point>
      <extrude>1</extrude>
      <tesselate>0</tesselate>
      <altitudeMode>relativeToGround</altitudeMode>
      <coordinates>7.2241, 47.3035,20</coordinates>
    </Point>
  </Placemark><Placemark>
    <name>Undervelier, Corfontaine</name>
    <Style><LineStyle><width>2</width></LineStyle></Style>
    <Point>
      <extrude>1</extrude>
      <tesselate>0</tesselate>
      <altitudeMode>relativeToGround</altitudeMode>
      <coordinates>7.25451, 47.3024,20</coordinates>
    </Point>
  </Placemark><Placemark>
    <name>Soulce, poste</name>
    <Style><LineStyle><width>2</width></LineStyle></Style>
    <Point>
      <extrude>1</extrude>
      <tesselate>0</tesselate>
      <altitudeMode>relativeToGround</altitudeMode>
      <coordinates>7.26542, 47.3036,20</coordinates>
    </Point>
  </Placemark><Placemark>
    <name>Soulce, milieu du village</name>
    <Style><LineStyle><width>2</width></LineStyle></Style>
    <Point>
      <extrude>1</extrude>
      <tesselate>0</tesselate>
      <altitudeMode>relativeToGround</altitudeMode>
      <coordinates>7.27137, 47.3031,20</coordinates>
    </Point>
  </Placemark><Placemark>
    <name>Souboz, village</name>
    <Style><LineStyle><width>2</width></LineStyle></Style>
    <Point>
      <extrude>1</extrude>
      <tesselate>0</tesselate>
      <altitudeMode>relativeToGround</altitudeMode>
      <coordinates>7.24602, 47.2736,20</coordinates>
    </Point>
  </Placemark><Placemark>
    <name>Plain-Fahyn</name>
    <Style><LineStyle><width>2</width></LineStyle></Style>
    <Point>
      <extrude>1</extrude>
      <tesselate>0</tesselate>
      <altitudeMode>relativeToGround</altitudeMode>
      <coordinates>7.30879, 47.2753,20</coordinates>
    </Point>
  </Placemark><Placemark>
    <name>Châtelat, bif. sur le Pichoux</name>
    <Style><LineStyle><width>2</width></LineStyle></Style>
    <Point>
      <extrude>1</extrude>
      <tesselate>0</tesselate>
      <altitudeMode>relativeToGround</altitudeMode>
      <coordinates>7.20473, 47.2733,20</coordinates>
    </Point>
  </Placemark></Document>
</kml>
