<kml>
<Document>

<Region>
<LatLonAltBox>
<north>47.326450</north><south>47.260206</south><east>7.467704</east><west>7.315433</west>
<minAltitude>0.000000</minAltitude><maxAltitude>0.000000</maxAltitude>
</LatLonAltBox>
<minLodPixels>2048</minLodPixels><maxLodPixels>1000000000</maxLodPixels>
<minFadeExtent>0</minFadeExtent><maxFadeExtent>0</maxFadeExtent>
</Region>
<Placemark>
    <name>Moutier, Crêt</name>
    <Style><LineStyle><width>2</width></LineStyle></Style>
    <Point>
      <extrude>1</extrude>
      <tesselate>0</tesselate>
      <altitudeMode>relativeToGround</altitudeMode>
      <coordinates>7.38312, 47.2821,20</coordinates>
    </Point>
  </Placemark><Placemark>
    <name>Moutier, Etoile</name>
    <Style><LineStyle><width>2</width></LineStyle></Style>
    <Point>
      <extrude>1</extrude>
      <tesselate>0</tesselate>
      <altitudeMode>relativeToGround</altitudeMode>
      <coordinates>7.36067, 47.2735,20</coordinates>
    </Point>
  </Placemark><Placemark>
    <name>Moutier, Manor</name>
    <Style><LineStyle><width>2</width></LineStyle></Style>
    <Point>
      <extrude>1</extrude>
      <tesselate>0</tesselate>
      <altitudeMode>relativeToGround</altitudeMode>
      <coordinates>7.35934, 47.2771,20</coordinates>
    </Point>
  </Placemark><Placemark>
    <name>Moutier, Coop</name>
    <Style><LineStyle><width>2</width></LineStyle></Style>
    <Point>
      <extrude>1</extrude>
      <tesselate>0</tesselate>
      <altitudeMode>relativeToGround</altitudeMode>
      <coordinates>7.36859, 47.2769,20</coordinates>
    </Point>
  </Placemark><Placemark>
    <name>Gänsbrunnen, Bahnhof</name>
    <Style><LineStyle><width>2</width></LineStyle></Style>
    <Point>
      <extrude>1</extrude>
      <tesselate>0</tesselate>
      <altitudeMode>relativeToGround</altitudeMode>
      <coordinates>7.46506, 47.2659,20</coordinates>
    </Point>
  </Placemark><Placemark>
    <name>Moutier, Hôtel de Ville</name>
    <Style><LineStyle><width>2</width></LineStyle></Style>
    <Point>
      <extrude>1</extrude>
      <tesselate>0</tesselate>
      <altitudeMode>relativeToGround</altitudeMode>
      <coordinates>7.37321, 47.2803,20</coordinates>
    </Point>
  </Placemark><Placemark>
    <name>Choindez, gare</name>
    <Style><LineStyle><width>2</width></LineStyle></Style>
    <Point>
      <extrude>1</extrude>
      <tesselate>0</tesselate>
      <altitudeMode>relativeToGround</altitudeMode>
      <coordinates>7.37912, 47.3212,20</coordinates>
    </Point>
  </Placemark><Placemark>
    <name>Choindez, La Verrerie</name>
    <Style><LineStyle><width>2</width></LineStyle></Style>
    <Point>
      <extrude>1</extrude>
      <tesselate>0</tesselate>
      <altitudeMode>relativeToGround</altitudeMode>
      <coordinates>7.39169, 47.316,20</coordinates>
    </Point>
  </Placemark><Placemark>
    <name>Rebeuvelier, Rest. du Moulin</name>
    <Style><LineStyle><width>2</width></LineStyle></Style>
    <Point>
      <extrude>1</extrude>
      <tesselate>0</tesselate>
      <altitudeMode>relativeToGround</altitudeMode>
      <coordinates>7.40822, 47.3201,20</coordinates>
    </Point>
  </Placemark><Placemark>
    <name>Moutier, Condemine</name>
    <Style><LineStyle><width>2</width></LineStyle></Style>
    <Point>
      <extrude>1</extrude>
      <tesselate>0</tesselate>
      <altitudeMode>relativeToGround</altitudeMode>
      <coordinates>7.36331, 47.2744,20</coordinates>
    </Point>
  </Placemark><Placemark>
    <name>Moutier, Les Fauvettes</name>
    <Style><LineStyle><width>2</width></LineStyle></Style>
    <Point>
      <extrude>1</extrude>
      <tesselate>0</tesselate>
      <altitudeMode>relativeToGround</altitudeMode>
      <coordinates>7.3567, 47.2776,20</coordinates>
    </Point>
  </Placemark><Placemark>
    <name>Perrefitte, Blocs</name>
    <Style><LineStyle><width>2</width></LineStyle></Style>
    <Point>
      <extrude>1</extrude>
      <tesselate>0</tesselate>
      <altitudeMode>relativeToGround</altitudeMode>
      <coordinates>7.3501, 47.2724,20</coordinates>
    </Point>
  </Placemark><Placemark>
    <name>Moutier, La Foule</name>
    <Style><LineStyle><width>2</width></LineStyle></Style>
    <Point>
      <extrude>1</extrude>
      <tesselate>0</tesselate>
      <altitudeMode>relativeToGround</altitudeMode>
      <coordinates>7.35637, 47.2722,20</coordinates>
    </Point>
  </Placemark><Placemark>
    <name>Corcelles BE, village</name>
    <Style><LineStyle><width>2</width></LineStyle></Style>
    <Point>
      <extrude>1</extrude>
      <tesselate>0</tesselate>
      <altitudeMode>relativeToGround</altitudeMode>
      <coordinates>7.45186, 47.2848,20</coordinates>
    </Point>
  </Placemark><Placemark>
    <name>Moutier, Banque cantonale</name>
    <Style><LineStyle><width>2</width></LineStyle></Style>
    <Point>
      <extrude>1</extrude>
      <tesselate>0</tesselate>
      <altitudeMode>relativeToGround</altitudeMode>
      <coordinates>7.3222, 47.2799,20</coordinates>
    </Point>
  </Placemark><Placemark>
    <name>Roches BE, Cheval blanc</name>
    <Style><LineStyle><width>2</width></LineStyle></Style>
    <Point>
      <extrude>1</extrude>
      <tesselate>0</tesselate>
      <altitudeMode>relativeToGround</altitudeMode>
      <coordinates>7.3841, 47.3008,20</coordinates>
    </Point>
  </Placemark><Placemark>
    <name>Rebeuvelier, poste</name>
    <Style><LineStyle><width>2</width></LineStyle></Style>
    <Point>
      <extrude>1</extrude>
      <tesselate>0</tesselate>
      <altitudeMode>relativeToGround</altitudeMode>
      <coordinates>7.41549, 47.3246,20</coordinates>
    </Point>
  </Placemark><Placemark>
    <name>Gänsbrunnen</name>
    <Style><LineStyle><width>2</width></LineStyle></Style>
    <Point>
      <extrude>1</extrude>
      <tesselate>0</tesselate>
      <altitudeMode>relativeToGround</altitudeMode>
      <coordinates>7.4652, 47.2655,20</coordinates>
    </Point>
  </Placemark><Placemark>
    <name>Corcelles BE</name>
    <Style><LineStyle><width>2</width></LineStyle></Style>
    <Point>
      <extrude>1</extrude>
      <tesselate>0</tesselate>
      <altitudeMode>relativeToGround</altitudeMode>
      <coordinates>7.45036, 47.2856,20</coordinates>
    </Point>
  </Placemark><Placemark>
    <name>Crémines</name>
    <Style><LineStyle><width>2</width></LineStyle></Style>
    <Point>
      <extrude>1</extrude>
      <tesselate>0</tesselate>
      <altitudeMode>relativeToGround</altitudeMode>
      <coordinates>7.43532, 47.2856,20</coordinates>
    </Point>
  </Placemark><Placemark>
    <name>Crémines-Zoo</name>
    <Style><LineStyle><width>2</width></LineStyle></Style>
    <Point>
      <extrude>1</extrude>
      <tesselate>0</tesselate>
      <altitudeMode>relativeToGround</altitudeMode>
      <coordinates>7.45664, 47.2726,20</coordinates>
    </Point>
  </Placemark><Placemark>
    <name>Grandval</name>
    <Style><LineStyle><width>2</width></LineStyle></Style>
    <Point>
      <extrude>1</extrude>
      <tesselate>0</tesselate>
      <altitudeMode>relativeToGround</altitudeMode>
      <coordinates>7.42231, 47.2837,20</coordinates>
    </Point>
  </Placemark></Document>
</kml>
