<kml>
<Document>

<Region>
<LatLonAltBox>
<north>47.326450</north><south>47.260206</south><east>8.229060</east><west>8.076789</west>
<minAltitude>0.000000</minAltitude><maxAltitude>0.000000</maxAltitude>
</LatLonAltBox>
<minLodPixels>2048</minLodPixels><maxLodPixels>1000000000</maxLodPixels>
<minFadeExtent>0</minFadeExtent><maxFadeExtent>0</maxFadeExtent>
</Region>
<Placemark>
    <name>Birrwil</name>
    <Style><LineStyle><width>2</width></LineStyle></Style>
    <Point>
      <extrude>1</extrude>
      <tesselate>0</tesselate>
      <altitudeMode>relativeToGround</altitudeMode>
      <coordinates>8.199, 47.2879,20</coordinates>
    </Point>
  </Placemark><Placemark>
    <name>Boniswil</name>
    <Style><LineStyle><width>2</width></LineStyle></Style>
    <Point>
      <extrude>1</extrude>
      <tesselate>0</tesselate>
      <altitudeMode>relativeToGround</altitudeMode>
      <coordinates>8.18394, 47.3173,20</coordinates>
    </Point>
  </Placemark><Placemark>
    <name>Beinwil am See</name>
    <Style><LineStyle><width>2</width></LineStyle></Style>
    <Point>
      <extrude>1</extrude>
      <tesselate>0</tesselate>
      <altitudeMode>relativeToGround</altitudeMode>
      <coordinates>8.20222, 47.2672,20</coordinates>
    </Point>
  </Placemark><Placemark>
    <name>Schmiedrued, Matt</name>
    <Style><LineStyle><width>2</width></LineStyle></Style>
    <Point>
      <extrude>1</extrude>
      <tesselate>0</tesselate>
      <altitudeMode>relativeToGround</altitudeMode>
      <coordinates>8.11069, 47.2768,20</coordinates>
    </Point>
  </Placemark><Placemark>
    <name>Schmiedrued, Dorf</name>
    <Style><LineStyle><width>2</width></LineStyle></Style>
    <Point>
      <extrude>1</extrude>
      <tesselate>0</tesselate>
      <altitudeMode>relativeToGround</altitudeMode>
      <coordinates>8.10465, 47.2694,20</coordinates>
    </Point>
  </Placemark><Placemark>
    <name>Walde AG, Käserei</name>
    <Style><LineStyle><width>2</width></LineStyle></Style>
    <Point>
      <extrude>1</extrude>
      <tesselate>0</tesselate>
      <altitudeMode>relativeToGround</altitudeMode>
      <coordinates>8.10754, 47.2631,20</coordinates>
    </Point>
  </Placemark><Placemark>
    <name>Schlossrued, Dorf</name>
    <Style><LineStyle><width>2</width></LineStyle></Style>
    <Point>
      <extrude>1</extrude>
      <tesselate>0</tesselate>
      <altitudeMode>relativeToGround</altitudeMode>
      <coordinates>8.08707, 47.2911,20</coordinates>
    </Point>
  </Placemark><Placemark>
    <name>Kirchrued, Kirche</name>
    <Style><LineStyle><width>2</width></LineStyle></Style>
    <Point>
      <extrude>1</extrude>
      <tesselate>0</tesselate>
      <altitudeMode>relativeToGround</altitudeMode>
      <coordinates>8.09823, 47.2847,20</coordinates>
    </Point>
  </Placemark><Placemark>
    <name>Beinwil am See SGH</name>
    <Style><LineStyle><width>2</width></LineStyle></Style>
    <Point>
      <extrude>1</extrude>
      <tesselate>0</tesselate>
      <altitudeMode>relativeToGround</altitudeMode>
      <coordinates>8.21146, 47.2693,20</coordinates>
    </Point>
  </Placemark><Placemark>
    <name>Birrwil SGH</name>
    <Style><LineStyle><width>2</width></LineStyle></Style>
    <Point>
      <extrude>1</extrude>
      <tesselate>0</tesselate>
      <altitudeMode>relativeToGround</altitudeMode>
      <coordinates>8.20288, 47.2909,20</coordinates>
    </Point>
  </Placemark><Placemark>
    <name>Seengen SGH</name>
    <Style><LineStyle><width>2</width></LineStyle></Style>
    <Point>
      <extrude>1</extrude>
      <tesselate>0</tesselate>
      <altitudeMode>relativeToGround</altitudeMode>
      <coordinates>8.20459, 47.3189,20</coordinates>
    </Point>
  </Placemark><Placemark>
    <name>Meisterschwanden Seerose</name>
    <Style><LineStyle><width>2</width></LineStyle></Style>
    <Point>
      <extrude>1</extrude>
      <tesselate>0</tesselate>
      <altitudeMode>relativeToGround</altitudeMode>
      <coordinates>8.22497, 47.2841,20</coordinates>
    </Point>
  </Placemark><Placemark>
    <name>Meisterschwanden Delphin</name>
    <Style><LineStyle><width>2</width></LineStyle></Style>
    <Point>
      <extrude>1</extrude>
      <tesselate>0</tesselate>
      <altitudeMode>relativeToGround</altitudeMode>
      <coordinates>8.22035, 47.2962,20</coordinates>
    </Point>
  </Placemark><Placemark>
    <name>Walde AG, Bank</name>
    <Style><LineStyle><width>2</width></LineStyle></Style>
    <Point>
      <extrude>1</extrude>
      <tesselate>0</tesselate>
      <altitudeMode>relativeToGround</altitudeMode>
      <coordinates>8.11279, 47.2603,20</coordinates>
    </Point>
  </Placemark><Placemark>
    <name>Oberkulm Post</name>
    <Style><LineStyle><width>2</width></LineStyle></Style>
    <Point>
      <extrude>1</extrude>
      <tesselate>0</tesselate>
      <altitudeMode>relativeToGround</altitudeMode>
      <coordinates>8.11941, 47.3041,20</coordinates>
    </Point>
  </Placemark><Placemark>
    <name>Seengen, Schloss Hallwyl</name>
    <Style><LineStyle><width>2</width></LineStyle></Style>
    <Point>
      <extrude>1</extrude>
      <tesselate>0</tesselate>
      <altitudeMode>relativeToGround</altitudeMode>
      <coordinates>8.19262, 47.3228,20</coordinates>
    </Point>
  </Placemark><Placemark>
    <name>Schlossrued, Längenthal</name>
    <Style><LineStyle><width>2</width></LineStyle></Style>
    <Point>
      <extrude>1</extrude>
      <tesselate>0</tesselate>
      <altitudeMode>relativeToGround</altitudeMode>
      <coordinates>8.08182, 47.294,20</coordinates>
    </Point>
  </Placemark><Placemark>
    <name>Leutwil, Post</name>
    <Style><LineStyle><width>2</width></LineStyle></Style>
    <Point>
      <extrude>1</extrude>
      <tesselate>0</tesselate>
      <altitudeMode>relativeToGround</altitudeMode>
      <coordinates>8.1739, 47.3085,20</coordinates>
    </Point>
  </Placemark><Placemark>
    <name>Oberkulm</name>
    <Style><LineStyle><width>2</width></LineStyle></Style>
    <Point>
      <extrude>1</extrude>
      <tesselate>0</tesselate>
      <altitudeMode>relativeToGround</altitudeMode>
      <coordinates>8.12404, 47.2991,20</coordinates>
    </Point>
  </Placemark><Placemark>
    <name>Unterkulm</name>
    <Style><LineStyle><width>2</width></LineStyle></Style>
    <Point>
      <extrude>1</extrude>
      <tesselate>0</tesselate>
      <altitudeMode>relativeToGround</altitudeMode>
      <coordinates>8.11513, 47.3101,20</coordinates>
    </Point>
  </Placemark><Placemark>
    <name>Zetzwil</name>
    <Style><LineStyle><width>2</width></LineStyle></Style>
    <Point>
      <extrude>1</extrude>
      <tesselate>0</tesselate>
      <altitudeMode>relativeToGround</altitudeMode>
      <coordinates>8.15302, 47.2824,20</coordinates>
    </Point>
  </Placemark><Placemark>
    <name>Boniswil, Bahnhof</name>
    <Style><LineStyle><width>2</width></LineStyle></Style>
    <Point>
      <extrude>1</extrude>
      <tesselate>0</tesselate>
      <altitudeMode>relativeToGround</altitudeMode>
      <coordinates>8.18492, 47.3161,20</coordinates>
    </Point>
  </Placemark><Placemark>
    <name>Beinwil am See, Bahnhof</name>
    <Style><LineStyle><width>2</width></LineStyle></Style>
    <Point>
      <extrude>1</extrude>
      <tesselate>0</tesselate>
      <altitudeMode>relativeToGround</altitudeMode>
      <coordinates>8.20499, 47.2634,20</coordinates>
    </Point>
  </Placemark><Placemark>
    <name>Gontenschwil</name>
    <Style><LineStyle><width>2</width></LineStyle></Style>
    <Point>
      <extrude>1</extrude>
      <tesselate>0</tesselate>
      <altitudeMode>relativeToGround</altitudeMode>
      <coordinates>8.14479, 47.2804,20</coordinates>
    </Point>
  </Placemark><Placemark>
    <name>Unterkulm Nord</name>
    <Style><LineStyle><width>2</width></LineStyle></Style>
    <Point>
      <extrude>1</extrude>
      <tesselate>0</tesselate>
      <altitudeMode>relativeToGround</altitudeMode>
      <coordinates>8.11304, 47.3148,20</coordinates>
    </Point>
  </Placemark></Document>
</kml>
