<kml>
<Document>

<Region>
<LatLonAltBox>
<north>47.127719</north><south>47.061475</south><east>7.924518</east><west>7.772246</west>
<minAltitude>0.000000</minAltitude><maxAltitude>0.000000</maxAltitude>
</LatLonAltBox>
<minLodPixels>2048</minLodPixels><maxLodPixels>1000000000</maxLodPixels>
<minFadeExtent>0</minFadeExtent><maxFadeExtent>0</maxFadeExtent>
</Region>
<Placemark>
    <name>Walterswil BE, Dorf</name>
    <Style><LineStyle><width>2</width></LineStyle></Style>
    <Point>
      <extrude>1</extrude>
      <tesselate>0</tesselate>
      <altitudeMode>relativeToGround</altitudeMode>
      <coordinates>7.77725, 47.1116,20</coordinates>
    </Point>
  </Placemark><Placemark>
    <name>Huttwil, Uech</name>
    <Style><LineStyle><width>2</width></LineStyle></Style>
    <Point>
      <extrude>1</extrude>
      <tesselate>0</tesselate>
      <altitudeMode>relativeToGround</altitudeMode>
      <coordinates>7.85628, 47.1095,20</coordinates>
    </Point>
  </Placemark><Placemark>
    <name>Tschäppel</name>
    <Style><LineStyle><width>2</width></LineStyle></Style>
    <Point>
      <extrude>1</extrude>
      <tesselate>0</tesselate>
      <altitudeMode>relativeToGround</altitudeMode>
      <coordinates>7.85091, 47.0961,20</coordinates>
    </Point>
  </Placemark><Placemark>
    <name>Huttwil, Fiechten</name>
    <Style><LineStyle><width>2</width></LineStyle></Style>
    <Point>
      <extrude>1</extrude>
      <tesselate>0</tesselate>
      <altitudeMode>relativeToGround</altitudeMode>
      <coordinates>7.83258, 47.1114,20</coordinates>
    </Point>
  </Placemark><Placemark>
    <name>Eriswil, Altersheim</name>
    <Style><LineStyle><width>2</width></LineStyle></Style>
    <Point>
      <extrude>1</extrude>
      <tesselate>0</tesselate>
      <altitudeMode>relativeToGround</altitudeMode>
      <coordinates>7.84778, 47.074,20</coordinates>
    </Point>
  </Placemark><Placemark>
    <name>Hüswil, Stoos</name>
    <Style><LineStyle><width>2</width></LineStyle></Style>
    <Point>
      <extrude>1</extrude>
      <tesselate>0</tesselate>
      <altitudeMode>relativeToGround</altitudeMode>
      <coordinates>7.9091, 47.1228,20</coordinates>
    </Point>
  </Placemark><Placemark>
    <name>Wyssachen, Post</name>
    <Style><LineStyle><width>2</width></LineStyle></Style>
    <Point>
      <extrude>1</extrude>
      <tesselate>0</tesselate>
      <altitudeMode>relativeToGround</altitudeMode>
      <coordinates>7.8297, 47.0781,20</coordinates>
    </Point>
  </Placemark><Placemark>
    <name>Huttwil, Nat. Sportzentrum</name>
    <Style><LineStyle><width>2</width></LineStyle></Style>
    <Point>
      <extrude>1</extrude>
      <tesselate>0</tesselate>
      <altitudeMode>relativeToGround</altitudeMode>
      <coordinates>7.8286, 47.1078,20</coordinates>
    </Point>
  </Placemark><Placemark>
    <name>Dürrenroth, Dorf</name>
    <Style><LineStyle><width>2</width></LineStyle></Style>
    <Point>
      <extrude>1</extrude>
      <tesselate>0</tesselate>
      <altitudeMode>relativeToGround</altitudeMode>
      <coordinates>7.80974, 47.0946,20</coordinates>
    </Point>
  </Placemark><Placemark>
    <name>Luthern Dorf, Schachen</name>
    <Style><LineStyle><width>2</width></LineStyle></Style>
    <Point>
      <extrude>1</extrude>
      <tesselate>0</tesselate>
      <altitudeMode>relativeToGround</altitudeMode>
      <coordinates>7.91811, 47.0985,20</coordinates>
    </Point>
  </Placemark><Placemark>
    <name>Mussachen</name>
    <Style><LineStyle><width>2</width></LineStyle></Style>
    <Point>
      <extrude>1</extrude>
      <tesselate>0</tesselate>
      <altitudeMode>relativeToGround</altitudeMode>
      <coordinates>7.77272, 47.09,20</coordinates>
    </Point>
  </Placemark></Document>
</kml>
