<kml>
<Document>

<Region>
<LatLonAltBox>
<north>47.326450</north><south>47.193962</south><east>7.924518</east><west>7.619975</west>
<minAltitude>0.000000</minAltitude><maxAltitude>0.000000</maxAltitude>
</LatLonAltBox>
<minLodPixels>2048</minLodPixels><maxLodPixels>1000000000</maxLodPixels>
<minFadeExtent>0</minFadeExtent><maxFadeExtent>0</maxFadeExtent>
</Region>
<NetworkLink>
<name>003100</name>

<Region>
<LatLonAltBox>
<north>47.326450</north><south>47.260206</south><east>7.772246</east><west>7.619975</west>
<minAltitude>0.000000</minAltitude><maxAltitude>0.000000</maxAltitude>
</LatLonAltBox>
<minLodPixels>256</minLodPixels><maxLodPixels>1000000000</maxLodPixels>
<minFadeExtent>0</minFadeExtent><maxFadeExtent>0</maxFadeExtent>
</Region>
<Link>
<href>003100.kml</href><viewRefreshMode>onRegion</viewRefreshMode></Link>
</NetworkLink>
<NetworkLink>
<name>003101</name>

<Region>
<LatLonAltBox>
<north>47.326450</north><south>47.260206</south><east>7.924518</east><west>7.772246</west>
<minAltitude>0.000000</minAltitude><maxAltitude>0.000000</maxAltitude>
</LatLonAltBox>
<minLodPixels>256</minLodPixels><maxLodPixels>1000000000</maxLodPixels>
<minFadeExtent>0</minFadeExtent><maxFadeExtent>0</maxFadeExtent>
</Region>
<Link>
<href>003101.kml</href><viewRefreshMode>onRegion</viewRefreshMode></Link>
</NetworkLink>
<NetworkLink>
<name>003102</name>

<Region>
<LatLonAltBox>
<north>47.260206</north><south>47.193962</south><east>7.772246</east><west>7.619975</west>
<minAltitude>0.000000</minAltitude><maxAltitude>0.000000</maxAltitude>
</LatLonAltBox>
<minLodPixels>256</minLodPixels><maxLodPixels>1000000000</maxLodPixels>
<minFadeExtent>0</minFadeExtent><maxFadeExtent>0</maxFadeExtent>
</Region>
<Link>
<href>003102.kml</href><viewRefreshMode>onRegion</viewRefreshMode></Link>
</NetworkLink>
<NetworkLink>
<name>003103</name>

<Region>
<LatLonAltBox>
<north>47.260206</north><south>47.193962</south><east>7.924518</east><west>7.772246</west>
<minAltitude>0.000000</minAltitude><maxAltitude>0.000000</maxAltitude>
</LatLonAltBox>
<minLodPixels>256</minLodPixels><maxLodPixels>1000000000</maxLodPixels>
<minFadeExtent>0</minFadeExtent><maxFadeExtent>0</maxFadeExtent>
</Region>
<Link>
<href>003103.kml</href><viewRefreshMode>onRegion</viewRefreshMode></Link>
</NetworkLink>
<Placemark>
    <name>Boningen, Gsteigli</name>
    <Style><LineStyle><width>2</width></LineStyle></Style>
    <Point>
      <extrude>1</extrude>
      <tesselate>0</tesselate>
      <altitudeMode>relativeToGround</altitudeMode>
      <coordinates>7.85384, 47.3047,20</coordinates>
    </Point>
  </Placemark><Placemark>
    <name>Boningen, Kappelerstrasse</name>
    <Style><LineStyle><width>2</width></LineStyle></Style>
    <Point>
      <extrude>1</extrude>
      <tesselate>0</tesselate>
      <altitudeMode>relativeToGround</altitudeMode>
      <coordinates>7.85156, 47.3083,20</coordinates>
    </Point>
  </Placemark><Placemark>
    <name>Aarburg, Rathaus</name>
    <Style><LineStyle><width>2</width></LineStyle></Style>
    <Point>
      <extrude>1</extrude>
      <tesselate>0</tesselate>
      <altitudeMode>relativeToGround</altitudeMode>
      <coordinates>7.89895, 47.3219,20</coordinates>
    </Point>
  </Placemark><Placemark>
    <name>Boningen, Ruppoldingen</name>
    <Style><LineStyle><width>2</width></LineStyle></Style>
    <Point>
      <extrude>1</extrude>
      <tesselate>0</tesselate>
      <altitudeMode>relativeToGround</altitudeMode>
      <coordinates>7.88036, 47.3127,20</coordinates>
    </Point>
  </Placemark><Placemark>
    <name>Murgenthal, Bahnhof</name>
    <Style><LineStyle><width>2</width></LineStyle></Style>
    <Point>
      <extrude>1</extrude>
      <tesselate>0</tesselate>
      <altitudeMode>relativeToGround</altitudeMode>
      <coordinates>7.83107, 47.2652,20</coordinates>
    </Point>
  </Placemark><Placemark>
    <name>Matzendorf, Horngraben</name>
    <Style><LineStyle><width>2</width></LineStyle></Style>
    <Point>
      <extrude>1</extrude>
      <tesselate>0</tesselate>
      <altitudeMode>relativeToGround</altitudeMode>
      <coordinates>7.62308, 47.3006,20</coordinates>
    </Point>
  </Placemark><Placemark>
    <name>Wolfwil, Post</name>
    <Style><LineStyle><width>2</width></LineStyle></Style>
    <Point>
      <extrude>1</extrude>
      <tesselate>0</tesselate>
      <altitudeMode>relativeToGround</altitudeMode>
      <coordinates>7.7941, 47.2685,20</coordinates>
    </Point>
  </Placemark><Placemark>
    <name>Vordemwald, Chratzernstrasse</name>
    <Style><LineStyle><width>2</width></LineStyle></Style>
    <Point>
      <extrude>1</extrude>
      <tesselate>0</tesselate>
      <altitudeMode>relativeToGround</altitudeMode>
      <coordinates>7.8952, 47.2695,20</coordinates>
    </Point>
  </Placemark><Placemark>
    <name>Strengelbach, Schleipfen</name>
    <Style><LineStyle><width>2</width></LineStyle></Style>
    <Point>
      <extrude>1</extrude>
      <tesselate>0</tesselate>
      <altitudeMode>relativeToGround</altitudeMode>
      <coordinates>7.9217, 47.2777,20</coordinates>
    </Point>
  </Placemark><Placemark>
    <name>Langenthal Süd</name>
    <Style><LineStyle><width>2</width></LineStyle></Style>
    <Point>
      <extrude>1</extrude>
      <tesselate>0</tesselate>
      <altitudeMode>relativeToGround</altitudeMode>
      <coordinates>7.78092, 47.2037,20</coordinates>
    </Point>
  </Placemark><Placemark>
    <name>Balsthal, Amthaus</name>
    <Style><LineStyle><width>2</width></LineStyle></Style>
    <Point>
      <extrude>1</extrude>
      <tesselate>0</tesselate>
      <altitudeMode>relativeToGround</altitudeMode>
      <coordinates>7.69687, 47.316,20</coordinates>
    </Point>
  </Placemark><Placemark>
    <name>Balsthal, Post</name>
    <Style><LineStyle><width>2</width></LineStyle></Style>
    <Point>
      <extrude>1</extrude>
      <tesselate>0</tesselate>
      <altitudeMode>relativeToGround</altitudeMode>
      <coordinates>7.69356, 47.3138,20</coordinates>
    </Point>
  </Placemark><Placemark>
    <name>Balsthal, St. Wolfgang</name>
    <Style><LineStyle><width>2</width></LineStyle></Style>
    <Point>
      <extrude>1</extrude>
      <tesselate>0</tesselate>
      <altitudeMode>relativeToGround</altitudeMode>
      <coordinates>7.70881, 47.3218,20</coordinates>
    </Point>
  </Placemark><Placemark>
    <name>Balsthal, Brauerei</name>
    <Style><LineStyle><width>2</width></LineStyle></Style>
    <Point>
      <extrude>1</extrude>
      <tesselate>0</tesselate>
      <altitudeMode>relativeToGround</altitudeMode>
      <coordinates>7.69854, 47.318,20</coordinates>
    </Point>
  </Placemark><Placemark>
    <name>Heimenhausen, Post</name>
    <Style><LineStyle><width>2</width></LineStyle></Style>
    <Point>
      <extrude>1</extrude>
      <tesselate>0</tesselate>
      <altitudeMode>relativeToGround</altitudeMode>
      <coordinates>7.69867, 47.209,20</coordinates>
    </Point>
  </Placemark><Placemark>
    <name>Murgenthal, Howart</name>
    <Style><LineStyle><width>2</width></LineStyle></Style>
    <Point>
      <extrude>1</extrude>
      <tesselate>0</tesselate>
      <altitudeMode>relativeToGround</altitudeMode>
      <coordinates>7.83435, 47.2621,20</coordinates>
    </Point>
  </Placemark><Placemark>
    <name>Murgenthal, Gadligen</name>
    <Style><LineStyle><width>2</width></LineStyle></Style>
    <Point>
      <extrude>1</extrude>
      <tesselate>0</tesselate>
      <altitudeMode>relativeToGround</altitudeMode>
      <coordinates>7.83929, 47.2598,20</coordinates>
    </Point>
  </Placemark><Placemark>
    <name>Rothrist, Hungerzelg</name>
    <Style><LineStyle><width>2</width></LineStyle></Style>
    <Point>
      <extrude>1</extrude>
      <tesselate>0</tesselate>
      <altitudeMode>relativeToGround</altitudeMode>
      <coordinates>7.8584, 47.2962,20</coordinates>
    </Point>
  </Placemark><Placemark>
    <name>Murgenthal, Garage Rickli</name>
    <Style><LineStyle><width>2</width></LineStyle></Style>
    <Point>
      <extrude>1</extrude>
      <tesselate>0</tesselate>
      <altitudeMode>relativeToGround</altitudeMode>
      <coordinates>7.84772, 47.2823,20</coordinates>
    </Point>
  </Placemark><Placemark>
    <name>Murgenthal, Gemeindehaus</name>
    <Style><LineStyle><width>2</width></LineStyle></Style>
    <Point>
      <extrude>1</extrude>
      <tesselate>0</tesselate>
      <altitudeMode>relativeToGround</altitudeMode>
      <coordinates>7.8377, 47.2684,20</coordinates>
    </Point>
  </Placemark><Placemark>
    <name>Murgenthal, Post</name>
    <Style><LineStyle><width>2</width></LineStyle></Style>
    <Point>
      <extrude>1</extrude>
      <tesselate>0</tesselate>
      <altitudeMode>relativeToGround</altitudeMode>
      <coordinates>7.83107, 47.2652,20</coordinates>
    </Point>
  </Placemark><Placemark>
    <name>Rothrist, Bahnhof</name>
    <Style><LineStyle><width>2</width></LineStyle></Style>
    <Point>
      <extrude>1</extrude>
      <tesselate>0</tesselate>
      <altitudeMode>relativeToGround</altitudeMode>
      <coordinates>7.87898, 47.306,20</coordinates>
    </Point>
  </Placemark><Placemark>
    <name>Rothrist, Grüebli</name>
    <Style><LineStyle><width>2</width></LineStyle></Style>
    <Point>
      <extrude>1</extrude>
      <tesselate>0</tesselate>
      <altitudeMode>relativeToGround</altitudeMode>
      <coordinates>7.87763, 47.3024,20</coordinates>
    </Point>
  </Placemark><Placemark>
    <name>Rothrist, Brunnhalde</name>
    <Style><LineStyle><width>2</width></LineStyle></Style>
    <Point>
      <extrude>1</extrude>
      <tesselate>0</tesselate>
      <altitudeMode>relativeToGround</altitudeMode>
      <coordinates>7.87728, 47.2999,20</coordinates>
    </Point>
  </Placemark><Placemark>
    <name>Rothrist, Weyer</name>
    <Style><LineStyle><width>2</width></LineStyle></Style>
    <Point>
      <extrude>1</extrude>
      <tesselate>0</tesselate>
      <altitudeMode>relativeToGround</altitudeMode>
      <coordinates>7.87329, 47.2981,20</coordinates>
    </Point>
  </Placemark><Placemark>
    <name>Oberbipp</name>
    <Style><LineStyle><width>2</width></LineStyle></Style>
    <Point>
      <extrude>1</extrude>
      <tesselate>0</tesselate>
      <altitudeMode>relativeToGround</altitudeMode>
      <coordinates>7.66098, 47.2597,20</coordinates>
    </Point>
  </Placemark><Placemark>
    <name>Buchli</name>
    <Style><LineStyle><width>2</width></LineStyle></Style>
    <Point>
      <extrude>1</extrude>
      <tesselate>0</tesselate>
      <altitudeMode>relativeToGround</altitudeMode>
      <coordinates>7.67839, 47.2636,20</coordinates>
    </Point>
  </Placemark><Placemark>
    <name>Wiedlisbach</name>
    <Style><LineStyle><width>2</width></LineStyle></Style>
    <Point>
      <extrude>1</extrude>
      <tesselate>0</tesselate>
      <altitudeMode>relativeToGround</altitudeMode>
      <coordinates>7.6461, 47.2529,20</coordinates>
    </Point>
  </Placemark><Placemark>
    <name>Balsthal, Bahnhof</name>
    <Style><LineStyle><width>2</width></LineStyle></Style>
    <Point>
      <extrude>1</extrude>
      <tesselate>0</tesselate>
      <altitudeMode>relativeToGround</altitudeMode>
      <coordinates>7.69454, 47.3133,20</coordinates>
    </Point>
  </Placemark><Placemark>
    <name>Pfaffnau, Brunnmatt</name>
    <Style><LineStyle><width>2</width></LineStyle></Style>
    <Point>
      <extrude>1</extrude>
      <tesselate>0</tesselate>
      <altitudeMode>relativeToGround</altitudeMode>
      <coordinates>7.91008, 47.2344,20</coordinates>
    </Point>
  </Placemark><Placemark>
    <name>Murgenthal, Moosmatt</name>
    <Style><LineStyle><width>2</width></LineStyle></Style>
    <Point>
      <extrude>1</extrude>
      <tesselate>0</tesselate>
      <altitudeMode>relativeToGround</altitudeMode>
      <coordinates>7.84503, 47.2764,20</coordinates>
    </Point>
  </Placemark><Placemark>
    <name>Oberbuchsiten, Löwen</name>
    <Style><LineStyle><width>2</width></LineStyle></Style>
    <Point>
      <extrude>1</extrude>
      <tesselate>0</tesselate>
      <altitudeMode>relativeToGround</altitudeMode>
      <coordinates>7.76627, 47.3095,20</coordinates>
    </Point>
  </Placemark><Placemark>
    <name>Pfaffnau, Dorfplatz</name>
    <Style><LineStyle><width>2</width></LineStyle></Style>
    <Point>
      <extrude>1</extrude>
      <tesselate>0</tesselate>
      <altitudeMode>relativeToGround</altitudeMode>
      <coordinates>7.89914, 47.2283,20</coordinates>
    </Point>
  </Placemark><Placemark>
    <name>St. Urban, Birchmatt</name>
    <Style><LineStyle><width>2</width></LineStyle></Style>
    <Point>
      <extrude>1</extrude>
      <tesselate>0</tesselate>
      <altitudeMode>relativeToGround</altitudeMode>
      <coordinates>7.84004, 47.2274,20</coordinates>
    </Point>
  </Placemark><Placemark>
    <name>St. Urban, Sonnhalden</name>
    <Style><LineStyle><width>2</width></LineStyle></Style>
    <Point>
      <extrude>1</extrude>
      <tesselate>0</tesselate>
      <altitudeMode>relativeToGround</altitudeMode>
      <coordinates>7.84925, 47.2227,20</coordinates>
    </Point>
  </Placemark><Placemark>
    <name>St. Urban, Bahnhof</name>
    <Style><LineStyle><width>2</width></LineStyle></Style>
    <Point>
      <extrude>1</extrude>
      <tesselate>0</tesselate>
      <altitudeMode>relativeToGround</altitudeMode>
      <coordinates>7.83577, 47.231,20</coordinates>
    </Point>
  </Placemark><Placemark>
    <name>St. Urban, Klinik</name>
    <Style><LineStyle><width>2</width></LineStyle></Style>
    <Point>
      <extrude>1</extrude>
      <tesselate>0</tesselate>
      <altitudeMode>relativeToGround</altitudeMode>
      <coordinates>7.83907, 47.2297,20</coordinates>
    </Point>
  </Placemark><Placemark>
    <name>Wangen an der Aare, Bahnhof</name>
    <Style><LineStyle><width>2</width></LineStyle></Style>
    <Point>
      <extrude>1</extrude>
      <tesselate>0</tesselate>
      <altitudeMode>relativeToGround</altitudeMode>
      <coordinates>7.6552, 47.2315,20</coordinates>
    </Point>
  </Placemark><Placemark>
    <name>Boningen, Kreuzplatz</name>
    <Style><LineStyle><width>2</width></LineStyle></Style>
    <Point>
      <extrude>1</extrude>
      <tesselate>0</tesselate>
      <altitudeMode>relativeToGround</altitudeMode>
      <coordinates>7.85884, 47.3101,20</coordinates>
    </Point>
  </Placemark><Placemark>
    <name>Bützberg, Wyssenried</name>
    <Style><LineStyle><width>2</width></LineStyle></Style>
    <Point>
      <extrude>1</extrude>
      <tesselate>0</tesselate>
      <altitudeMode>relativeToGround</altitudeMode>
      <coordinates>7.73297, 47.2071,20</coordinates>
    </Point>
  </Placemark><Placemark>
    <name>Bützberg, Tell</name>
    <Style><LineStyle><width>2</width></LineStyle></Style>
    <Point>
      <extrude>1</extrude>
      <tesselate>0</tesselate>
      <altitudeMode>relativeToGround</altitudeMode>
      <coordinates>7.74357, 47.2133,20</coordinates>
    </Point>
  </Placemark><Placemark>
    <name>Walliswil b. Wangen, Sonne</name>
    <Style><LineStyle><width>2</width></LineStyle></Style>
    <Point>
      <extrude>1</extrude>
      <tesselate>0</tesselate>
      <altitudeMode>relativeToGround</altitudeMode>
      <coordinates>7.68293, 47.2306,20</coordinates>
    </Point>
  </Placemark><Placemark>
    <name>Neuendorf, Schulhaus</name>
    <Style><LineStyle><width>2</width></LineStyle></Style>
    <Point>
      <extrude>1</extrude>
      <tesselate>0</tesselate>
      <altitudeMode>relativeToGround</altitudeMode>
      <coordinates>7.79332, 47.3007,20</coordinates>
    </Point>
  </Placemark><Placemark>
    <name>Obersteckholz, Post</name>
    <Style><LineStyle><width>2</width></LineStyle></Style>
    <Point>
      <extrude>1</extrude>
      <tesselate>0</tesselate>
      <altitudeMode>relativeToGround</altitudeMode>
      <coordinates>7.81739, 47.1987,20</coordinates>
    </Point>
  </Placemark><Placemark>
    <name>Langenthal, Bahnhof</name>
    <Style><LineStyle><width>2</width></LineStyle></Style>
    <Point>
      <extrude>1</extrude>
      <tesselate>0</tesselate>
      <altitudeMode>relativeToGround</altitudeMode>
      <coordinates>7.78451, 47.2168,20</coordinates>
    </Point>
  </Placemark><Placemark>
    <name>Pfaffnau, Post</name>
    <Style><LineStyle><width>2</width></LineStyle></Style>
    <Point>
      <extrude>1</extrude>
      <tesselate>0</tesselate>
      <altitudeMode>relativeToGround</altitudeMode>
      <coordinates>7.89681, 47.227,20</coordinates>
    </Point>
  </Placemark><Placemark>
    <name>Roggliswil, Post</name>
    <Style><LineStyle><width>2</width></LineStyle></Style>
    <Point>
      <extrude>1</extrude>
      <tesselate>0</tesselate>
      <altitudeMode>relativeToGround</altitudeMode>
      <coordinates>7.88579, 47.2113,20</coordinates>
    </Point>
  </Placemark><Placemark>
    <name>Wangenried, Schule</name>
    <Style><LineStyle><width>2</width></LineStyle></Style>
    <Point>
      <extrude>1</extrude>
      <tesselate>0</tesselate>
      <altitudeMode>relativeToGround</altitudeMode>
      <coordinates>7.65646, 47.218,20</coordinates>
    </Point>
  </Placemark><Placemark>
    <name>Klus, Bahnhof</name>
    <Style><LineStyle><width>2</width></LineStyle></Style>
    <Point>
      <extrude>1</extrude>
      <tesselate>0</tesselate>
      <altitudeMode>relativeToGround</altitudeMode>
      <coordinates>7.6945, 47.3048,20</coordinates>
    </Point>
  </Placemark></Document>
</kml>
