<kml>
<Document>

<Region>
<LatLonAltBox>
<north>47.326450</north><south>47.260206</south><east>7.772246</east><west>7.619975</west>
<minAltitude>0.000000</minAltitude><maxAltitude>0.000000</maxAltitude>
</LatLonAltBox>
<minLodPixels>2048</minLodPixels><maxLodPixels>1000000000</maxLodPixels>
<minFadeExtent>0</minFadeExtent><maxFadeExtent>0</maxFadeExtent>
</Region>
<Placemark>
    <name>Kestenholz, Dörfli</name>
    <Style><LineStyle><width>2</width></LineStyle></Style>
    <Point>
      <extrude>1</extrude>
      <tesselate>0</tesselate>
      <altitudeMode>relativeToGround</altitudeMode>
      <coordinates>7.75156, 47.2815,20</coordinates>
    </Point>
  </Placemark><Placemark>
    <name>Laupersdorf, Einschnitt</name>
    <Style><LineStyle><width>2</width></LineStyle></Style>
    <Point>
      <extrude>1</extrude>
      <tesselate>0</tesselate>
      <altitudeMode>relativeToGround</altitudeMode>
      <coordinates>7.66181, 47.312,20</coordinates>
    </Point>
  </Placemark><Placemark>
    <name>Balsthal, Heutschihaus</name>
    <Style><LineStyle><width>2</width></LineStyle></Style>
    <Point>
      <extrude>1</extrude>
      <tesselate>0</tesselate>
      <altitudeMode>relativeToGround</altitudeMode>
      <coordinates>7.71044, 47.3191,20</coordinates>
    </Point>
  </Placemark><Placemark>
    <name>Niederbipp</name>
    <Style><LineStyle><width>2</width></LineStyle></Style>
    <Point>
      <extrude>1</extrude>
      <tesselate>0</tesselate>
      <altitudeMode>relativeToGround</altitudeMode>
      <coordinates>7.69482, 47.2704,20</coordinates>
    </Point>
  </Placemark><Placemark>
    <name>Oberbuchsiten</name>
    <Style><LineStyle><width>2</width></LineStyle></Style>
    <Point>
      <extrude>1</extrude>
      <tesselate>0</tesselate>
      <altitudeMode>relativeToGround</altitudeMode>
      <coordinates>7.77172, 47.3053,20</coordinates>
    </Point>
  </Placemark><Placemark>
    <name>Oensingen</name>
    <Style><LineStyle><width>2</width></LineStyle></Style>
    <Point>
      <extrude>1</extrude>
      <tesselate>0</tesselate>
      <altitudeMode>relativeToGround</altitudeMode>
      <coordinates>7.70986, 47.285,20</coordinates>
    </Point>
  </Placemark><Placemark>
    <name>Oensingen, Bauamt</name>
    <Style><LineStyle><width>2</width></LineStyle></Style>
    <Point>
      <extrude>1</extrude>
      <tesselate>0</tesselate>
      <altitudeMode>relativeToGround</altitudeMode>
      <coordinates>7.72583, 47.2903,20</coordinates>
    </Point>
  </Placemark><Placemark>
    <name>Matzendorf, Hauptstrasse</name>
    <Style><LineStyle><width>2</width></LineStyle></Style>
    <Point>
      <extrude>1</extrude>
      <tesselate>0</tesselate>
      <altitudeMode>relativeToGround</altitudeMode>
      <coordinates>7.63235, 47.3035,20</coordinates>
    </Point>
  </Placemark><Placemark>
    <name>Farnern, Jura</name>
    <Style><LineStyle><width>2</width></LineStyle></Style>
    <Point>
      <extrude>1</extrude>
      <tesselate>0</tesselate>
      <altitudeMode>relativeToGround</altitudeMode>
      <coordinates>7.62363, 47.2667,20</coordinates>
    </Point>
  </Placemark><Placemark>
    <name>Scharnageln</name>
    <Style><LineStyle><width>2</width></LineStyle></Style>
    <Point>
      <extrude>1</extrude>
      <tesselate>0</tesselate>
      <altitudeMode>relativeToGround</altitudeMode>
      <coordinates>7.70079, 47.2631,20</coordinates>
    </Point>
  </Placemark><Placemark>
    <name>Niederbipp Dorf</name>
    <Style><LineStyle><width>2</width></LineStyle></Style>
    <Point>
      <extrude>1</extrude>
      <tesselate>0</tesselate>
      <altitudeMode>relativeToGround</altitudeMode>
      <coordinates>7.69514, 47.2658,20</coordinates>
    </Point>
  </Placemark><Placemark>
    <name>Kestenholz, Depot</name>
    <Style><LineStyle><width>2</width></LineStyle></Style>
    <Point>
      <extrude>1</extrude>
      <tesselate>0</tesselate>
      <altitudeMode>relativeToGround</altitudeMode>
      <coordinates>7.74924, 47.2808,20</coordinates>
    </Point>
  </Placemark><Placemark>
    <name>Balsthal, Thalbrücke</name>
    <Style><LineStyle><width>2</width></LineStyle></Style>
    <Point>
      <extrude>1</extrude>
      <tesselate>0</tesselate>
      <altitudeMode>relativeToGround</altitudeMode>
      <coordinates>7.68725, 47.3097,20</coordinates>
    </Point>
  </Placemark><Placemark>
    <name>Balsthal</name>
    <Style><LineStyle><width>2</width></LineStyle></Style>
    <Point>
      <extrude>1</extrude>
      <tesselate>0</tesselate>
      <altitudeMode>relativeToGround</altitudeMode>
      <coordinates>7.69392, 47.3129,20</coordinates>
    </Point>
  </Placemark><Placemark>
    <name>Thalbrücke</name>
    <Style><LineStyle><width>2</width></LineStyle></Style>
    <Point>
      <extrude>1</extrude>
      <tesselate>0</tesselate>
      <altitudeMode>relativeToGround</altitudeMode>
      <coordinates>7.68823, 47.3086,20</coordinates>
    </Point>
  </Placemark><Placemark>
    <name>Klus</name>
    <Style><LineStyle><width>2</width></LineStyle></Style>
    <Point>
      <extrude>1</extrude>
      <tesselate>0</tesselate>
      <altitudeMode>relativeToGround</altitudeMode>
      <coordinates>7.69476, 47.3035,20</coordinates>
    </Point>
  </Placemark><Placemark>
    <name>Matzendorf, Kantonsstrasse</name>
    <Style><LineStyle><width>2</width></LineStyle></Style>
    <Point>
      <extrude>1</extrude>
      <tesselate>0</tesselate>
      <altitudeMode>relativeToGround</altitudeMode>
      <coordinates>7.63235, 47.3035,20</coordinates>
    </Point>
  </Placemark><Placemark>
    <name>Klus, Maiacker</name>
    <Style><LineStyle><width>2</width></LineStyle></Style>
    <Point>
      <extrude>1</extrude>
      <tesselate>0</tesselate>
      <altitudeMode>relativeToGround</altitudeMode>
      <coordinates>7.70109, 47.3,20</coordinates>
    </Point>
  </Placemark><Placemark>
    <name>Rumisberg, Bären</name>
    <Style><LineStyle><width>2</width></LineStyle></Style>
    <Point>
      <extrude>1</extrude>
      <tesselate>0</tesselate>
      <altitudeMode>relativeToGround</altitudeMode>
      <coordinates>7.64212, 47.2639,20</coordinates>
    </Point>
  </Placemark><Placemark>
    <name>Laupersdorf, Post</name>
    <Style><LineStyle><width>2</width></LineStyle></Style>
    <Point>
      <extrude>1</extrude>
      <tesselate>0</tesselate>
      <altitudeMode>relativeToGround</altitudeMode>
      <coordinates>7.65288, 47.312,20</coordinates>
    </Point>
  </Placemark><Placemark>
    <name>Matzendorf, Post</name>
    <Style><LineStyle><width>2</width></LineStyle></Style>
    <Point>
      <extrude>1</extrude>
      <tesselate>0</tesselate>
      <altitudeMode>relativeToGround</altitudeMode>
      <coordinates>7.62939, 47.3062,20</coordinates>
    </Point>
  </Placemark><Placemark>
    <name>Wolfisberg, Hof</name>
    <Style><LineStyle><width>2</width></LineStyle></Style>
    <Point>
      <extrude>1</extrude>
      <tesselate>0</tesselate>
      <altitudeMode>relativeToGround</altitudeMode>
      <coordinates>7.66198, 47.2738,20</coordinates>
    </Point>
  </Placemark><Placemark>
    <name>Niederbipp, Spital</name>
    <Style><LineStyle><width>2</width></LineStyle></Style>
    <Point>
      <extrude>1</extrude>
      <tesselate>0</tesselate>
      <altitudeMode>relativeToGround</altitudeMode>
      <coordinates>7.68576, 47.2728,20</coordinates>
    </Point>
  </Placemark><Placemark>
    <name>Niederbipp, Bahnhof</name>
    <Style><LineStyle><width>2</width></LineStyle></Style>
    <Point>
      <extrude>1</extrude>
      <tesselate>0</tesselate>
      <altitudeMode>relativeToGround</altitudeMode>
      <coordinates>7.69368, 47.2701,20</coordinates>
    </Point>
  </Placemark><Placemark>
    <name>Niederbipp, Walden</name>
    <Style><LineStyle><width>2</width></LineStyle></Style>
    <Point>
      <extrude>1</extrude>
      <tesselate>0</tesselate>
      <altitudeMode>relativeToGround</altitudeMode>
      <coordinates>7.67124, 47.2774,20</coordinates>
    </Point>
  </Placemark><Placemark>
    <name>Niederbuchsiten, Sonne</name>
    <Style><LineStyle><width>2</width></LineStyle></Style>
    <Point>
      <extrude>1</extrude>
      <tesselate>0</tesselate>
      <altitudeMode>relativeToGround</altitudeMode>
      <coordinates>7.76784, 47.296,20</coordinates>
    </Point>
  </Placemark></Document>
</kml>
