<kml>
<Document>

<Region>
<LatLonAltBox>
<north>47.326450</north><south>47.260206</south><east>8.076789</east><west>7.924518</west>
<minAltitude>0.000000</minAltitude><maxAltitude>0.000000</maxAltitude>
</LatLonAltBox>
<minLodPixels>2048</minLodPixels><maxLodPixels>1000000000</maxLodPixels>
<minFadeExtent>0</minFadeExtent><maxFadeExtent>0</maxFadeExtent>
</Region>
<NetworkLink>
<name>0031100</name>

<Region>
<LatLonAltBox>
<north>47.326450</north><south>47.293328</south><east>8.000653</east><west>7.924518</west>
<minAltitude>0.000000</minAltitude><maxAltitude>0.000000</maxAltitude>
</LatLonAltBox>
<minLodPixels>256</minLodPixels><maxLodPixels>1000000000</maxLodPixels>
<minFadeExtent>0</minFadeExtent><maxFadeExtent>0</maxFadeExtent>
</Region>
<Link>
<href>0031100.kml</href><viewRefreshMode>onRegion</viewRefreshMode></Link>
</NetworkLink>
<NetworkLink>
<name>0031101</name>

<Region>
<LatLonAltBox>
<north>47.326450</north><south>47.293328</south><east>8.076789</east><west>8.000653</west>
<minAltitude>0.000000</minAltitude><maxAltitude>0.000000</maxAltitude>
</LatLonAltBox>
<minLodPixels>256</minLodPixels><maxLodPixels>1000000000</maxLodPixels>
<minFadeExtent>0</minFadeExtent><maxFadeExtent>0</maxFadeExtent>
</Region>
<Link>
<href>0031101.kml</href><viewRefreshMode>onRegion</viewRefreshMode></Link>
</NetworkLink>
<NetworkLink>
<name>0031102</name>

<Region>
<LatLonAltBox>
<north>47.293328</north><south>47.260206</south><east>8.000653</east><west>7.924518</west>
<minAltitude>0.000000</minAltitude><maxAltitude>0.000000</maxAltitude>
</LatLonAltBox>
<minLodPixels>256</minLodPixels><maxLodPixels>1000000000</maxLodPixels>
<minFadeExtent>0</minFadeExtent><maxFadeExtent>0</maxFadeExtent>
</Region>
<Link>
<href>0031102.kml</href><viewRefreshMode>onRegion</viewRefreshMode></Link>
</NetworkLink>
<NetworkLink>
<name>0031103</name>

<Region>
<LatLonAltBox>
<north>47.293328</north><south>47.260206</south><east>8.076789</east><west>8.000653</west>
<minAltitude>0.000000</minAltitude><maxAltitude>0.000000</maxAltitude>
</LatLonAltBox>
<minLodPixels>256</minLodPixels><maxLodPixels>1000000000</maxLodPixels>
<minFadeExtent>0</minFadeExtent><maxFadeExtent>0</maxFadeExtent>
</Region>
<Link>
<href>0031103.kml</href><viewRefreshMode>onRegion</viewRefreshMode></Link>
</NetworkLink>
<Placemark>
    <name>Moosleerau, Abzw.</name>
    <Style><LineStyle><width>2</width></LineStyle></Style>
    <Point>
      <extrude>1</extrude>
      <tesselate>0</tesselate>
      <altitudeMode>relativeToGround</altitudeMode>
      <coordinates>8.06434, 47.2689,20</coordinates>
    </Point>
  </Placemark><Placemark>
    <name>Attelwil, alte Post</name>
    <Style><LineStyle><width>2</width></LineStyle></Style>
    <Point>
      <extrude>1</extrude>
      <tesselate>0</tesselate>
      <altitudeMode>relativeToGround</altitudeMode>
      <coordinates>8.04508, 47.2607,20</coordinates>
    </Point>
  </Placemark><Placemark>
    <name>Strengelbach, Schürliweg</name>
    <Style><LineStyle><width>2</width></LineStyle></Style>
    <Point>
      <extrude>1</extrude>
      <tesselate>0</tesselate>
      <altitudeMode>relativeToGround</altitudeMode>
      <coordinates>7.93301, 47.2855,20</coordinates>
    </Point>
  </Placemark><Placemark>
    <name>Zofingen, Tagblatt</name>
    <Style><LineStyle><width>2</width></LineStyle></Style>
    <Point>
      <extrude>1</extrude>
      <tesselate>0</tesselate>
      <altitudeMode>relativeToGround</altitudeMode>
      <coordinates>7.93698, 47.2869,20</coordinates>
    </Point>
  </Placemark><Placemark>
    <name>Strengelbach, Sägetstrasse</name>
    <Style><LineStyle><width>2</width></LineStyle></Style>
    <Point>
      <extrude>1</extrude>
      <tesselate>0</tesselate>
      <altitudeMode>relativeToGround</altitudeMode>
      <coordinates>7.92574, 47.286,20</coordinates>
    </Point>
  </Placemark><Placemark>
    <name>Schöftland, Holzikerstrasse</name>
    <Style><LineStyle><width>2</width></LineStyle></Style>
    <Point>
      <extrude>1</extrude>
      <tesselate>0</tesselate>
      <altitudeMode>relativeToGround</altitudeMode>
      <coordinates>8.04831, 47.3117,20</coordinates>
    </Point>
  </Placemark><Placemark>
    <name>Schönenwerd SO, Bahnhof</name>
    <Style><LineStyle><width>2</width></LineStyle></Style>
    <Point>
      <extrude>1</extrude>
      <tesselate>0</tesselate>
      <altitudeMode>relativeToGround</altitudeMode>
      <coordinates>7.99972, 47.3196,20</coordinates>
    </Point>
  </Placemark><Placemark>
    <name>Küngoldingen</name>
    <Style><LineStyle><width>2</width></LineStyle></Style>
    <Point>
      <extrude>1</extrude>
      <tesselate>0</tesselate>
      <altitudeMode>relativeToGround</altitudeMode>
      <coordinates>7.94199, 47.3075,20</coordinates>
    </Point>
  </Placemark><Placemark>
    <name>Kölliken Oberdorf</name>
    <Style><LineStyle><width>2</width></LineStyle></Style>
    <Point>
      <extrude>1</extrude>
      <tesselate>0</tesselate>
      <altitudeMode>relativeToGround</altitudeMode>
      <coordinates>8.01907, 47.3247,20</coordinates>
    </Point>
  </Placemark><Placemark>
    <name>Schöftland, Sandplatten</name>
    <Style><LineStyle><width>2</width></LineStyle></Style>
    <Point>
      <extrude>1</extrude>
      <tesselate>0</tesselate>
      <altitudeMode>relativeToGround</altitudeMode>
      <coordinates>8.068, 47.2997,20</coordinates>
    </Point>
  </Placemark><Placemark>
    <name>Schlossrued, Klack</name>
    <Style><LineStyle><width>2</width></LineStyle></Style>
    <Point>
      <extrude>1</extrude>
      <tesselate>0</tesselate>
      <altitudeMode>relativeToGround</altitudeMode>
      <coordinates>8.07655, 47.2961,20</coordinates>
    </Point>
  </Placemark><Placemark>
    <name>Wiliberg-Hintermoos, Buchacker</name>
    <Style><LineStyle><width>2</width></LineStyle></Style>
    <Point>
      <extrude>1</extrude>
      <tesselate>0</tesselate>
      <altitudeMode>relativeToGround</altitudeMode>
      <coordinates>8.01412, 47.2687,20</coordinates>
    </Point>
  </Placemark><Placemark>
    <name>Uerkheim, Abzw. Neudorf</name>
    <Style><LineStyle><width>2</width></LineStyle></Style>
    <Point>
      <extrude>1</extrude>
      <tesselate>0</tesselate>
      <altitudeMode>relativeToGround</altitudeMode>
      <coordinates>8.00922, 47.3045,20</coordinates>
    </Point>
  </Placemark><Placemark>
    <name>Mühlethal, Milchhüsli</name>
    <Style><LineStyle><width>2</width></LineStyle></Style>
    <Point>
      <extrude>1</extrude>
      <tesselate>0</tesselate>
      <altitudeMode>relativeToGround</altitudeMode>
      <coordinates>7.97976, 47.3015,20</coordinates>
    </Point>
  </Placemark><Placemark>
    <name>Zofingen, Bifangstrasse</name>
    <Style><LineStyle><width>2</width></LineStyle></Style>
    <Point>
      <extrude>1</extrude>
      <tesselate>0</tesselate>
      <altitudeMode>relativeToGround</altitudeMode>
      <coordinates>7.94496, 47.2913,20</coordinates>
    </Point>
  </Placemark><Placemark>
    <name>Wiliberg-Hintermoos, Mosersagi</name>
    <Style><LineStyle><width>2</width></LineStyle></Style>
    <Point>
      <extrude>1</extrude>
      <tesselate>0</tesselate>
      <altitudeMode>relativeToGround</altitudeMode>
      <coordinates>8.00877, 47.2632,20</coordinates>
    </Point>
  </Placemark><Placemark>
    <name>Strengelbach, Kreuzplatz</name>
    <Style><LineStyle><width>2</width></LineStyle></Style>
    <Point>
      <extrude>1</extrude>
      <tesselate>0</tesselate>
      <altitudeMode>relativeToGround</altitudeMode>
      <coordinates>7.92865, 47.2786,20</coordinates>
    </Point>
  </Placemark><Placemark>
    <name>Brittnau, Nelkenweg</name>
    <Style><LineStyle><width>2</width></LineStyle></Style>
    <Point>
      <extrude>1</extrude>
      <tesselate>0</tesselate>
      <altitudeMode>relativeToGround</altitudeMode>
      <coordinates>7.94146, 47.2704,20</coordinates>
    </Point>
  </Placemark><Placemark>
    <name>Brittnau-Wikon</name>
    <Style><LineStyle><width>2</width></LineStyle></Style>
    <Point>
      <extrude>1</extrude>
      <tesselate>0</tesselate>
      <altitudeMode>relativeToGround</altitudeMode>
      <coordinates>7.95703, 47.2627,20</coordinates>
    </Point>
  </Placemark><Placemark>
    <name>Zofingen, Haldenweg</name>
    <Style><LineStyle><width>2</width></LineStyle></Style>
    <Point>
      <extrude>1</extrude>
      <tesselate>0</tesselate>
      <altitudeMode>relativeToGround</altitudeMode>
      <coordinates>7.95739, 47.278,20</coordinates>
    </Point>
  </Placemark><Placemark>
    <name>Zofingen, Spital</name>
    <Style><LineStyle><width>2</width></LineStyle></Style>
    <Point>
      <extrude>1</extrude>
      <tesselate>0</tesselate>
      <altitudeMode>relativeToGround</altitudeMode>
      <coordinates>7.94764, 47.2956,20</coordinates>
    </Point>
  </Placemark><Placemark>
    <name>Uerkheim, Säge</name>
    <Style><LineStyle><width>2</width></LineStyle></Style>
    <Point>
      <extrude>1</extrude>
      <tesselate>0</tesselate>
      <altitudeMode>relativeToGround</altitudeMode>
      <coordinates>8.00129, 47.3055,20</coordinates>
    </Point>
  </Placemark><Placemark>
    <name>Oftringen, Gilam</name>
    <Style><LineStyle><width>2</width></LineStyle></Style>
    <Point>
      <extrude>1</extrude>
      <tesselate>0</tesselate>
      <altitudeMode>relativeToGround</altitudeMode>
      <coordinates>7.93681, 47.3033,20</coordinates>
    </Point>
  </Placemark><Placemark>
    <name>Mühlethal, Linden</name>
    <Style><LineStyle><width>2</width></LineStyle></Style>
    <Point>
      <extrude>1</extrude>
      <tesselate>0</tesselate>
      <altitudeMode>relativeToGround</altitudeMode>
      <coordinates>7.98474, 47.3028,20</coordinates>
    </Point>
  </Placemark><Placemark>
    <name>Oftringen, Lerchenfeld</name>
    <Style><LineStyle><width>2</width></LineStyle></Style>
    <Point>
      <extrude>1</extrude>
      <tesselate>0</tesselate>
      <altitudeMode>relativeToGround</altitudeMode>
      <coordinates>7.93347, 47.3004,20</coordinates>
    </Point>
  </Placemark><Placemark>
    <name>Schöftland, Bahnhof</name>
    <Style><LineStyle><width>2</width></LineStyle></Style>
    <Point>
      <extrude>1</extrude>
      <tesselate>0</tesselate>
      <altitudeMode>relativeToGround</altitudeMode>
      <coordinates>8.04955, 47.305,20</coordinates>
    </Point>
  </Placemark><Placemark>
    <name>Uerkheim, Unterdorf</name>
    <Style><LineStyle><width>2</width></LineStyle></Style>
    <Point>
      <extrude>1</extrude>
      <tesselate>0</tesselate>
      <altitudeMode>relativeToGround</altitudeMode>
      <coordinates>8.0248, 47.3087,20</coordinates>
    </Point>
  </Placemark><Placemark>
    <name>Kirchleerau, Fabrik Hunziker</name>
    <Style><LineStyle><width>2</width></LineStyle></Style>
    <Point>
      <extrude>1</extrude>
      <tesselate>0</tesselate>
      <altitudeMode>relativeToGround</altitudeMode>
      <coordinates>8.0724, 47.2804,20</coordinates>
    </Point>
  </Placemark><Placemark>
    <name>Staffelbach, Suhrenbrücke</name>
    <Style><LineStyle><width>2</width></LineStyle></Style>
    <Point>
      <extrude>1</extrude>
      <tesselate>0</tesselate>
      <altitudeMode>relativeToGround</altitudeMode>
      <coordinates>8.04533, 47.2828,20</coordinates>
    </Point>
  </Placemark><Placemark>
    <name>Safenwil</name>
    <Style><LineStyle><width>2</width></LineStyle></Style>
    <Point>
      <extrude>1</extrude>
      <tesselate>0</tesselate>
      <altitudeMode>relativeToGround</altitudeMode>
      <coordinates>7.98351, 47.3218,20</coordinates>
    </Point>
  </Placemark><Placemark>
    <name>Oftringen, Wirtshüsli</name>
    <Style><LineStyle><width>2</width></LineStyle></Style>
    <Point>
      <extrude>1</extrude>
      <tesselate>0</tesselate>
      <altitudeMode>relativeToGround</altitudeMode>
      <coordinates>7.93087, 47.3044,20</coordinates>
    </Point>
  </Placemark><Placemark>
    <name>Oftringen, Ruhbank</name>
    <Style><LineStyle><width>2</width></LineStyle></Style>
    <Point>
      <extrude>1</extrude>
      <tesselate>0</tesselate>
      <altitudeMode>relativeToGround</altitudeMode>
      <coordinates>7.93739, 47.2952,20</coordinates>
    </Point>
  </Placemark><Placemark>
    <name>Zofingen, Spitalgasse</name>
    <Style><LineStyle><width>2</width></LineStyle></Style>
    <Point>
      <extrude>1</extrude>
      <tesselate>0</tesselate>
      <altitudeMode>relativeToGround</altitudeMode>
      <coordinates>7.94363, 47.2911,20</coordinates>
    </Point>
  </Placemark><Placemark>
    <name>Oftringen, Schulhaus/Kirche</name>
    <Style><LineStyle><width>2</width></LineStyle></Style>
    <Point>
      <extrude>1</extrude>
      <tesselate>0</tesselate>
      <altitudeMode>relativeToGround</altitudeMode>
      <coordinates>7.92961, 47.3121,20</coordinates>
    </Point>
  </Placemark><Placemark>
    <name>Küngoldingen, Post</name>
    <Style><LineStyle><width>2</width></LineStyle></Style>
    <Point>
      <extrude>1</extrude>
      <tesselate>0</tesselate>
      <altitudeMode>relativeToGround</altitudeMode>
      <coordinates>7.94406, 47.3017,20</coordinates>
    </Point>
  </Placemark><Placemark>
    <name>Oftringen, Tychboden</name>
    <Style><LineStyle><width>2</width></LineStyle></Style>
    <Point>
      <extrude>1</extrude>
      <tesselate>0</tesselate>
      <altitudeMode>relativeToGround</altitudeMode>
      <coordinates>7.92693, 47.3081,20</coordinates>
    </Point>
  </Placemark><Placemark>
    <name>Wikon, Schlossberg</name>
    <Style><LineStyle><width>2</width></LineStyle></Style>
    <Point>
      <extrude>1</extrude>
      <tesselate>0</tesselate>
      <altitudeMode>relativeToGround</altitudeMode>
      <coordinates>7.9711, 47.262,20</coordinates>
    </Point>
  </Placemark><Placemark>
    <name>Zofingen, Bethge</name>
    <Style><LineStyle><width>2</width></LineStyle></Style>
    <Point>
      <extrude>1</extrude>
      <tesselate>0</tesselate>
      <altitudeMode>relativeToGround</altitudeMode>
      <coordinates>7.96354, 47.2984,20</coordinates>
    </Point>
  </Placemark><Placemark>
    <name>Zofingen, Riedtalstrasse</name>
    <Style><LineStyle><width>2</width></LineStyle></Style>
    <Point>
      <extrude>1</extrude>
      <tesselate>0</tesselate>
      <altitudeMode>relativeToGround</altitudeMode>
      <coordinates>7.95144, 47.2783,20</coordinates>
    </Point>
  </Placemark><Placemark>
    <name>Zofingen, Bleiche AG</name>
    <Style><LineStyle><width>2</width></LineStyle></Style>
    <Point>
      <extrude>1</extrude>
      <tesselate>0</tesselate>
      <altitudeMode>relativeToGround</altitudeMode>
      <coordinates>7.93406, 47.2923,20</coordinates>
    </Point>
  </Placemark><Placemark>
    <name>Zofingen, Römerbad</name>
    <Style><LineStyle><width>2</width></LineStyle></Style>
    <Point>
      <extrude>1</extrude>
      <tesselate>0</tesselate>
      <altitudeMode>relativeToGround</altitudeMode>
      <coordinates>7.94883, 47.2819,20</coordinates>
    </Point>
  </Placemark><Placemark>
    <name>Brittnau, Kleinfeld</name>
    <Style><LineStyle><width>2</width></LineStyle></Style>
    <Point>
      <extrude>1</extrude>
      <tesselate>0</tesselate>
      <altitudeMode>relativeToGround</altitudeMode>
      <coordinates>7.94275, 47.2671,20</coordinates>
    </Point>
  </Placemark><Placemark>
    <name>Brittnau, Einmündung Zelgli</name>
    <Style><LineStyle><width>2</width></LineStyle></Style>
    <Point>
      <extrude>1</extrude>
      <tesselate>0</tesselate>
      <altitudeMode>relativeToGround</altitudeMode>
      <coordinates>7.94468, 47.2621,20</coordinates>
    </Point>
  </Placemark><Placemark>
    <name>Brittnau, Abzw. Bahnhof</name>
    <Style><LineStyle><width>2</width></LineStyle></Style>
    <Point>
      <extrude>1</extrude>
      <tesselate>0</tesselate>
      <altitudeMode>relativeToGround</altitudeMode>
      <coordinates>7.95194, 47.2612,20</coordinates>
    </Point>
  </Placemark><Placemark>
    <name>Brittnau-Wikon, Bahnhof</name>
    <Style><LineStyle><width>2</width></LineStyle></Style>
    <Point>
      <extrude>1</extrude>
      <tesselate>0</tesselate>
      <altitudeMode>relativeToGround</altitudeMode>
      <coordinates>7.95723, 47.262,20</coordinates>
    </Point>
  </Placemark><Placemark>
    <name>Strengelbach, Hardmattenweg</name>
    <Style><LineStyle><width>2</width></LineStyle></Style>
    <Point>
      <extrude>1</extrude>
      <tesselate>0</tesselate>
      <altitudeMode>relativeToGround</altitudeMode>
      <coordinates>7.92636, 47.282,20</coordinates>
    </Point>
  </Placemark><Placemark>
    <name>Strengelbach, Altersheim</name>
    <Style><LineStyle><width>2</width></LineStyle></Style>
    <Point>
      <extrude>1</extrude>
      <tesselate>0</tesselate>
      <altitudeMode>relativeToGround</altitudeMode>
      <coordinates>7.92767, 47.2802,20</coordinates>
    </Point>
  </Placemark><Placemark>
    <name>Strengelbach, Gemeindehaus</name>
    <Style><LineStyle><width>2</width></LineStyle></Style>
    <Point>
      <extrude>1</extrude>
      <tesselate>0</tesselate>
      <altitudeMode>relativeToGround</altitudeMode>
      <coordinates>7.92996, 47.2779,20</coordinates>
    </Point>
  </Placemark><Placemark>
    <name>Zofingen, Oberer Stadteingang</name>
    <Style><LineStyle><width>2</width></LineStyle></Style>
    <Point>
      <extrude>1</extrude>
      <tesselate>0</tesselate>
      <altitudeMode>relativeToGround</altitudeMode>
      <coordinates>7.94754, 47.285,20</coordinates>
    </Point>
  </Placemark></Document>
</kml>
