<kml>
<Document>

<Region>
<LatLonAltBox>
<north>47.193962</north><south>47.061475</south><east>7.924518</east><west>7.619975</west>
<minAltitude>0.000000</minAltitude><maxAltitude>0.000000</maxAltitude>
</LatLonAltBox>
<minLodPixels>2048</minLodPixels><maxLodPixels>1000000000</maxLodPixels>
<minFadeExtent>0</minFadeExtent><maxFadeExtent>0</maxFadeExtent>
</Region>
<NetworkLink>
<name>003120</name>

<Region>
<LatLonAltBox>
<north>47.193962</north><south>47.127719</south><east>7.772246</east><west>7.619975</west>
<minAltitude>0.000000</minAltitude><maxAltitude>0.000000</maxAltitude>
</LatLonAltBox>
<minLodPixels>256</minLodPixels><maxLodPixels>1000000000</maxLodPixels>
<minFadeExtent>0</minFadeExtent><maxFadeExtent>0</maxFadeExtent>
</Region>
<Link>
<href>003120.kml</href><viewRefreshMode>onRegion</viewRefreshMode></Link>
</NetworkLink>
<NetworkLink>
<name>003121</name>

<Region>
<LatLonAltBox>
<north>47.193962</north><south>47.127719</south><east>7.924518</east><west>7.772246</west>
<minAltitude>0.000000</minAltitude><maxAltitude>0.000000</maxAltitude>
</LatLonAltBox>
<minLodPixels>256</minLodPixels><maxLodPixels>1000000000</maxLodPixels>
<minFadeExtent>0</minFadeExtent><maxFadeExtent>0</maxFadeExtent>
</Region>
<Link>
<href>003121.kml</href><viewRefreshMode>onRegion</viewRefreshMode></Link>
</NetworkLink>
<NetworkLink>
<name>003122</name>

<Region>
<LatLonAltBox>
<north>47.127719</north><south>47.061475</south><east>7.772246</east><west>7.619975</west>
<minAltitude>0.000000</minAltitude><maxAltitude>0.000000</maxAltitude>
</LatLonAltBox>
<minLodPixels>256</minLodPixels><maxLodPixels>1000000000</maxLodPixels>
<minFadeExtent>0</minFadeExtent><maxFadeExtent>0</maxFadeExtent>
</Region>
<Link>
<href>003122.kml</href><viewRefreshMode>onRegion</viewRefreshMode></Link>
</NetworkLink>
<NetworkLink>
<name>003123</name>

<Region>
<LatLonAltBox>
<north>47.127719</north><south>47.061475</south><east>7.924518</east><west>7.772246</west>
<minAltitude>0.000000</minAltitude><maxAltitude>0.000000</maxAltitude>
</LatLonAltBox>
<minLodPixels>256</minLodPixels><maxLodPixels>1000000000</maxLodPixels>
<minFadeExtent>0</minFadeExtent><maxFadeExtent>0</maxFadeExtent>
</Region>
<Link>
<href>003123.kml</href><viewRefreshMode>onRegion</viewRefreshMode></Link>
</NetworkLink>
<Placemark>
    <name>Rüegsbach, Oberrinderbach</name>
    <Style><LineStyle><width>2</width></LineStyle></Style>
    <Point>
      <extrude>1</extrude>
      <tesselate>0</tesselate>
      <altitudeMode>relativeToGround</altitudeMode>
      <coordinates>7.70917, 47.0668,20</coordinates>
    </Point>
  </Placemark><Placemark>
    <name>Burgdorf, Gyrischachen</name>
    <Style><LineStyle><width>2</width></LineStyle></Style>
    <Point>
      <extrude>1</extrude>
      <tesselate>0</tesselate>
      <altitudeMode>relativeToGround</altitudeMode>
      <coordinates>7.6305, 47.0631,20</coordinates>
    </Point>
  </Placemark><Placemark>
    <name>Hofstatt, Grünenboden</name>
    <Style><LineStyle><width>2</width></LineStyle></Style>
    <Point>
      <extrude>1</extrude>
      <tesselate>0</tesselate>
      <altitudeMode>relativeToGround</altitudeMode>
      <coordinates>7.91792, 47.0778,20</coordinates>
    </Point>
  </Placemark><Placemark>
    <name>Eriswil, Station</name>
    <Style><LineStyle><width>2</width></LineStyle></Style>
    <Point>
      <extrude>1</extrude>
      <tesselate>0</tesselate>
      <altitudeMode>relativeToGround</altitudeMode>
      <coordinates>7.85079, 47.0799,20</coordinates>
    </Point>
  </Placemark><Placemark>
    <name>Eriswil, Hinterdorf</name>
    <Style><LineStyle><width>2</width></LineStyle></Style>
    <Point>
      <extrude>1</extrude>
      <tesselate>0</tesselate>
      <altitudeMode>relativeToGround</altitudeMode>
      <coordinates>7.856, 47.0727,20</coordinates>
    </Point>
  </Placemark><Placemark>
    <name>Madiswil</name>
    <Style><LineStyle><width>2</width></LineStyle></Style>
    <Point>
      <extrude>1</extrude>
      <tesselate>0</tesselate>
      <altitudeMode>relativeToGround</altitudeMode>
      <coordinates>7.79565, 47.1667,20</coordinates>
    </Point>
  </Placemark><Placemark>
    <name>Lotzwil</name>
    <Style><LineStyle><width>2</width></LineStyle></Style>
    <Point>
      <extrude>1</extrude>
      <tesselate>0</tesselate>
      <altitudeMode>relativeToGround</altitudeMode>
      <coordinates>7.78839, 47.1895,20</coordinates>
    </Point>
  </Placemark><Placemark>
    <name>Kleindietwil</name>
    <Style><LineStyle><width>2</width></LineStyle></Style>
    <Point>
      <extrude>1</extrude>
      <tesselate>0</tesselate>
      <altitudeMode>relativeToGround</altitudeMode>
      <coordinates>7.79174, 47.145,20</coordinates>
    </Point>
  </Placemark><Placemark>
    <name>Lindenholz</name>
    <Style><LineStyle><width>2</width></LineStyle></Style>
    <Point>
      <extrude>1</extrude>
      <tesselate>0</tesselate>
      <altitudeMode>relativeToGround</altitudeMode>
      <coordinates>7.79053, 47.1546,20</coordinates>
    </Point>
  </Placemark><Placemark>
    <name>Huttwil</name>
    <Style><LineStyle><width>2</width></LineStyle></Style>
    <Point>
      <extrude>1</extrude>
      <tesselate>0</tesselate>
      <altitudeMode>relativeToGround</altitudeMode>
      <coordinates>7.84273, 47.1146,20</coordinates>
    </Point>
  </Placemark><Placemark>
    <name>Rohrbach</name>
    <Style><LineStyle><width>2</width></LineStyle></Style>
    <Point>
      <extrude>1</extrude>
      <tesselate>0</tesselate>
      <altitudeMode>relativeToGround</altitudeMode>
      <coordinates>7.81383, 47.1371,20</coordinates>
    </Point>
  </Placemark><Placemark>
    <name>Bolken, Dorf</name>
    <Style><LineStyle><width>2</width></LineStyle></Style>
    <Point>
      <extrude>1</extrude>
      <tesselate>0</tesselate>
      <altitudeMode>relativeToGround</altitudeMode>
      <coordinates>7.66296, 47.1937,20</coordinates>
    </Point>
  </Placemark><Placemark>
    <name>Aeschi SO, Dorf</name>
    <Style><LineStyle><width>2</width></LineStyle></Style>
    <Point>
      <extrude>1</extrude>
      <tesselate>0</tesselate>
      <altitudeMode>relativeToGround</altitudeMode>
      <coordinates>7.66423, 47.1802,20</coordinates>
    </Point>
  </Placemark><Placemark>
    <name>Niederönz, Post</name>
    <Style><LineStyle><width>2</width></LineStyle></Style>
    <Point>
      <extrude>1</extrude>
      <tesselate>0</tesselate>
      <altitudeMode>relativeToGround</altitudeMode>
      <coordinates>7.69195, 47.1847,20</coordinates>
    </Point>
  </Placemark><Placemark>
    <name>Hüniken</name>
    <Style><LineStyle><width>2</width></LineStyle></Style>
    <Point>
      <extrude>1</extrude>
      <tesselate>0</tesselate>
      <altitudeMode>relativeToGround</altitudeMode>
      <coordinates>7.63786, 47.1848,20</coordinates>
    </Point>
  </Placemark><Placemark>
    <name>Herzogenbuchsee, Bahnhof</name>
    <Style><LineStyle><width>2</width></LineStyle></Style>
    <Point>
      <extrude>1</extrude>
      <tesselate>0</tesselate>
      <altitudeMode>relativeToGround</altitudeMode>
      <coordinates>7.7012, 47.1883,20</coordinates>
    </Point>
  </Placemark><Placemark>
    <name>Riedtwil, Bahnhof</name>
    <Style><LineStyle><width>2</width></LineStyle></Style>
    <Point>
      <extrude>1</extrude>
      <tesselate>0</tesselate>
      <altitudeMode>relativeToGround</altitudeMode>
      <coordinates>7.69306, 47.1397,20</coordinates>
    </Point>
  </Placemark><Placemark>
    <name>Winistorf, Rest. Traube</name>
    <Style><LineStyle><width>2</width></LineStyle></Style>
    <Point>
      <extrude>1</extrude>
      <tesselate>0</tesselate>
      <altitudeMode>relativeToGround</altitudeMode>
      <coordinates>7.6496, 47.1515,20</coordinates>
    </Point>
  </Placemark><Placemark>
    <name>Huttwil Sportzentrum</name>
    <Style><LineStyle><width>2</width></LineStyle></Style>
    <Point>
      <extrude>1</extrude>
      <tesselate>0</tesselate>
      <altitudeMode>relativeToGround</altitudeMode>
      <coordinates>7.83292, 47.1122,20</coordinates>
    </Point>
  </Placemark><Placemark>
    <name>Häusernmoos, Dorf</name>
    <Style><LineStyle><width>2</width></LineStyle></Style>
    <Point>
      <extrude>1</extrude>
      <tesselate>0</tesselate>
      <altitudeMode>relativeToGround</altitudeMode>
      <coordinates>7.74906, 47.0784,20</coordinates>
    </Point>
  </Placemark><Placemark>
    <name>Herzogenbuchsee</name>
    <Style><LineStyle><width>2</width></LineStyle></Style>
    <Point>
      <extrude>1</extrude>
      <tesselate>0</tesselate>
      <altitudeMode>relativeToGround</altitudeMode>
      <coordinates>7.70095, 47.1881,20</coordinates>
    </Point>
  </Placemark><Placemark>
    <name>Wynigen</name>
    <Style><LineStyle><width>2</width></LineStyle></Style>
    <Point>
      <extrude>1</extrude>
      <tesselate>0</tesselate>
      <altitudeMode>relativeToGround</altitudeMode>
      <coordinates>7.6635, 47.1052,20</coordinates>
    </Point>
  </Placemark><Placemark>
    <name>Etziken, Industrie</name>
    <Style><LineStyle><width>2</width></LineStyle></Style>
    <Point>
      <extrude>1</extrude>
      <tesselate>0</tesselate>
      <altitudeMode>relativeToGround</altitudeMode>
      <coordinates>7.63656, 47.1893,20</coordinates>
    </Point>
  </Placemark><Placemark>
    <name>Kleindietwil, Post</name>
    <Style><LineStyle><width>2</width></LineStyle></Style>
    <Point>
      <extrude>1</extrude>
      <tesselate>0</tesselate>
      <altitudeMode>relativeToGround</altitudeMode>
      <coordinates>7.79065, 47.1457,20</coordinates>
    </Point>
  </Placemark><Placemark>
    <name>Altbüron, Feld</name>
    <Style><LineStyle><width>2</width></LineStyle></Style>
    <Point>
      <extrude>1</extrude>
      <tesselate>0</tesselate>
      <altitudeMode>relativeToGround</altitudeMode>
      <coordinates>7.87173, 47.1871,20</coordinates>
    </Point>
  </Placemark><Placemark>
    <name>Altbüron, Halde</name>
    <Style><LineStyle><width>2</width></LineStyle></Style>
    <Point>
      <extrude>1</extrude>
      <tesselate>0</tesselate>
      <altitudeMode>relativeToGround</altitudeMode>
      <coordinates>7.87534, 47.1841,20</coordinates>
    </Point>
  </Placemark><Placemark>
    <name>Fischbach LU, Reiferswil</name>
    <Style><LineStyle><width>2</width></LineStyle></Style>
    <Point>
      <extrude>1</extrude>
      <tesselate>0</tesselate>
      <altitudeMode>relativeToGround</altitudeMode>
      <coordinates>7.90153, 47.1615,20</coordinates>
    </Point>
  </Placemark><Placemark>
    <name>Fischbach LU, Krone</name>
    <Style><LineStyle><width>2</width></LineStyle></Style>
    <Point>
      <extrude>1</extrude>
      <tesselate>0</tesselate>
      <altitudeMode>relativeToGround</altitudeMode>
      <coordinates>7.90676, 47.157,20</coordinates>
    </Point>
  </Placemark><Placemark>
    <name>Fischbach LU, alte Post</name>
    <Style><LineStyle><width>2</width></LineStyle></Style>
    <Point>
      <extrude>1</extrude>
      <tesselate>0</tesselate>
      <altitudeMode>relativeToGround</altitudeMode>
      <coordinates>7.90806, 47.1543,20</coordinates>
    </Point>
  </Placemark><Placemark>
    <name>Fischbach LU, Leimbütz</name>
    <Style><LineStyle><width>2</width></LineStyle></Style>
    <Point>
      <extrude>1</extrude>
      <tesselate>0</tesselate>
      <altitudeMode>relativeToGround</altitudeMode>
      <coordinates>7.91065, 47.1489,20</coordinates>
    </Point>
  </Placemark><Placemark>
    <name>Altbüron, Post</name>
    <Style><LineStyle><width>2</width></LineStyle></Style>
    <Point>
      <extrude>1</extrude>
      <tesselate>0</tesselate>
      <altitudeMode>relativeToGround</altitudeMode>
      <coordinates>7.8796, 47.181,20</coordinates>
    </Point>
  </Placemark><Placemark>
    <name>Grossdietwil, Sandgruebe</name>
    <Style><LineStyle><width>2</width></LineStyle></Style>
    <Point>
      <extrude>1</extrude>
      <tesselate>0</tesselate>
      <altitudeMode>relativeToGround</altitudeMode>
      <coordinates>7.88316, 47.1733,20</coordinates>
    </Point>
  </Placemark><Placemark>
    <name>Grossdietwil, Post</name>
    <Style><LineStyle><width>2</width></LineStyle></Style>
    <Point>
      <extrude>1</extrude>
      <tesselate>0</tesselate>
      <altitudeMode>relativeToGround</altitudeMode>
      <coordinates>7.88578, 47.1706,20</coordinates>
    </Point>
  </Placemark><Placemark>
    <name>Luthern Dorf, Wieden</name>
    <Style><LineStyle><width>2</width></LineStyle></Style>
    <Point>
      <extrude>1</extrude>
      <tesselate>0</tesselate>
      <altitudeMode>relativeToGround</altitudeMode>
      <coordinates>7.91783, 47.067,20</coordinates>
    </Point>
  </Placemark><Placemark>
    <name>Herzogenbuchsee, Sonnenplatz</name>
    <Style><LineStyle><width>2</width></LineStyle></Style>
    <Point>
      <extrude>1</extrude>
      <tesselate>0</tesselate>
      <altitudeMode>relativeToGround</altitudeMode>
      <coordinates>7.70516, 47.1882,20</coordinates>
    </Point>
  </Placemark><Placemark>
    <name>Wyssachen, Abzw. Roggengrat</name>
    <Style><LineStyle><width>2</width></LineStyle></Style>
    <Point>
      <extrude>1</extrude>
      <tesselate>0</tesselate>
      <altitudeMode>relativeToGround</altitudeMode>
      <coordinates>7.82967, 47.0737,20</coordinates>
    </Point>
  </Placemark><Placemark>
    <name>Hermiswil, Brücke</name>
    <Style><LineStyle><width>2</width></LineStyle></Style>
    <Point>
      <extrude>1</extrude>
      <tesselate>0</tesselate>
      <altitudeMode>relativeToGround</altitudeMode>
      <coordinates>7.69575, 47.1514,20</coordinates>
    </Point>
  </Placemark><Placemark>
    <name>Melchnau, Unterdorf</name>
    <Style><LineStyle><width>2</width></LineStyle></Style>
    <Point>
      <extrude>1</extrude>
      <tesselate>0</tesselate>
      <altitudeMode>relativeToGround</altitudeMode>
      <coordinates>7.84859, 47.187,20</coordinates>
    </Point>
  </Placemark><Placemark>
    <name>Melchnau, Oberdorf</name>
    <Style><LineStyle><width>2</width></LineStyle></Style>
    <Point>
      <extrude>1</extrude>
      <tesselate>0</tesselate>
      <altitudeMode>relativeToGround</altitudeMode>
      <coordinates>7.85418, 47.1779,20</coordinates>
    </Point>
  </Placemark><Placemark>
    <name>Huttwil, Stadt</name>
    <Style><LineStyle><width>2</width></LineStyle></Style>
    <Point>
      <extrude>1</extrude>
      <tesselate>0</tesselate>
      <altitudeMode>relativeToGround</altitudeMode>
      <coordinates>7.84841, 47.1132,20</coordinates>
    </Point>
  </Placemark><Placemark>
    <name>Oberönz, Kreuz</name>
    <Style><LineStyle><width>2</width></LineStyle></Style>
    <Point>
      <extrude>1</extrude>
      <tesselate>0</tesselate>
      <altitudeMode>relativeToGround</altitudeMode>
      <coordinates>7.69456, 47.1793,20</coordinates>
    </Point>
  </Placemark><Placemark>
    <name>Etziken, Dorf</name>
    <Style><LineStyle><width>2</width></LineStyle></Style>
    <Point>
      <extrude>1</extrude>
      <tesselate>0</tesselate>
      <altitudeMode>relativeToGround</altitudeMode>
      <coordinates>7.64447, 47.1875,20</coordinates>
    </Point>
  </Placemark><Placemark>
    <name>Gondiswil</name>
    <Style><LineStyle><width>2</width></LineStyle></Style>
    <Point>
      <extrude>1</extrude>
      <tesselate>0</tesselate>
      <altitudeMode>relativeToGround</altitudeMode>
      <coordinates>7.88383, 47.128,20</coordinates>
    </Point>
  </Placemark><Placemark>
    <name>Hüswil</name>
    <Style><LineStyle><width>2</width></LineStyle></Style>
    <Point>
      <extrude>1</extrude>
      <tesselate>0</tesselate>
      <altitudeMode>relativeToGround</altitudeMode>
      <coordinates>7.90572, 47.1286,20</coordinates>
    </Point>
  </Placemark><Placemark>
    <name>Dürrenroth</name>
    <Style><LineStyle><width>2</width></LineStyle></Style>
    <Point>
      <extrude>1</extrude>
      <tesselate>0</tesselate>
      <altitudeMode>relativeToGround</altitudeMode>
      <coordinates>7.79261, 47.0912,20</coordinates>
    </Point>
  </Placemark><Placemark>
    <name>Häusernmoos</name>
    <Style><LineStyle><width>2</width></LineStyle></Style>
    <Point>
      <extrude>1</extrude>
      <tesselate>0</tesselate>
      <altitudeMode>relativeToGround</altitudeMode>
      <coordinates>7.74985, 47.0784,20</coordinates>
    </Point>
  </Placemark><Placemark>
    <name>Affoltern-Weier</name>
    <Style><LineStyle><width>2</width></LineStyle></Style>
    <Point>
      <extrude>1</extrude>
      <tesselate>0</tesselate>
      <altitudeMode>relativeToGround</altitudeMode>
      <coordinates>7.74996, 47.0621,20</coordinates>
    </Point>
  </Placemark><Placemark>
    <name>Bettenhausen, Post</name>
    <Style><LineStyle><width>2</width></LineStyle></Style>
    <Point>
      <extrude>1</extrude>
      <tesselate>0</tesselate>
      <altitudeMode>relativeToGround</altitudeMode>
      <coordinates>7.71168, 47.1729,20</coordinates>
    </Point>
  </Placemark><Placemark>
    <name>Huttwil, Bahnhof</name>
    <Style><LineStyle><width>2</width></LineStyle></Style>
    <Point>
      <extrude>1</extrude>
      <tesselate>0</tesselate>
      <altitudeMode>relativeToGround</altitudeMode>
      <coordinates>7.84183, 47.1141,20</coordinates>
    </Point>
  </Placemark></Document>
</kml>
