<kml>
<Document>

<Region>
<LatLonAltBox>
<north>47.061475</north><south>46.928988</south><east>7.315433</east><west>7.010890</west>
<minAltitude>0.000000</minAltitude><maxAltitude>0.000000</maxAltitude>
</LatLonAltBox>
<minLodPixels>2048</minLodPixels><maxLodPixels>1000000000</maxLodPixels>
<minFadeExtent>0</minFadeExtent><maxFadeExtent>0</maxFadeExtent>
</Region>
<NetworkLink>
<name>003200</name>

<Region>
<LatLonAltBox>
<north>47.061475</north><south>46.995231</south><east>7.163161</east><west>7.010890</west>
<minAltitude>0.000000</minAltitude><maxAltitude>0.000000</maxAltitude>
</LatLonAltBox>
<minLodPixels>256</minLodPixels><maxLodPixels>1000000000</maxLodPixels>
<minFadeExtent>0</minFadeExtent><maxFadeExtent>0</maxFadeExtent>
</Region>
<Link>
<href>003200.kml</href><viewRefreshMode>onRegion</viewRefreshMode></Link>
</NetworkLink>
<NetworkLink>
<name>003201</name>

<Region>
<LatLonAltBox>
<north>47.061475</north><south>46.995231</south><east>7.315433</east><west>7.163161</west>
<minAltitude>0.000000</minAltitude><maxAltitude>0.000000</maxAltitude>
</LatLonAltBox>
<minLodPixels>256</minLodPixels><maxLodPixels>1000000000</maxLodPixels>
<minFadeExtent>0</minFadeExtent><maxFadeExtent>0</maxFadeExtent>
</Region>
<Link>
<href>003201.kml</href><viewRefreshMode>onRegion</viewRefreshMode></Link>
</NetworkLink>
<NetworkLink>
<name>003202</name>

<Region>
<LatLonAltBox>
<north>46.995231</north><south>46.928988</south><east>7.163161</east><west>7.010890</west>
<minAltitude>0.000000</minAltitude><maxAltitude>0.000000</maxAltitude>
</LatLonAltBox>
<minLodPixels>256</minLodPixels><maxLodPixels>1000000000</maxLodPixels>
<minFadeExtent>0</minFadeExtent><maxFadeExtent>0</maxFadeExtent>
</Region>
<Link>
<href>003202.kml</href><viewRefreshMode>onRegion</viewRefreshMode></Link>
</NetworkLink>
<NetworkLink>
<name>003203</name>

<Region>
<LatLonAltBox>
<north>46.995231</north><south>46.928988</south><east>7.315433</east><west>7.163161</west>
<minAltitude>0.000000</minAltitude><maxAltitude>0.000000</maxAltitude>
</LatLonAltBox>
<minLodPixels>256</minLodPixels><maxLodPixels>1000000000</maxLodPixels>
<minFadeExtent>0</minFadeExtent><maxFadeExtent>0</maxFadeExtent>
</Region>
<Link>
<href>003203.kml</href><viewRefreshMode>onRegion</viewRefreshMode></Link>
</NetworkLink>
<Placemark>
    <name>Lüscherz, Bahnhof</name>
    <Style><LineStyle><width>2</width></LineStyle></Style>
    <Point>
      <extrude>1</extrude>
      <tesselate>0</tesselate>
      <altitudeMode>relativeToGround</altitudeMode>
      <coordinates>7.17676, 47.0479,20</coordinates>
    </Point>
  </Placemark><Placemark>
    <name>Allenlüften, Dorf</name>
    <Style><LineStyle><width>2</width></LineStyle></Style>
    <Point>
      <extrude>1</extrude>
      <tesselate>0</tesselate>
      <altitudeMode>relativeToGround</altitudeMode>
      <coordinates>7.27248, 46.946,20</coordinates>
    </Point>
  </Placemark><Placemark>
    <name>Mauss</name>
    <Style><LineStyle><width>2</width></LineStyle></Style>
    <Point>
      <extrude>1</extrude>
      <tesselate>0</tesselate>
      <altitudeMode>relativeToGround</altitudeMode>
      <coordinates>7.25871, 46.9401,20</coordinates>
    </Point>
  </Placemark><Placemark>
    <name>Seedorf BE, Aspi</name>
    <Style><LineStyle><width>2</width></LineStyle></Style>
    <Point>
      <extrude>1</extrude>
      <tesselate>0</tesselate>
      <altitudeMode>relativeToGround</altitudeMode>
      <coordinates>7.3018, 47.0401,20</coordinates>
    </Point>
  </Placemark><Placemark>
    <name>Seedorf BE, Schulhaus</name>
    <Style><LineStyle><width>2</width></LineStyle></Style>
    <Point>
      <extrude>1</extrude>
      <tesselate>0</tesselate>
      <altitudeMode>relativeToGround</altitudeMode>
      <coordinates>7.30707, 47.0365,20</coordinates>
    </Point>
  </Placemark><Placemark>
    <name>La Tène</name>
    <Style><LineStyle><width>2</width></LineStyle></Style>
    <Point>
      <extrude>1</extrude>
      <tesselate>0</tesselate>
      <altitudeMode>relativeToGround</altitudeMode>
      <coordinates>7.02304, 47.0048,20</coordinates>
    </Point>
  </Placemark><Placemark>
    <name>Le Landeron LNM</name>
    <Style><LineStyle><width>2</width></LineStyle></Style>
    <Point>
      <extrude>1</extrude>
      <tesselate>0</tesselate>
      <altitudeMode>relativeToGround</altitudeMode>
      <coordinates>7.07391, 47.0501,20</coordinates>
    </Point>
  </Placemark><Placemark>
    <name>Kerzers, Reservoirweg</name>
    <Style><LineStyle><width>2</width></LineStyle></Style>
    <Point>
      <extrude>1</extrude>
      <tesselate>0</tesselate>
      <altitudeMode>relativeToGround</altitudeMode>
      <coordinates>7.21129, 46.9742,20</coordinates>
    </Point>
  </Placemark><Placemark>
    <name>Kerzers, Schwimmbad</name>
    <Style><LineStyle><width>2</width></LineStyle></Style>
    <Point>
      <extrude>1</extrude>
      <tesselate>0</tesselate>
      <altitudeMode>relativeToGround</altitudeMode>
      <coordinates>7.21443, 46.9741,20</coordinates>
    </Point>
  </Placemark><Placemark>
    <name>Kerzers, Spittelgässli</name>
    <Style><LineStyle><width>2</width></LineStyle></Style>
    <Point>
      <extrude>1</extrude>
      <tesselate>0</tesselate>
      <altitudeMode>relativeToGround</altitudeMode>
      <coordinates>7.20709, 46.9728,20</coordinates>
    </Point>
  </Placemark><Placemark>
    <name>Kerzers, Alte Oele</name>
    <Style><LineStyle><width>2</width></LineStyle></Style>
    <Point>
      <extrude>1</extrude>
      <tesselate>0</tesselate>
      <altitudeMode>relativeToGround</altitudeMode>
      <coordinates>7.20613, 46.9727,20</coordinates>
    </Point>
  </Placemark><Placemark>
    <name>Môtier (Vully), village</name>
    <Style><LineStyle><width>2</width></LineStyle></Style>
    <Point>
      <extrude>1</extrude>
      <tesselate>0</tesselate>
      <altitudeMode>relativeToGround</altitudeMode>
      <coordinates>7.08693, 46.9492,20</coordinates>
    </Point>
  </Placemark><Placemark>
    <name>Lugnorre, poste</name>
    <Style><LineStyle><width>2</width></LineStyle></Style>
    <Point>
      <extrude>1</extrude>
      <tesselate>0</tesselate>
      <altitudeMode>relativeToGround</altitudeMode>
      <coordinates>7.06886, 46.9498,20</coordinates>
    </Point>
  </Placemark><Placemark>
    <name>Ried b. Kerzers, Post</name>
    <Style><LineStyle><width>2</width></LineStyle></Style>
    <Point>
      <extrude>1</extrude>
      <tesselate>0</tesselate>
      <altitudeMode>relativeToGround</altitudeMode>
      <coordinates>7.18641, 46.9535,20</coordinates>
    </Point>
  </Placemark><Placemark>
    <name>Sugiez</name>
    <Style><LineStyle><width>2</width></LineStyle></Style>
    <Point>
      <extrude>1</extrude>
      <tesselate>0</tesselate>
      <altitudeMode>relativeToGround</altitudeMode>
      <coordinates>7.11968, 46.964,20</coordinates>
    </Point>
  </Placemark><Placemark>
    <name>Siselen BE</name>
    <Style><LineStyle><width>2</width></LineStyle></Style>
    <Point>
      <extrude>1</extrude>
      <tesselate>0</tesselate>
      <altitudeMode>relativeToGround</altitudeMode>
      <coordinates>7.18235, 47.0322,20</coordinates>
    </Point>
  </Placemark><Placemark>
    <name>Brüttelen</name>
    <Style><LineStyle><width>2</width></LineStyle></Style>
    <Point>
      <extrude>1</extrude>
      <tesselate>0</tesselate>
      <altitudeMode>relativeToGround</altitudeMode>
      <coordinates>7.1483, 47.0206,20</coordinates>
    </Point>
  </Placemark><Placemark>
    <name>La Neuveville BSG</name>
    <Style><LineStyle><width>2</width></LineStyle></Style>
    <Point>
      <extrude>1</extrude>
      <tesselate>0</tesselate>
      <altitudeMode>relativeToGround</altitudeMode>
      <coordinates>7.09358, 47.0614,20</coordinates>
    </Point>
  </Placemark><Placemark>
    <name>Erlach</name>
    <Style><LineStyle><width>2</width></LineStyle></Style>
    <Point>
      <extrude>1</extrude>
      <tesselate>0</tesselate>
      <altitudeMode>relativeToGround</altitudeMode>
      <coordinates>7.09743, 47.0493,20</coordinates>
    </Point>
  </Placemark><Placemark>
    <name>Montet (Vully)</name>
    <Style><LineStyle><width>2</width></LineStyle></Style>
    <Point>
      <extrude>1</extrude>
      <tesselate>0</tesselate>
      <altitudeMode>relativeToGround</altitudeMode>
      <coordinates>7.02914, 46.9481,20</coordinates>
    </Point>
  </Placemark><Placemark>
    <name>Cudrefin, Vers-chez-Jacot</name>
    <Style><LineStyle><width>2</width></LineStyle></Style>
    <Point>
      <extrude>1</extrude>
      <tesselate>0</tesselate>
      <altitudeMode>relativeToGround</altitudeMode>
      <coordinates>7.02286, 46.953,20</coordinates>
    </Point>
  </Placemark><Placemark>
    <name>Ins, West</name>
    <Style><LineStyle><width>2</width></LineStyle></Style>
    <Point>
      <extrude>1</extrude>
      <tesselate>0</tesselate>
      <altitudeMode>relativeToGround</altitudeMode>
      <coordinates>7.0961, 47.0053,20</coordinates>
    </Point>
  </Placemark><Placemark>
    <name>Murzelen, Sandbühl</name>
    <Style><LineStyle><width>2</width></LineStyle></Style>
    <Point>
      <extrude>1</extrude>
      <tesselate>0</tesselate>
      <altitudeMode>relativeToGround</altitudeMode>
      <coordinates>7.31114, 46.9852,20</coordinates>
    </Point>
  </Placemark><Placemark>
    <name>Aarberg, Aarezelg</name>
    <Style><LineStyle><width>2</width></LineStyle></Style>
    <Point>
      <extrude>1</extrude>
      <tesselate>0</tesselate>
      <altitudeMode>relativeToGround</altitudeMode>
      <coordinates>7.27216, 47.049,20</coordinates>
    </Point>
  </Placemark><Placemark>
    <name>Trois-Lacs (camping)</name>
    <Style><LineStyle><width>2</width></LineStyle></Style>
    <Point>
      <extrude>1</extrude>
      <tesselate>0</tesselate>
      <altitudeMode>relativeToGround</altitudeMode>
      <coordinates>7.09328, 46.9756,20</coordinates>
    </Point>
  </Placemark><Placemark>
    <name>Rosshäusern, Bahnhof</name>
    <Style><LineStyle><width>2</width></LineStyle></Style>
    <Point>
      <extrude>1</extrude>
      <tesselate>0</tesselate>
      <altitudeMode>relativeToGround</altitudeMode>
      <coordinates>7.29707, 46.9344,20</coordinates>
    </Point>
  </Placemark><Placemark>
    <name>Tschugg, Klinik</name>
    <Style><LineStyle><width>2</width></LineStyle></Style>
    <Point>
      <extrude>1</extrude>
      <tesselate>0</tesselate>
      <altitudeMode>relativeToGround</altitudeMode>
      <coordinates>7.07682, 47.036,20</coordinates>
    </Point>
  </Placemark><Placemark>
    <name>Erlach, Sekundarschule</name>
    <Style><LineStyle><width>2</width></LineStyle></Style>
    <Point>
      <extrude>1</extrude>
      <tesselate>0</tesselate>
      <altitudeMode>relativeToGround</altitudeMode>
      <coordinates>7.09982, 47.0396,20</coordinates>
    </Point>
  </Placemark><Placemark>
    <name>Kerzers, Mühlegasse</name>
    <Style><LineStyle><width>2</width></LineStyle></Style>
    <Point>
      <extrude>1</extrude>
      <tesselate>0</tesselate>
      <altitudeMode>relativeToGround</altitudeMode>
      <coordinates>7.1929, 46.9715,20</coordinates>
    </Point>
  </Placemark><Placemark>
    <name>Ulmiz FR, Post</name>
    <Style><LineStyle><width>2</width></LineStyle></Style>
    <Point>
      <extrude>1</extrude>
      <tesselate>0</tesselate>
      <altitudeMode>relativeToGround</altitudeMode>
      <coordinates>7.20096, 46.931,20</coordinates>
    </Point>
  </Placemark><Placemark>
    <name>Aarberg, Nidaustrasse</name>
    <Style><LineStyle><width>2</width></LineStyle></Style>
    <Point>
      <extrude>1</extrude>
      <tesselate>0</tesselate>
      <altitudeMode>relativeToGround</altitudeMode>
      <coordinates>7.2701, 47.0478,20</coordinates>
    </Point>
  </Placemark><Placemark>
    <name>Nant, croisée</name>
    <Style><LineStyle><width>2</width></LineStyle></Style>
    <Point>
      <extrude>1</extrude>
      <tesselate>0</tesselate>
      <altitudeMode>relativeToGround</altitudeMode>
      <coordinates>7.10691, 46.9569,20</coordinates>
    </Point>
  </Placemark><Placemark>
    <name>Sugiez, gare</name>
    <Style><LineStyle><width>2</width></LineStyle></Style>
    <Point>
      <extrude>1</extrude>
      <tesselate>0</tesselate>
      <altitudeMode>relativeToGround</altitudeMode>
      <coordinates>7.11935, 46.9641,20</coordinates>
    </Point>
  </Placemark><Placemark>
    <name>Cudrefin, place de la Tour</name>
    <Style><LineStyle><width>2</width></LineStyle></Style>
    <Point>
      <extrude>1</extrude>
      <tesselate>0</tesselate>
      <altitudeMode>relativeToGround</altitudeMode>
      <coordinates>7.01958, 46.953,20</coordinates>
    </Point>
  </Placemark><Placemark>
    <name>Aarberg, Post/Bahnhof</name>
    <Style><LineStyle><width>2</width></LineStyle></Style>
    <Point>
      <extrude>1</extrude>
      <tesselate>0</tesselate>
      <altitudeMode>relativeToGround</altitudeMode>
      <coordinates>7.2781, 47.0443,20</coordinates>
    </Point>
  </Placemark><Placemark>
    <name>Aarberg, Murtenstrasse</name>
    <Style><LineStyle><width>2</width></LineStyle></Style>
    <Point>
      <extrude>1</extrude>
      <tesselate>0</tesselate>
      <altitudeMode>relativeToGround</altitudeMode>
      <coordinates>7.27382, 47.0434,20</coordinates>
    </Point>
  </Placemark><Placemark>
    <name>Brünnemoos b. Rosshäusern</name>
    <Style><LineStyle><width>2</width></LineStyle></Style>
    <Point>
      <extrude>1</extrude>
      <tesselate>0</tesselate>
      <altitudeMode>relativeToGround</altitudeMode>
      <coordinates>7.28619, 46.9325,20</coordinates>
    </Point>
  </Placemark><Placemark>
    <name>Kerzers, Bahnhof</name>
    <Style><LineStyle><width>2</width></LineStyle></Style>
    <Point>
      <extrude>1</extrude>
      <tesselate>0</tesselate>
      <altitudeMode>relativeToGround</altitudeMode>
      <coordinates>7.19289, 46.9742,20</coordinates>
    </Point>
  </Placemark><Placemark>
    <name>Murten, Bernstrasse</name>
    <Style><LineStyle><width>2</width></LineStyle></Style>
    <Point>
      <extrude>1</extrude>
      <tesselate>0</tesselate>
      <altitudeMode>relativeToGround</altitudeMode>
      <coordinates>7.12229, 46.9301,20</coordinates>
    </Point>
  </Placemark><Placemark>
    <name>Muntelier, Schloss</name>
    <Style><LineStyle><width>2</width></LineStyle></Style>
    <Point>
      <extrude>1</extrude>
      <tesselate>0</tesselate>
      <altitudeMode>relativeToGround</altitudeMode>
      <coordinates>7.1243, 46.9357,20</coordinates>
    </Point>
  </Placemark><Placemark>
    <name>Gempenach, Schoren</name>
    <Style><LineStyle><width>2</width></LineStyle></Style>
    <Point>
      <extrude>1</extrude>
      <tesselate>0</tesselate>
      <altitudeMode>relativeToGround</altitudeMode>
      <coordinates>7.19434, 46.9427,20</coordinates>
    </Point>
  </Placemark><Placemark>
    <name>Guévaux, croisée</name>
    <Style><LineStyle><width>2</width></LineStyle></Style>
    <Point>
      <extrude>1</extrude>
      <tesselate>0</tesselate>
      <altitudeMode>relativeToGround</altitudeMode>
      <coordinates>7.05778, 46.9388,20</coordinates>
    </Point>
  </Placemark><Placemark>
    <name>Lugnorre, collège</name>
    <Style><LineStyle><width>2</width></LineStyle></Style>
    <Point>
      <extrude>1</extrude>
      <tesselate>0</tesselate>
      <altitudeMode>relativeToGround</altitudeMode>
      <coordinates>7.07379, 46.9496,20</coordinates>
    </Point>
  </Placemark><Placemark>
    <name>Le Landeron, Vieille-Ville</name>
    <Style><LineStyle><width>2</width></LineStyle></Style>
    <Point>
      <extrude>1</extrude>
      <tesselate>0</tesselate>
      <altitudeMode>relativeToGround</altitudeMode>
      <coordinates>7.06158, 47.0521,20</coordinates>
    </Point>
  </Placemark><Placemark>
    <name>Seedorf BE, Unterdorf</name>
    <Style><LineStyle><width>2</width></LineStyle></Style>
    <Point>
      <extrude>1</extrude>
      <tesselate>0</tesselate>
      <altitudeMode>relativeToGround</altitudeMode>
      <coordinates>7.30707, 47.0347,20</coordinates>
    </Point>
  </Placemark><Placemark>
    <name>Lobsigen, Post</name>
    <Style><LineStyle><width>2</width></LineStyle></Style>
    <Point>
      <extrude>1</extrude>
      <tesselate>0</tesselate>
      <altitudeMode>relativeToGround</altitudeMode>
      <coordinates>7.29394, 47.0266,20</coordinates>
    </Point>
  </Placemark><Placemark>
    <name>Cudrefin</name>
    <Style><LineStyle><width>2</width></LineStyle></Style>
    <Point>
      <extrude>1</extrude>
      <tesselate>0</tesselate>
      <altitudeMode>relativeToGround</altitudeMode>
      <coordinates>7.01417, 46.9592,20</coordinates>
    </Point>
  </Placemark><Placemark>
    <name>Thielle-Wavre</name>
    <Style><LineStyle><width>2</width></LineStyle></Style>
    <Point>
      <extrude>1</extrude>
      <tesselate>0</tesselate>
      <altitudeMode>relativeToGround</altitudeMode>
      <coordinates>7.03308, 47.0197,20</coordinates>
    </Point>
  </Placemark><Placemark>
    <name>Wileroltigen, Dorf</name>
    <Style><LineStyle><width>2</width></LineStyle></Style>
    <Point>
      <extrude>1</extrude>
      <tesselate>0</tesselate>
      <altitudeMode>relativeToGround</altitudeMode>
      <coordinates>7.23886, 46.9708,20</coordinates>
    </Point>
  </Placemark></Document>
</kml>
