<kml>
<Document>

<Region>
<LatLonAltBox>
<north>47.061475</north><south>46.995231</south><east>7.163161</east><west>7.010890</west>
<minAltitude>0.000000</minAltitude><maxAltitude>0.000000</maxAltitude>
</LatLonAltBox>
<minLodPixels>2048</minLodPixels><maxLodPixels>1000000000</maxLodPixels>
<minFadeExtent>0</minFadeExtent><maxFadeExtent>0</maxFadeExtent>
</Region>
<Placemark>
    <name>Vinelz, Strand</name>
    <Style><LineStyle><width>2</width></LineStyle></Style>
    <Point>
      <extrude>1</extrude>
      <tesselate>0</tesselate>
      <altitudeMode>relativeToGround</altitudeMode>
      <coordinates>7.1084, 47.0352,20</coordinates>
    </Point>
  </Placemark><Placemark>
    <name>Lüscherz, Post</name>
    <Style><LineStyle><width>2</width></LineStyle></Style>
    <Point>
      <extrude>1</extrude>
      <tesselate>0</tesselate>
      <altitudeMode>relativeToGround</altitudeMode>
      <coordinates>7.15046, 47.0443,20</coordinates>
    </Point>
  </Placemark><Placemark>
    <name>Ins, Dorf</name>
    <Style><LineStyle><width>2</width></LineStyle></Style>
    <Point>
      <extrude>1</extrude>
      <tesselate>0</tesselate>
      <altitudeMode>relativeToGround</altitudeMode>
      <coordinates>7.10333, 47.0055,20</coordinates>
    </Point>
  </Placemark><Placemark>
    <name>Erlach, Post</name>
    <Style><LineStyle><width>2</width></LineStyle></Style>
    <Point>
      <extrude>1</extrude>
      <tesselate>0</tesselate>
      <altitudeMode>relativeToGround</altitudeMode>
      <coordinates>7.09652, 47.0423,20</coordinates>
    </Point>
  </Placemark><Placemark>
    <name>Tschugg, Matte</name>
    <Style><LineStyle><width>2</width></LineStyle></Style>
    <Point>
      <extrude>1</extrude>
      <tesselate>0</tesselate>
      <altitudeMode>relativeToGround</altitudeMode>
      <coordinates>7.07297, 47.0225,20</coordinates>
    </Point>
  </Placemark><Placemark>
    <name>Mullen, Dorf</name>
    <Style><LineStyle><width>2</width></LineStyle></Style>
    <Point>
      <extrude>1</extrude>
      <tesselate>0</tesselate>
      <altitudeMode>relativeToGround</altitudeMode>
      <coordinates>7.08738, 47.0306,20</coordinates>
    </Point>
  </Placemark><Placemark>
    <name>Gals, Dorf</name>
    <Style><LineStyle><width>2</width></LineStyle></Style>
    <Point>
      <extrude>1</extrude>
      <tesselate>0</tesselate>
      <altitudeMode>relativeToGround</altitudeMode>
      <coordinates>7.04925, 47.0278,20</coordinates>
    </Point>
  </Placemark><Placemark>
    <name>Gals, Bethlehem</name>
    <Style><LineStyle><width>2</width></LineStyle></Style>
    <Point>
      <extrude>1</extrude>
      <tesselate>0</tesselate>
      <altitudeMode>relativeToGround</altitudeMode>
      <coordinates>7.04008, 47.0224,20</coordinates>
    </Point>
  </Placemark><Placemark>
    <name>Enges, poste</name>
    <Style><LineStyle><width>2</width></LineStyle></Style>
    <Point>
      <extrude>1</extrude>
      <tesselate>0</tesselate>
      <altitudeMode>relativeToGround</altitudeMode>
      <coordinates>7.01219, 47.0567,20</coordinates>
    </Point>
  </Placemark><Placemark>
    <name>Zihlbrücke</name>
    <Style><LineStyle><width>2</width></LineStyle></Style>
    <Point>
      <extrude>1</extrude>
      <tesselate>0</tesselate>
      <altitudeMode>relativeToGround</altitudeMode>
      <coordinates>7.03058, 47.0093,20</coordinates>
    </Point>
  </Placemark><Placemark>
    <name>Ins Dorf</name>
    <Style><LineStyle><width>2</width></LineStyle></Style>
    <Point>
      <extrude>1</extrude>
      <tesselate>0</tesselate>
      <altitudeMode>relativeToGround</altitudeMode>
      <coordinates>7.10681, 47.0056,20</coordinates>
    </Point>
  </Placemark><Placemark>
    <name>Lüscherz</name>
    <Style><LineStyle><width>2</width></LineStyle></Style>
    <Point>
      <extrude>1</extrude>
      <tesselate>0</tesselate>
      <altitudeMode>relativeToGround</altitudeMode>
      <coordinates>7.15096, 47.0479,20</coordinates>
    </Point>
  </Placemark><Placemark>
    <name>Lüscherz, Dorf</name>
    <Style><LineStyle><width>2</width></LineStyle></Style>
    <Point>
      <extrude>1</extrude>
      <tesselate>0</tesselate>
      <altitudeMode>relativeToGround</altitudeMode>
      <coordinates>7.15045, 47.0461,20</coordinates>
    </Point>
  </Placemark><Placemark>
    <name>Gals, Gemeindehaus</name>
    <Style><LineStyle><width>2</width></LineStyle></Style>
    <Point>
      <extrude>1</extrude>
      <tesselate>0</tesselate>
      <altitudeMode>relativeToGround</altitudeMode>
      <coordinates>7.04924, 47.0296,20</coordinates>
    </Point>
  </Placemark><Placemark>
    <name>Gals, Neuhaus</name>
    <Style><LineStyle><width>2</width></LineStyle></Style>
    <Point>
      <extrude>1</extrude>
      <tesselate>0</tesselate>
      <altitudeMode>relativeToGround</altitudeMode>
      <coordinates>7.07154, 47.0395,20</coordinates>
    </Point>
  </Placemark><Placemark>
    <name>Ins, Bahnhof</name>
    <Style><LineStyle><width>2</width></LineStyle></Style>
    <Point>
      <extrude>1</extrude>
      <tesselate>0</tesselate>
      <altitudeMode>relativeToGround</altitudeMode>
      <coordinates>7.09811, 46.9992,20</coordinates>
    </Point>
  </Placemark><Placemark>
    <name>Lüscherz BSG</name>
    <Style><LineStyle><width>2</width></LineStyle></Style>
    <Point>
      <extrude>1</extrude>
      <tesselate>0</tesselate>
      <altitudeMode>relativeToGround</altitudeMode>
      <coordinates>7.15059, 47.0491,20</coordinates>
    </Point>
  </Placemark><Placemark>
    <name>Vinelz, Post</name>
    <Style><LineStyle><width>2</width></LineStyle></Style>
    <Point>
      <extrude>1</extrude>
      <tesselate>0</tesselate>
      <altitudeMode>relativeToGround</altitudeMode>
      <coordinates>7.10974, 47.0316,20</coordinates>
    </Point>
  </Placemark><Placemark>
    <name>Tschugg, Post</name>
    <Style><LineStyle><width>2</width></LineStyle></Style>
    <Point>
      <extrude>1</extrude>
      <tesselate>0</tesselate>
      <altitudeMode>relativeToGround</altitudeMode>
      <coordinates>7.0769, 47.0252,20</coordinates>
    </Point>
  </Placemark><Placemark>
    <name>Gampelen</name>
    <Style><LineStyle><width>2</width></LineStyle></Style>
    <Point>
      <extrude>1</extrude>
      <tesselate>0</tesselate>
      <altitudeMode>relativeToGround</altitudeMode>
      <coordinates>7.05645, 47.0094,20</coordinates>
    </Point>
  </Placemark><Placemark>
    <name>Ins</name>
    <Style><LineStyle><width>2</width></LineStyle></Style>
    <Point>
      <extrude>1</extrude>
      <tesselate>0</tesselate>
      <altitudeMode>relativeToGround</altitudeMode>
      <coordinates>7.09956, 46.9998,20</coordinates>
    </Point>
  </Placemark><Placemark>
    <name>Cressier NE</name>
    <Style><LineStyle><width>2</width></LineStyle></Style>
    <Point>
      <extrude>1</extrude>
      <tesselate>0</tesselate>
      <altitudeMode>relativeToGround</altitudeMode>
      <coordinates>7.03954, 47.0519,20</coordinates>
    </Point>
  </Placemark><Placemark>
    <name>Le Landeron</name>
    <Style><LineStyle><width>2</width></LineStyle></Style>
    <Point>
      <extrude>1</extrude>
      <tesselate>0</tesselate>
      <altitudeMode>relativeToGround</altitudeMode>
      <coordinates>7.06634, 47.0566,20</coordinates>
    </Point>
  </Placemark><Placemark>
    <name>Cornaux</name>
    <Style><LineStyle><width>2</width></LineStyle></Style>
    <Point>
      <extrude>1</extrude>
      <tesselate>0</tesselate>
      <altitudeMode>relativeToGround</altitudeMode>
      <coordinates>7.02337, 47.0386,20</coordinates>
    </Point>
  </Placemark><Placemark>
    <name>Le Landeron, gare</name>
    <Style><LineStyle><width>2</width></LineStyle></Style>
    <Point>
      <extrude>1</extrude>
      <tesselate>0</tesselate>
      <altitudeMode>relativeToGround</altitudeMode>
      <coordinates>7.06648, 47.0564,20</coordinates>
    </Point>
  </Placemark><Placemark>
    <name>Erlach, Gostel</name>
    <Style><LineStyle><width>2</width></LineStyle></Style>
    <Point>
      <extrude>1</extrude>
      <tesselate>0</tesselate>
      <altitudeMode>relativeToGround</altitudeMode>
      <coordinates>7.09522, 47.0387,20</coordinates>
    </Point>
  </Placemark><Placemark>
    <name>Vinelz, Flachsern</name>
    <Style><LineStyle><width>2</width></LineStyle></Style>
    <Point>
      <extrude>1</extrude>
      <tesselate>0</tesselate>
      <altitudeMode>relativeToGround</altitudeMode>
      <coordinates>7.10713, 47.0289,20</coordinates>
    </Point>
  </Placemark><Placemark>
    <name>Ins, Brennerei</name>
    <Style><LineStyle><width>2</width></LineStyle></Style>
    <Point>
      <extrude>1</extrude>
      <tesselate>0</tesselate>
      <altitudeMode>relativeToGround</altitudeMode>
      <coordinates>7.0862, 47.0099,20</coordinates>
    </Point>
  </Placemark></Document>
</kml>
