<kml>
<Document>

<Region>
<LatLonAltBox>
<north>46.995231</north><south>46.962109</south><east>7.467704</east><west>7.391568</west>
<minAltitude>0.000000</minAltitude><maxAltitude>0.000000</maxAltitude>
</LatLonAltBox>
<minLodPixels>2048</minLodPixels><maxLodPixels>1000000000</maxLodPixels>
<minFadeExtent>0</minFadeExtent><maxFadeExtent>0</maxFadeExtent>
</Region>
<Placemark>
    <name>Bern, Wyler</name>
    <Style><LineStyle><width>2</width></LineStyle></Style>
    <Point>
      <extrude>1</extrude>
      <tesselate>0</tesselate>
      <altitudeMode>relativeToGround</altitudeMode>
      <coordinates>7.46368, 46.9653,20</coordinates>
    </Point>
  </Placemark><Placemark>
    <name>Ausserortschwaben</name>
    <Style><LineStyle><width>2</width></LineStyle></Style>
    <Point>
      <extrude>1</extrude>
      <tesselate>0</tesselate>
      <altitudeMode>relativeToGround</altitudeMode>
      <coordinates>7.40906, 46.9875,20</coordinates>
    </Point>
  </Placemark><Placemark>
    <name>Ortschwaben, Gehracher</name>
    <Style><LineStyle><width>2</width></LineStyle></Style>
    <Point>
      <extrude>1</extrude>
      <tesselate>0</tesselate>
      <altitudeMode>relativeToGround</altitudeMode>
      <coordinates>7.40446, 46.9952,20</coordinates>
    </Point>
  </Placemark><Placemark>
    <name>Herrenschwanden, Mööslimatt</name>
    <Style><LineStyle><width>2</width></LineStyle></Style>
    <Point>
      <extrude>1</extrude>
      <tesselate>0</tesselate>
      <altitudeMode>relativeToGround</altitudeMode>
      <coordinates>7.42155, 46.9745,20</coordinates>
    </Point>
  </Placemark><Placemark>
    <name>Bern, Breitfeld</name>
    <Style><LineStyle><width>2</width></LineStyle></Style>
    <Point>
      <extrude>1</extrude>
      <tesselate>0</tesselate>
      <altitudeMode>relativeToGround</altitudeMode>
      <coordinates>7.45221, 46.9626,20</coordinates>
    </Point>
  </Placemark><Placemark>
    <name>Bern, Morgartenstrasse</name>
    <Style><LineStyle><width>2</width></LineStyle></Style>
    <Point>
      <extrude>1</extrude>
      <tesselate>0</tesselate>
      <altitudeMode>relativeToGround</altitudeMode>
      <coordinates>7.45977, 46.9644,20</coordinates>
    </Point>
  </Placemark><Placemark>
    <name>Zollikofen, Betagtenheim</name>
    <Style><LineStyle><width>2</width></LineStyle></Style>
    <Point>
      <extrude>1</extrude>
      <tesselate>0</tesselate>
      <altitudeMode>relativeToGround</altitudeMode>
      <coordinates>7.45447, 46.9936,20</coordinates>
    </Point>
  </Placemark><Placemark>
    <name>Bremgarten BE, Ländli</name>
    <Style><LineStyle><width>2</width></LineStyle></Style>
    <Point>
      <extrude>1</extrude>
      <tesselate>0</tesselate>
      <altitudeMode>relativeToGround</altitudeMode>
      <coordinates>7.43338, 46.9728,20</coordinates>
    </Point>
  </Placemark><Placemark>
    <name>Ortschwaben, Schulhaus</name>
    <Style><LineStyle><width>2</width></LineStyle></Style>
    <Point>
      <extrude>1</extrude>
      <tesselate>0</tesselate>
      <altitudeMode>relativeToGround</altitudeMode>
      <coordinates>7.40183, 46.9943,20</coordinates>
    </Point>
  </Placemark><Placemark>
    <name>Bremgarten BE, Seftau</name>
    <Style><LineStyle><width>2</width></LineStyle></Style>
    <Point>
      <extrude>1</extrude>
      <tesselate>0</tesselate>
      <altitudeMode>relativeToGround</altitudeMode>
      <coordinates>7.43663, 46.9704,20</coordinates>
    </Point>
  </Placemark></Document>
</kml>
