<kml>
<Document>

<Region>
<LatLonAltBox>
<north>46.928988</north><south>46.895866</south><east>7.543839</east><west>7.467704</west>
<minAltitude>0.000000</minAltitude><maxAltitude>0.000000</maxAltitude>
</LatLonAltBox>
<minLodPixels>2048</minLodPixels><maxLodPixels>1000000000</maxLodPixels>
<minFadeExtent>0</minFadeExtent><maxFadeExtent>0</maxFadeExtent>
</Region>
<Placemark>
    <name>Kehrsatz, Bahnhof</name>
    <Style><LineStyle><width>2</width></LineStyle></Style>
    <Point>
      <extrude>1</extrude>
      <tesselate>0</tesselate>
      <altitudeMode>relativeToGround</altitudeMode>
      <coordinates>7.47276, 46.9088,20</coordinates>
    </Point>
  </Placemark><Placemark>
    <name>Kehrsatz, Rössli</name>
    <Style><LineStyle><width>2</width></LineStyle></Style>
    <Point>
      <extrude>1</extrude>
      <tesselate>0</tesselate>
      <altitudeMode>relativeToGround</altitudeMode>
      <coordinates>7.46787, 46.9153,20</coordinates>
    </Point>
  </Placemark><Placemark>
    <name>Allmendingen b. B, Hirschen</name>
    <Style><LineStyle><width>2</width></LineStyle></Style>
    <Point>
      <extrude>1</extrude>
      <tesselate>0</tesselate>
      <altitudeMode>relativeToGround</altitudeMode>
      <coordinates>7.5204, 46.9162,20</coordinates>
    </Point>
  </Placemark><Placemark>
    <name>Muri b. Bern, Hübeliweg</name>
    <Style><LineStyle><width>2</width></LineStyle></Style>
    <Point>
      <extrude>1</extrude>
      <tesselate>0</tesselate>
      <altitudeMode>relativeToGround</altitudeMode>
      <coordinates>7.49197, 46.9279,20</coordinates>
    </Point>
  </Placemark><Placemark>
    <name>Muri b. Bern, Waldried</name>
    <Style><LineStyle><width>2</width></LineStyle></Style>
    <Point>
      <extrude>1</extrude>
      <tesselate>0</tesselate>
      <altitudeMode>relativeToGround</altitudeMode>
      <coordinates>7.49571, 46.9271,20</coordinates>
    </Point>
  </Placemark><Placemark>
    <name>Belp, Muristrasse Süd</name>
    <Style><LineStyle><width>2</width></LineStyle></Style>
    <Point>
      <extrude>1</extrude>
      <tesselate>0</tesselate>
      <altitudeMode>relativeToGround</altitudeMode>
      <coordinates>7.5008, 46.8993,20</coordinates>
    </Point>
  </Placemark><Placemark>
    <name>Vielbringen, Schulhaus</name>
    <Style><LineStyle><width>2</width></LineStyle></Style>
    <Point>
      <extrude>1</extrude>
      <tesselate>0</tesselate>
      <altitudeMode>relativeToGround</altitudeMode>
      <coordinates>7.54056, 46.9216,20</coordinates>
    </Point>
  </Placemark></Document>
</kml>
