<kml>
<Document>

<Region>
<LatLonAltBox>
<north>46.995231</north><south>46.928988</south><east>7.467704</east><west>7.315433</west>
<minAltitude>0.000000</minAltitude><maxAltitude>0.000000</maxAltitude>
</LatLonAltBox>
<minLodPixels>2048</minLodPixels><maxLodPixels>1000000000</maxLodPixels>
<minFadeExtent>0</minFadeExtent><maxFadeExtent>0</maxFadeExtent>
</Region>
<NetworkLink>
<name>0032120</name>

<Region>
<LatLonAltBox>
<north>46.995231</north><south>46.962109</south><east>7.391568</east><west>7.315433</west>
<minAltitude>0.000000</minAltitude><maxAltitude>0.000000</maxAltitude>
</LatLonAltBox>
<minLodPixels>256</minLodPixels><maxLodPixels>1000000000</maxLodPixels>
<minFadeExtent>0</minFadeExtent><maxFadeExtent>0</maxFadeExtent>
</Region>
<Link>
<href>0032120.kml</href><viewRefreshMode>onRegion</viewRefreshMode></Link>
</NetworkLink>
<NetworkLink>
<name>0032121</name>

<Region>
<LatLonAltBox>
<north>46.995231</north><south>46.962109</south><east>7.467704</east><west>7.391568</west>
<minAltitude>0.000000</minAltitude><maxAltitude>0.000000</maxAltitude>
</LatLonAltBox>
<minLodPixels>256</minLodPixels><maxLodPixels>1000000000</maxLodPixels>
<minFadeExtent>0</minFadeExtent><maxFadeExtent>0</maxFadeExtent>
</Region>
<Link>
<href>0032121.kml</href><viewRefreshMode>onRegion</viewRefreshMode></Link>
</NetworkLink>
<NetworkLink>
<name>0032122</name>

<Region>
<LatLonAltBox>
<north>46.962109</north><south>46.928988</south><east>7.391568</east><west>7.315433</west>
<minAltitude>0.000000</minAltitude><maxAltitude>0.000000</maxAltitude>
</LatLonAltBox>
<minLodPixels>256</minLodPixels><maxLodPixels>1000000000</maxLodPixels>
<minFadeExtent>0</minFadeExtent><maxFadeExtent>0</maxFadeExtent>
</Region>
<Link>
<href>0032122.kml</href><viewRefreshMode>onRegion</viewRefreshMode></Link>
</NetworkLink>
<NetworkLink>
<name>0032123</name>

<Region>
<LatLonAltBox>
<north>46.962109</north><south>46.928988</south><east>7.467704</east><west>7.391568</west>
<minAltitude>0.000000</minAltitude><maxAltitude>0.000000</maxAltitude>
</LatLonAltBox>
<minLodPixels>256</minLodPixels><maxLodPixels>1000000000</maxLodPixels>
<minFadeExtent>0</minFadeExtent><maxFadeExtent>0</maxFadeExtent>
</Region>
<Link>
<href>0032123.kml</href><viewRefreshMode>onRegion</viewRefreshMode></Link>
</NetworkLink>
<Placemark>
    <name>Uettligen, Schüpfenried</name>
    <Style><LineStyle><width>2</width></LineStyle></Style>
    <Point>
      <extrude>1</extrude>
      <tesselate>0</tesselate>
      <altitudeMode>relativeToGround</altitudeMode>
      <coordinates>7.37327, 46.9889,20</coordinates>
    </Point>
  </Placemark><Placemark>
    <name>Uettligen, Dorf</name>
    <Style><LineStyle><width>2</width></LineStyle></Style>
    <Point>
      <extrude>1</extrude>
      <tesselate>0</tesselate>
      <altitudeMode>relativeToGround</altitudeMode>
      <coordinates>7.38767, 46.9878,20</coordinates>
    </Point>
  </Placemark><Placemark>
    <name>Säriswil, Birchi</name>
    <Style><LineStyle><width>2</width></LineStyle></Style>
    <Point>
      <extrude>1</extrude>
      <tesselate>0</tesselate>
      <altitudeMode>relativeToGround</altitudeMode>
      <coordinates>7.34907, 46.9949,20</coordinates>
    </Point>
  </Placemark><Placemark>
    <name>Möriswil, Abzw.</name>
    <Style><LineStyle><width>2</width></LineStyle></Style>
    <Point>
      <extrude>1</extrude>
      <tesselate>0</tesselate>
      <altitudeMode>relativeToGround</altitudeMode>
      <coordinates>7.35869, 46.9931,20</coordinates>
    </Point>
  </Placemark><Placemark>
    <name>Thalmatt</name>
    <Style><LineStyle><width>2</width></LineStyle></Style>
    <Point>
      <extrude>1</extrude>
      <tesselate>0</tesselate>
      <altitudeMode>relativeToGround</altitudeMode>
      <coordinates>7.41104, 46.9745,20</coordinates>
    </Point>
  </Placemark><Placemark>
    <name>Halenbrücke</name>
    <Style><LineStyle><width>2</width></LineStyle></Style>
    <Point>
      <extrude>1</extrude>
      <tesselate>0</tesselate>
      <altitudeMode>relativeToGround</altitudeMode>
      <coordinates>7.41761, 46.9727,20</coordinates>
    </Point>
  </Placemark><Placemark>
    <name>Oberdettigen</name>
    <Style><LineStyle><width>2</width></LineStyle></Style>
    <Point>
      <extrude>1</extrude>
      <tesselate>0</tesselate>
      <altitudeMode>relativeToGround</altitudeMode>
      <coordinates>7.39789, 46.9826,20</coordinates>
    </Point>
  </Placemark><Placemark>
    <name>Säriswil, Wendeplatz</name>
    <Style><LineStyle><width>2</width></LineStyle></Style>
    <Point>
      <extrude>1</extrude>
      <tesselate>0</tesselate>
      <altitudeMode>relativeToGround</altitudeMode>
      <coordinates>7.33217, 46.9914,20</coordinates>
    </Point>
  </Placemark><Placemark>
    <name>Säriswil, Schulhaus</name>
    <Style><LineStyle><width>2</width></LineStyle></Style>
    <Point>
      <extrude>1</extrude>
      <tesselate>0</tesselate>
      <altitudeMode>relativeToGround</altitudeMode>
      <coordinates>7.34267, 46.9933,20</coordinates>
    </Point>
  </Placemark><Placemark>
    <name>Bern Ausserholligen</name>
    <Style><LineStyle><width>2</width></LineStyle></Style>
    <Point>
      <extrude>1</extrude>
      <tesselate>0</tesselate>
      <altitudeMode>relativeToGround</altitudeMode>
      <coordinates>7.40612, 46.9442,20</coordinates>
    </Point>
  </Placemark><Placemark>
    <name>Bern Bümpliz Süd</name>
    <Style><LineStyle><width>2</width></LineStyle></Style>
    <Point>
      <extrude>1</extrude>
      <tesselate>0</tesselate>
      <altitudeMode>relativeToGround</altitudeMode>
      <coordinates>7.39523, 46.9375,20</coordinates>
    </Point>
  </Placemark><Placemark>
    <name>Kirchlindach, Heimenhaus</name>
    <Style><LineStyle><width>2</width></LineStyle></Style>
    <Point>
      <extrude>1</extrude>
      <tesselate>0</tesselate>
      <altitudeMode>relativeToGround</altitudeMode>
      <coordinates>7.41103, 46.9934,20</coordinates>
    </Point>
  </Placemark><Placemark>
    <name>Wohlen b. Bern, Schaufelacker</name>
    <Style><LineStyle><width>2</width></LineStyle></Style>
    <Point>
      <extrude>1</extrude>
      <tesselate>0</tesselate>
      <altitudeMode>relativeToGround</altitudeMode>
      <coordinates>7.36241, 46.9762,20</coordinates>
    </Point>
  </Placemark><Placemark>
    <name>Bern, Schanzenstrasse</name>
    <Style><LineStyle><width>2</width></LineStyle></Style>
    <Point>
      <extrude>1</extrude>
      <tesselate>0</tesselate>
      <altitudeMode>relativeToGround</altitudeMode>
      <coordinates>7.43722, 46.9477,20</coordinates>
    </Point>
  </Placemark><Placemark>
    <name>Unterzollikofen, Reichenbach</name>
    <Style><LineStyle><width>2</width></LineStyle></Style>
    <Point>
      <extrude>1</extrude>
      <tesselate>0</tesselate>
      <altitudeMode>relativeToGround</altitudeMode>
      <coordinates>7.44939, 46.992,20</coordinates>
    </Point>
  </Placemark><Placemark>
    <name>Niederbottigen, Chäs und Brot</name>
    <Style><LineStyle><width>2</width></LineStyle></Style>
    <Point>
      <extrude>1</extrude>
      <tesselate>0</tesselate>
      <altitudeMode>relativeToGround</altitudeMode>
      <coordinates>7.36116, 46.9363,20</coordinates>
    </Point>
  </Placemark><Placemark>
    <name>Wohlen b. Bern, Gemeindehaus</name>
    <Style><LineStyle><width>2</width></LineStyle></Style>
    <Point>
      <extrude>1</extrude>
      <tesselate>0</tesselate>
      <altitudeMode>relativeToGround</altitudeMode>
      <coordinates>7.35591, 46.9712,20</coordinates>
    </Point>
  </Placemark><Placemark>
    <name>Niederbottigen, Abzw.</name>
    <Style><LineStyle><width>2</width></LineStyle></Style>
    <Point>
      <extrude>1</extrude>
      <tesselate>0</tesselate>
      <altitudeMode>relativeToGround</altitudeMode>
      <coordinates>7.37166, 46.9376,20</coordinates>
    </Point>
  </Placemark><Placemark>
    <name>Liebefeld</name>
    <Style><LineStyle><width>2</width></LineStyle></Style>
    <Point>
      <extrude>1</extrude>
      <tesselate>0</tesselate>
      <altitudeMode>relativeToGround</altitudeMode>
      <coordinates>7.4192, 46.9303,20</coordinates>
    </Point>
  </Placemark><Placemark>
    <name>Bremgarten BE, Schloss</name>
    <Style><LineStyle><width>2</width></LineStyle></Style>
    <Point>
      <extrude>1</extrude>
      <tesselate>0</tesselate>
      <altitudeMode>relativeToGround</altitudeMode>
      <coordinates>7.44155, 46.9776,20</coordinates>
    </Point>
  </Placemark><Placemark>
    <name>Oberbottigen, Flühli</name>
    <Style><LineStyle><width>2</width></LineStyle></Style>
    <Point>
      <extrude>1</extrude>
      <tesselate>0</tesselate>
      <altitudeMode>relativeToGround</altitudeMode>
      <coordinates>7.34211, 46.9366,20</coordinates>
    </Point>
  </Placemark><Placemark>
    <name>Bern, Markuskirche</name>
    <Style><LineStyle><width>2</width></LineStyle></Style>
    <Point>
      <extrude>1</extrude>
      <tesselate>0</tesselate>
      <altitudeMode>relativeToGround</altitudeMode>
      <coordinates>7.45773, 46.9638,20</coordinates>
    </Point>
  </Placemark><Placemark>
    <name>Bern, Kasernenstrasse</name>
    <Style><LineStyle><width>2</width></LineStyle></Style>
    <Point>
      <extrude>1</extrude>
      <tesselate>0</tesselate>
      <altitudeMode>relativeToGround</altitudeMode>
      <coordinates>7.46009, 46.9549,20</coordinates>
    </Point>
  </Placemark><Placemark>
    <name>Bern, Guisanplatz/BEA EXPO</name>
    <Style><LineStyle><width>2</width></LineStyle></Style>
    <Point>
      <extrude>1</extrude>
      <tesselate>0</tesselate>
      <altitudeMode>relativeToGround</altitudeMode>
      <coordinates>7.46298, 46.9581,20</coordinates>
    </Point>
  </Placemark><Placemark>
    <name>Bremgarten BE, Oeschenweg</name>
    <Style><LineStyle><width>2</width></LineStyle></Style>
    <Point>
      <extrude>1</extrude>
      <tesselate>0</tesselate>
      <altitudeMode>relativeToGround</altitudeMode>
      <coordinates>7.43993, 46.9824,20</coordinates>
    </Point>
  </Placemark><Placemark>
    <name>Bern Zytglogge</name>
    <Style><LineStyle><width>2</width></LineStyle></Style>
    <Point>
      <extrude>1</extrude>
      <tesselate>0</tesselate>
      <altitudeMode>relativeToGround</altitudeMode>
      <coordinates>7.44796, 46.9472,20</coordinates>
    </Point>
  </Placemark><Placemark>
    <name>Uettligen, Schule</name>
    <Style><LineStyle><width>2</width></LineStyle></Style>
    <Point>
      <extrude>1</extrude>
      <tesselate>0</tesselate>
      <altitudeMode>relativeToGround</altitudeMode>
      <coordinates>7.38195, 46.9854,20</coordinates>
    </Point>
  </Placemark><Placemark>
    <name>Bethlehem b. Bern, Riedernrain</name>
    <Style><LineStyle><width>2</width></LineStyle></Style>
    <Point>
      <extrude>1</extrude>
      <tesselate>0</tesselate>
      <altitudeMode>relativeToGround</altitudeMode>
      <coordinates>7.36902, 46.9475,20</coordinates>
    </Point>
  </Placemark><Placemark>
    <name>Bern, Bärenplatz</name>
    <Style><LineStyle><width>2</width></LineStyle></Style>
    <Point>
      <extrude>1</extrude>
      <tesselate>0</tesselate>
      <altitudeMode>relativeToGround</altitudeMode>
      <coordinates>7.443, 46.9481,20</coordinates>
    </Point>
  </Placemark><Placemark>
    <name>Bern, Aegertenstrasse</name>
    <Style><LineStyle><width>2</width></LineStyle></Style>
    <Point>
      <extrude>1</extrude>
      <tesselate>0</tesselate>
      <altitudeMode>relativeToGround</altitudeMode>
      <coordinates>7.44807, 46.94,20</coordinates>
    </Point>
  </Placemark><Placemark>
    <name>Bethlehem b. Bern, Säge</name>
    <Style><LineStyle><width>2</width></LineStyle></Style>
    <Point>
      <extrude>1</extrude>
      <tesselate>0</tesselate>
      <altitudeMode>relativeToGround</altitudeMode>
      <coordinates>7.39402, 46.9474,20</coordinates>
    </Point>
  </Placemark><Placemark>
    <name>Bern, Bremgartenfriedhof</name>
    <Style><LineStyle><width>2</width></LineStyle></Style>
    <Point>
      <extrude>1</extrude>
      <tesselate>0</tesselate>
      <altitudeMode>relativeToGround</altitudeMode>
      <coordinates>7.42505, 46.9497,20</coordinates>
    </Point>
  </Placemark><Placemark>
    <name>Bremgarten BE, Friedhagweg</name>
    <Style><LineStyle><width>2</width></LineStyle></Style>
    <Point>
      <extrude>1</extrude>
      <tesselate>0</tesselate>
      <altitudeMode>relativeToGround</altitudeMode>
      <coordinates>7.44024, 46.9802,20</coordinates>
    </Point>
  </Placemark><Placemark>
    <name>Bremgarten BE, Chutze</name>
    <Style><LineStyle><width>2</width></LineStyle></Style>
    <Point>
      <extrude>1</extrude>
      <tesselate>0</tesselate>
      <altitudeMode>relativeToGround</altitudeMode>
      <coordinates>7.43794, 46.973,20</coordinates>
    </Point>
  </Placemark><Placemark>
    <name>Bremgarten BE, Kalchacker</name>
    <Style><LineStyle><width>2</width></LineStyle></Style>
    <Point>
      <extrude>1</extrude>
      <tesselate>0</tesselate>
      <altitudeMode>relativeToGround</altitudeMode>
      <coordinates>7.43793, 46.9755,20</coordinates>
    </Point>
  </Placemark><Placemark>
    <name>Liebefeld, Hessstrasse</name>
    <Style><LineStyle><width>2</width></LineStyle></Style>
    <Point>
      <extrude>1</extrude>
      <tesselate>0</tesselate>
      <altitudeMode>relativeToGround</altitudeMode>
      <coordinates>7.42025, 46.9304,20</coordinates>
    </Point>
  </Placemark><Placemark>
    <name>Unterzollikofen</name>
    <Style><LineStyle><width>2</width></LineStyle></Style>
    <Point>
      <extrude>1</extrude>
      <tesselate>0</tesselate>
      <altitudeMode>relativeToGround</altitudeMode>
      <coordinates>7.45709, 46.9917,20</coordinates>
    </Point>
  </Placemark><Placemark>
    <name>Worblaufen</name>
    <Style><LineStyle><width>2</width></LineStyle></Style>
    <Point>
      <extrude>1</extrude>
      <tesselate>0</tesselate>
      <altitudeMode>relativeToGround</altitudeMode>
      <coordinates>7.45763, 46.9788,20</coordinates>
    </Point>
  </Placemark><Placemark>
    <name>Steinibach</name>
    <Style><LineStyle><width>2</width></LineStyle></Style>
    <Point>
      <extrude>1</extrude>
      <tesselate>0</tesselate>
      <altitudeMode>relativeToGround</altitudeMode>
      <coordinates>7.45753, 46.9833,20</coordinates>
    </Point>
  </Placemark><Placemark>
    <name>Bern Tiefenau</name>
    <Style><LineStyle><width>2</width></LineStyle></Style>
    <Point>
      <extrude>1</extrude>
      <tesselate>0</tesselate>
      <altitudeMode>relativeToGround</altitudeMode>
      <coordinates>7.4502, 46.9727,20</coordinates>
    </Point>
  </Placemark><Placemark>
    <name>Bern Felsenau</name>
    <Style><LineStyle><width>2</width></LineStyle></Style>
    <Point>
      <extrude>1</extrude>
      <tesselate>0</tesselate>
      <altitudeMode>relativeToGround</altitudeMode>
      <coordinates>7.44425, 46.9685,20</coordinates>
    </Point>
  </Placemark><Placemark>
    <name>Bern RBS</name>
    <Style><LineStyle><width>2</width></LineStyle></Style>
    <Point>
      <extrude>1</extrude>
      <tesselate>0</tesselate>
      <altitudeMode>relativeToGround</altitudeMode>
      <coordinates>7.44034, 46.9511,20</coordinates>
    </Point>
  </Placemark><Placemark>
    <name>Wabern, Gurtenbahn</name>
    <Style><LineStyle><width>2</width></LineStyle></Style>
    <Point>
      <extrude>1</extrude>
      <tesselate>0</tesselate>
      <altitudeMode>relativeToGround</altitudeMode>
      <coordinates>7.44842, 46.9301,20</coordinates>
    </Point>
  </Placemark><Placemark>
    <name>Bern, Zytglogge</name>
    <Style><LineStyle><width>2</width></LineStyle></Style>
    <Point>
      <extrude>1</extrude>
      <tesselate>0</tesselate>
      <altitudeMode>relativeToGround</altitudeMode>
      <coordinates>7.4475, 46.9479,20</coordinates>
    </Point>
  </Placemark><Placemark>
    <name>Bethlehem b. Bern, Holenacker</name>
    <Style><LineStyle><width>2</width></LineStyle></Style>
    <Point>
      <extrude>1</extrude>
      <tesselate>0</tesselate>
      <altitudeMode>relativeToGround</altitudeMode>
      <coordinates>7.38269, 46.9486,20</coordinates>
    </Point>
  </Placemark><Placemark>
    <name>Bümpliz, Rehhaghölzli</name>
    <Style><LineStyle><width>2</width></LineStyle></Style>
    <Point>
      <extrude>1</extrude>
      <tesselate>0</tesselate>
      <altitudeMode>relativeToGround</altitudeMode>
      <coordinates>7.37823, 46.9376,20</coordinates>
    </Point>
  </Placemark><Placemark>
    <name>Bümpliz, Bachmätteli</name>
    <Style><LineStyle><width>2</width></LineStyle></Style>
    <Point>
      <extrude>1</extrude>
      <tesselate>0</tesselate>
      <altitudeMode>relativeToGround</altitudeMode>
      <coordinates>7.39037, 46.94,20</coordinates>
    </Point>
  </Placemark><Placemark>
    <name>Bern, Breitenrain</name>
    <Style><LineStyle><width>2</width></LineStyle></Style>
    <Point>
      <extrude>1</extrude>
      <tesselate>0</tesselate>
      <altitudeMode>relativeToGround</altitudeMode>
      <coordinates>7.45469, 46.9588,20</coordinates>
    </Point>
  </Placemark><Placemark>
    <name>Bern, Wyleregg</name>
    <Style><LineStyle><width>2</width></LineStyle></Style>
    <Point>
      <extrude>1</extrude>
      <tesselate>0</tesselate>
      <altitudeMode>relativeToGround</altitudeMode>
      <coordinates>7.44892, 46.961,20</coordinates>
    </Point>
  </Placemark></Document>
</kml>
