<kml>
<Document>

<Region>
<LatLonAltBox>
<north>47.061475</north><south>46.995231</south><east>7.315433</east><west>7.163161</west>
<minAltitude>0.000000</minAltitude><maxAltitude>0.000000</maxAltitude>
</LatLonAltBox>
<minLodPixels>2048</minLodPixels><maxLodPixels>1000000000</maxLodPixels>
<minFadeExtent>0</minFadeExtent><maxFadeExtent>0</maxFadeExtent>
</Region>
<Placemark>
    <name>Finsterhennen</name>
    <Style><LineStyle><width>2</width></LineStyle></Style>
    <Point>
      <extrude>1</extrude>
      <tesselate>0</tesselate>
      <altitudeMode>relativeToGround</altitudeMode>
      <coordinates>7.17885, 47.0298,20</coordinates>
    </Point>
  </Placemark><Placemark>
    <name>Aarberg, Bifang</name>
    <Style><LineStyle><width>2</width></LineStyle></Style>
    <Point>
      <extrude>1</extrude>
      <tesselate>0</tesselate>
      <altitudeMode>relativeToGround</altitudeMode>
      <coordinates>7.28236, 47.0508,20</coordinates>
    </Point>
  </Placemark><Placemark>
    <name>Aarberg, Bernfeld</name>
    <Style><LineStyle><width>2</width></LineStyle></Style>
    <Point>
      <extrude>1</extrude>
      <tesselate>0</tesselate>
      <altitudeMode>relativeToGround</altitudeMode>
      <coordinates>7.28665, 47.0443,20</coordinates>
    </Point>
  </Placemark><Placemark>
    <name>Hagneck</name>
    <Style><LineStyle><width>2</width></LineStyle></Style>
    <Point>
      <extrude>1</extrude>
      <tesselate>0</tesselate>
      <altitudeMode>relativeToGround</altitudeMode>
      <coordinates>7.1861, 47.0568,20</coordinates>
    </Point>
  </Placemark><Placemark>
    <name>Fräschels</name>
    <Style><LineStyle><width>2</width></LineStyle></Style>
    <Point>
      <extrude>1</extrude>
      <tesselate>0</tesselate>
      <altitudeMode>relativeToGround</altitudeMode>
      <coordinates>7.20604, 46.9991,20</coordinates>
    </Point>
  </Placemark><Placemark>
    <name>Kallnach</name>
    <Style><LineStyle><width>2</width></LineStyle></Style>
    <Point>
      <extrude>1</extrude>
      <tesselate>0</tesselate>
      <altitudeMode>relativeToGround</altitudeMode>
      <coordinates>7.23519, 47.0255,20</coordinates>
    </Point>
  </Placemark><Placemark>
    <name>Bargen</name>
    <Style><LineStyle><width>2</width></LineStyle></Style>
    <Point>
      <extrude>1</extrude>
      <tesselate>0</tesselate>
      <altitudeMode>relativeToGround</altitudeMode>
      <coordinates>7.26118, 47.0402,20</coordinates>
    </Point>
  </Placemark><Placemark>
    <name>Aarberg</name>
    <Style><LineStyle><width>2</width></LineStyle></Style>
    <Point>
      <extrude>1</extrude>
      <tesselate>0</tesselate>
      <altitudeMode>relativeToGround</altitudeMode>
      <coordinates>7.27869, 47.0445,20</coordinates>
    </Point>
  </Placemark><Placemark>
    <name>Detligen, Jucher</name>
    <Style><LineStyle><width>2</width></LineStyle></Style>
    <Point>
      <extrude>1</extrude>
      <tesselate>0</tesselate>
      <altitudeMode>relativeToGround</altitudeMode>
      <coordinates>7.26376, 47.004,20</coordinates>
    </Point>
  </Placemark><Placemark>
    <name>Innerberg BE, Frieswilfeld</name>
    <Style><LineStyle><width>2</width></LineStyle></Style>
    <Point>
      <extrude>1</extrude>
      <tesselate>0</tesselate>
      <altitudeMode>relativeToGround</altitudeMode>
      <coordinates>7.29121, 46.9958,20</coordinates>
    </Point>
  </Placemark><Placemark>
    <name>Detligen, Schulhausweg</name>
    <Style><LineStyle><width>2</width></LineStyle></Style>
    <Point>
      <extrude>1</extrude>
      <tesselate>0</tesselate>
      <altitudeMode>relativeToGround</altitudeMode>
      <coordinates>7.2756, 47.0013,20</coordinates>
    </Point>
  </Placemark><Placemark>
    <name>Detligen, Post</name>
    <Style><LineStyle><width>2</width></LineStyle></Style>
    <Point>
      <extrude>1</extrude>
      <tesselate>0</tesselate>
      <altitudeMode>relativeToGround</altitudeMode>
      <coordinates>7.27165, 47.0013,20</coordinates>
    </Point>
  </Placemark><Placemark>
    <name>Innerberg BE, Dorf</name>
    <Style><LineStyle><width>2</width></LineStyle></Style>
    <Point>
      <extrude>1</extrude>
      <tesselate>0</tesselate>
      <altitudeMode>relativeToGround</altitudeMode>
      <coordinates>7.30454, 46.996,20</coordinates>
    </Point>
  </Placemark><Placemark>
    <name>Walperswil, Post</name>
    <Style><LineStyle><width>2</width></LineStyle></Style>
    <Point>
      <extrude>1</extrude>
      <tesselate>0</tesselate>
      <altitudeMode>relativeToGround</altitudeMode>
      <coordinates>7.22671, 47.0606,20</coordinates>
    </Point>
  </Placemark><Placemark>
    <name>Kappelen, Kirche</name>
    <Style><LineStyle><width>2</width></LineStyle></Style>
    <Point>
      <extrude>1</extrude>
      <tesselate>0</tesselate>
      <altitudeMode>relativeToGround</altitudeMode>
      <coordinates>7.26752, 47.0598,20</coordinates>
    </Point>
  </Placemark><Placemark>
    <name>Kappelen, Oberdorf</name>
    <Style><LineStyle><width>2</width></LineStyle></Style>
    <Point>
      <extrude>1</extrude>
      <tesselate>0</tesselate>
      <altitudeMode>relativeToGround</altitudeMode>
      <coordinates>7.26227, 47.0562,20</coordinates>
    </Point>
  </Placemark><Placemark>
    <name>Aarberg, Spital</name>
    <Style><LineStyle><width>2</width></LineStyle></Style>
    <Point>
      <extrude>1</extrude>
      <tesselate>0</tesselate>
      <altitudeMode>relativeToGround</altitudeMode>
      <coordinates>7.27941, 47.0472,20</coordinates>
    </Point>
  </Placemark><Placemark>
    <name>Seedorf BE, Käsereigasse</name>
    <Style><LineStyle><width>2</width></LineStyle></Style>
    <Point>
      <extrude>1</extrude>
      <tesselate>0</tesselate>
      <altitudeMode>relativeToGround</altitudeMode>
      <coordinates>7.31289, 47.0355,20</coordinates>
    </Point>
  </Placemark><Placemark>
    <name>Seedorf BE, Post</name>
    <Style><LineStyle><width>2</width></LineStyle></Style>
    <Point>
      <extrude>1</extrude>
      <tesselate>0</tesselate>
      <altitudeMode>relativeToGround</altitudeMode>
      <coordinates>7.31233, 47.0347,20</coordinates>
    </Point>
  </Placemark><Placemark>
    <name>Radelfingen b. A., Dorf</name>
    <Style><LineStyle><width>2</width></LineStyle></Style>
    <Point>
      <extrude>1</extrude>
      <tesselate>0</tesselate>
      <altitudeMode>relativeToGround</altitudeMode>
      <coordinates>7.27257, 47.0225,20</coordinates>
    </Point>
  </Placemark></Document>
</kml>
