<kml>
<Document>

<Region>
<LatLonAltBox>
<north>47.061475</north><south>46.928988</south><east>7.619975</east><west>7.315433</west>
<minAltitude>0.000000</minAltitude><maxAltitude>0.000000</maxAltitude>
</LatLonAltBox>
<minLodPixels>2048</minLodPixels><maxLodPixels>1000000000</maxLodPixels>
<minFadeExtent>0</minFadeExtent><maxFadeExtent>0</maxFadeExtent>
</Region>
<NetworkLink>
<name>003210</name>

<Region>
<LatLonAltBox>
<north>47.061475</north><south>46.995231</south><east>7.467704</east><west>7.315433</west>
<minAltitude>0.000000</minAltitude><maxAltitude>0.000000</maxAltitude>
</LatLonAltBox>
<minLodPixels>256</minLodPixels><maxLodPixels>1000000000</maxLodPixels>
<minFadeExtent>0</minFadeExtent><maxFadeExtent>0</maxFadeExtent>
</Region>
<Link>
<href>003210.kml</href><viewRefreshMode>onRegion</viewRefreshMode></Link>
</NetworkLink>
<NetworkLink>
<name>003211</name>

<Region>
<LatLonAltBox>
<north>47.061475</north><south>46.995231</south><east>7.619975</east><west>7.467704</west>
<minAltitude>0.000000</minAltitude><maxAltitude>0.000000</maxAltitude>
</LatLonAltBox>
<minLodPixels>256</minLodPixels><maxLodPixels>1000000000</maxLodPixels>
<minFadeExtent>0</minFadeExtent><maxFadeExtent>0</maxFadeExtent>
</Region>
<Link>
<href>003211.kml</href><viewRefreshMode>onRegion</viewRefreshMode></Link>
</NetworkLink>
<NetworkLink>
<name>003212</name>

<Region>
<LatLonAltBox>
<north>46.995231</north><south>46.928988</south><east>7.467704</east><west>7.315433</west>
<minAltitude>0.000000</minAltitude><maxAltitude>0.000000</maxAltitude>
</LatLonAltBox>
<minLodPixels>256</minLodPixels><maxLodPixels>1000000000</maxLodPixels>
<minFadeExtent>0</minFadeExtent><maxFadeExtent>0</maxFadeExtent>
</Region>
<Link>
<href>003212.kml</href><viewRefreshMode>onRegion</viewRefreshMode></Link>
</NetworkLink>
<NetworkLink>
<name>003213</name>

<Region>
<LatLonAltBox>
<north>46.995231</north><south>46.928988</south><east>7.619975</east><west>7.467704</west>
<minAltitude>0.000000</minAltitude><maxAltitude>0.000000</maxAltitude>
</LatLonAltBox>
<minLodPixels>256</minLodPixels><maxLodPixels>1000000000</maxLodPixels>
<minFadeExtent>0</minFadeExtent><maxFadeExtent>0</maxFadeExtent>
</Region>
<Link>
<href>003213.kml</href><viewRefreshMode>onRegion</viewRefreshMode></Link>
</NetworkLink>
<Placemark>
    <name>Schönbühl, Dorniacker</name>
    <Style><LineStyle><width>2</width></LineStyle></Style>
    <Point>
      <extrude>1</extrude>
      <tesselate>0</tesselate>
      <altitudeMode>relativeToGround</altitudeMode>
      <coordinates>7.5109, 47.0214,20</coordinates>
    </Point>
  </Placemark><Placemark>
    <name>Wikartswil, Dorni</name>
    <Style><LineStyle><width>2</width></LineStyle></Style>
    <Point>
      <extrude>1</extrude>
      <tesselate>0</tesselate>
      <altitudeMode>relativeToGround</altitudeMode>
      <coordinates>7.61202, 46.9465,20</coordinates>
    </Point>
  </Placemark><Placemark>
    <name>Bäriswil BE, Mätteli</name>
    <Style><LineStyle><width>2</width></LineStyle></Style>
    <Point>
      <extrude>1</extrude>
      <tesselate>0</tesselate>
      <altitudeMode>relativeToGround</altitudeMode>
      <coordinates>7.52353, 47.0206,20</coordinates>
    </Point>
  </Placemark><Placemark>
    <name>Muri b. Bern, Bahnhof</name>
    <Style><LineStyle><width>2</width></LineStyle></Style>
    <Point>
      <extrude>1</extrude>
      <tesselate>0</tesselate>
      <altitudeMode>relativeToGround</altitudeMode>
      <coordinates>7.48591, 46.9313,20</coordinates>
    </Point>
  </Placemark><Placemark>
    <name>Muri b. Bern, Krone</name>
    <Style><LineStyle><width>2</width></LineStyle></Style>
    <Point>
      <extrude>1</extrude>
      <tesselate>0</tesselate>
      <altitudeMode>relativeToGround</altitudeMode>
      <coordinates>7.48238, 46.9341,20</coordinates>
    </Point>
  </Placemark><Placemark>
    <name>Ittigen, Bahnhof</name>
    <Style><LineStyle><width>2</width></LineStyle></Style>
    <Point>
      <extrude>1</extrude>
      <tesselate>0</tesselate>
      <altitudeMode>relativeToGround</altitudeMode>
      <coordinates>7.48374, 46.9737,20</coordinates>
    </Point>
  </Placemark><Placemark>
    <name>Ittigen, Hausmattstrasse</name>
    <Style><LineStyle><width>2</width></LineStyle></Style>
    <Point>
      <extrude>1</extrude>
      <tesselate>0</tesselate>
      <altitudeMode>relativeToGround</altitudeMode>
      <coordinates>7.49022, 46.9758,20</coordinates>
    </Point>
  </Placemark><Placemark>
    <name>Ittigen, Zulligerstrasse</name>
    <Style><LineStyle><width>2</width></LineStyle></Style>
    <Point>
      <extrude>1</extrude>
      <tesselate>0</tesselate>
      <altitudeMode>relativeToGround</altitudeMode>
      <coordinates>7.48386, 46.9797,20</coordinates>
    </Point>
  </Placemark><Placemark>
    <name>Reichenbach b. B., Grubenweg</name>
    <Style><LineStyle><width>2</width></LineStyle></Style>
    <Point>
      <extrude>1</extrude>
      <tesselate>0</tesselate>
      <altitudeMode>relativeToGround</altitudeMode>
      <coordinates>7.44876, 46.9917,20</coordinates>
    </Point>
  </Placemark><Placemark>
    <name>Reichenbach b. B., Känelgasse</name>
    <Style><LineStyle><width>2</width></LineStyle></Style>
    <Point>
      <extrude>1</extrude>
      <tesselate>0</tesselate>
      <altitudeMode>relativeToGround</altitudeMode>
      <coordinates>7.4457, 46.9897,20</coordinates>
    </Point>
  </Placemark><Placemark>
    <name>Bremgarten BE, Aeschebrunnmatt</name>
    <Style><LineStyle><width>2</width></LineStyle></Style>
    <Point>
      <extrude>1</extrude>
      <tesselate>0</tesselate>
      <altitudeMode>relativeToGround</altitudeMode>
      <coordinates>7.44208, 46.9871,20</coordinates>
    </Point>
  </Placemark><Placemark>
    <name>Bümpliz, Statthalterstrasse</name>
    <Style><LineStyle><width>2</width></LineStyle></Style>
    <Point>
      <extrude>1</extrude>
      <tesselate>0</tesselate>
      <altitudeMode>relativeToGround</altitudeMode>
      <coordinates>7.38578, 46.9394,20</coordinates>
    </Point>
  </Placemark><Placemark>
    <name>Bümpliz, Post</name>
    <Style><LineStyle><width>2</width></LineStyle></Style>
    <Point>
      <extrude>1</extrude>
      <tesselate>0</tesselate>
      <altitudeMode>relativeToGround</altitudeMode>
      <coordinates>7.39277, 46.9413,20</coordinates>
    </Point>
  </Placemark><Placemark>
    <name>Bern, Wankdorf Center</name>
    <Style><LineStyle><width>2</width></LineStyle></Style>
    <Point>
      <extrude>1</extrude>
      <tesselate>0</tesselate>
      <altitudeMode>relativeToGround</altitudeMode>
      <coordinates>7.4659, 46.9616,20</coordinates>
    </Point>
  </Placemark><Placemark>
    <name>Bern, Winkelriedstrasse</name>
    <Style><LineStyle><width>2</width></LineStyle></Style>
    <Point>
      <extrude>1</extrude>
      <tesselate>0</tesselate>
      <altitudeMode>relativeToGround</altitudeMode>
      <coordinates>7.45519, 46.9632,20</coordinates>
    </Point>
  </Placemark><Placemark>
    <name>Bern, Löchligut</name>
    <Style><LineStyle><width>2</width></LineStyle></Style>
    <Point>
      <extrude>1</extrude>
      <tesselate>0</tesselate>
      <altitudeMode>relativeToGround</altitudeMode>
      <coordinates>7.46995, 46.971,20</coordinates>
    </Point>
  </Placemark><Placemark>
    <name>Frauenkappelen, Post</name>
    <Style><LineStyle><width>2</width></LineStyle></Style>
    <Point>
      <extrude>1</extrude>
      <tesselate>0</tesselate>
      <altitudeMode>relativeToGround</altitudeMode>
      <coordinates>7.3388, 46.9537,20</coordinates>
    </Point>
  </Placemark><Placemark>
    <name>Oberbottigen, Dorf</name>
    <Style><LineStyle><width>2</width></LineStyle></Style>
    <Point>
      <extrude>1</extrude>
      <tesselate>0</tesselate>
      <altitudeMode>relativeToGround</altitudeMode>
      <coordinates>7.34999, 46.9355,20</coordinates>
    </Point>
  </Placemark><Placemark>
    <name>Ortschwaben, Postgasse</name>
    <Style><LineStyle><width>2</width></LineStyle></Style>
    <Point>
      <extrude>1</extrude>
      <tesselate>0</tesselate>
      <altitudeMode>relativeToGround</altitudeMode>
      <coordinates>7.40183, 46.9898,20</coordinates>
    </Point>
  </Placemark><Placemark>
    <name>Wahlendorf, Post Wendeplatz</name>
    <Style><LineStyle><width>2</width></LineStyle></Style>
    <Point>
      <extrude>1</extrude>
      <tesselate>0</tesselate>
      <altitudeMode>relativeToGround</altitudeMode>
      <coordinates>7.33607, 47.0041,20</coordinates>
    </Point>
  </Placemark><Placemark>
    <name>Bern Weissenbühl</name>
    <Style><LineStyle><width>2</width></LineStyle></Style>
    <Point>
      <extrude>1</extrude>
      <tesselate>0</tesselate>
      <altitudeMode>relativeToGround</altitudeMode>
      <coordinates>7.43002, 46.9358,20</coordinates>
    </Point>
  </Placemark><Placemark>
    <name>Zuzwil BE, Bergacker</name>
    <Style><LineStyle><width>2</width></LineStyle></Style>
    <Point>
      <extrude>1</extrude>
      <tesselate>0</tesselate>
      <altitudeMode>relativeToGround</altitudeMode>
      <coordinates>7.47404, 47.0545,20</coordinates>
    </Point>
  </Placemark><Placemark>
    <name>Säriswil, Dorf</name>
    <Style><LineStyle><width>2</width></LineStyle></Style>
    <Point>
      <extrude>1</extrude>
      <tesselate>0</tesselate>
      <altitudeMode>relativeToGround</altitudeMode>
      <coordinates>7.33377, 46.9916,20</coordinates>
    </Point>
  </Placemark><Placemark>
    <name>Frienisberg, Elemoos</name>
    <Style><LineStyle><width>2</width></LineStyle></Style>
    <Point>
      <extrude>1</extrude>
      <tesselate>0</tesselate>
      <altitudeMode>relativeToGround</altitudeMode>
      <coordinates>7.32437, 47.0241,20</coordinates>
    </Point>
  </Placemark><Placemark>
    <name>Frauenkappelen, Chrüzhubel</name>
    <Style><LineStyle><width>2</width></LineStyle></Style>
    <Point>
      <extrude>1</extrude>
      <tesselate>0</tesselate>
      <altitudeMode>relativeToGround</altitudeMode>
      <coordinates>7.33618, 46.9492,20</coordinates>
    </Point>
  </Placemark><Placemark>
    <name>Riedhaus</name>
    <Style><LineStyle><width>2</width></LineStyle></Style>
    <Point>
      <extrude>1</extrude>
      <tesselate>0</tesselate>
      <altitudeMode>relativeToGround</altitudeMode>
      <coordinates>7.37015, 46.9818,20</coordinates>
    </Point>
  </Placemark><Placemark>
    <name>Bolligen, Rüttelerweg</name>
    <Style><LineStyle><width>2</width></LineStyle></Style>
    <Point>
      <extrude>1</extrude>
      <tesselate>0</tesselate>
      <altitudeMode>relativeToGround</altitudeMode>
      <coordinates>7.50529, 46.9825,20</coordinates>
    </Point>
  </Placemark><Placemark>
    <name>Bern, Hauptbahnhof</name>
    <Style><LineStyle><width>2</width></LineStyle></Style>
    <Point>
      <extrude>1</extrude>
      <tesselate>0</tesselate>
      <altitudeMode>relativeToGround</altitudeMode>
      <coordinates>7.43864, 46.9488,20</coordinates>
    </Point>
  </Placemark><Placemark>
    <name>Bern, Steinhölzli</name>
    <Style><LineStyle><width>2</width></LineStyle></Style>
    <Point>
      <extrude>1</extrude>
      <tesselate>0</tesselate>
      <altitudeMode>relativeToGround</altitudeMode>
      <coordinates>7.43208, 46.9311,20</coordinates>
    </Point>
  </Placemark><Placemark>
    <name>Bern Wankdorf</name>
    <Style><LineStyle><width>2</width></LineStyle></Style>
    <Point>
      <extrude>1</extrude>
      <tesselate>0</tesselate>
      <altitudeMode>relativeToGround</altitudeMode>
      <coordinates>7.46547, 46.9678,20</coordinates>
    </Point>
  </Placemark><Placemark>
    <name>Bern, Weltpostverein</name>
    <Style><LineStyle><width>2</width></LineStyle></Style>
    <Point>
      <extrude>1</extrude>
      <tesselate>0</tesselate>
      <altitudeMode>relativeToGround</altitudeMode>
      <coordinates>7.4718, 46.9389,20</coordinates>
    </Point>
  </Placemark><Placemark>
    <name>Boll-Utzigen, Oberfeld</name>
    <Style><LineStyle><width>2</width></LineStyle></Style>
    <Point>
      <extrude>1</extrude>
      <tesselate>0</tesselate>
      <altitudeMode>relativeToGround</altitudeMode>
      <coordinates>7.54505, 46.9573,20</coordinates>
    </Point>
  </Placemark><Placemark>
    <name>Murzelen, Dorf</name>
    <Style><LineStyle><width>2</width></LineStyle></Style>
    <Point>
      <extrude>1</extrude>
      <tesselate>0</tesselate>
      <altitudeMode>relativeToGround</altitudeMode>
      <coordinates>7.3164, 46.9816,20</coordinates>
    </Point>
  </Placemark><Placemark>
    <name>Bern, Weyermannshaus</name>
    <Style><LineStyle><width>2</width></LineStyle></Style>
    <Point>
      <extrude>1</extrude>
      <tesselate>0</tesselate>
      <altitudeMode>relativeToGround</altitudeMode>
      <coordinates>7.40934, 46.9494,20</coordinates>
    </Point>
  </Placemark><Placemark>
    <name>Bern, Insel</name>
    <Style><LineStyle><width>2</width></LineStyle></Style>
    <Point>
      <extrude>1</extrude>
      <tesselate>0</tesselate>
      <altitudeMode>relativeToGround</altitudeMode>
      <coordinates>7.42793, 46.9482,20</coordinates>
    </Point>
  </Placemark><Placemark>
    <name>Bern, City West</name>
    <Style><LineStyle><width>2</width></LineStyle></Style>
    <Point>
      <extrude>1</extrude>
      <tesselate>0</tesselate>
      <altitudeMode>relativeToGround</altitudeMode>
      <coordinates>7.43591, 46.9473,20</coordinates>
    </Point>
  </Placemark><Placemark>
    <name>Illiswil</name>
    <Style><LineStyle><width>2</width></LineStyle></Style>
    <Point>
      <extrude>1</extrude>
      <tesselate>0</tesselate>
      <altitudeMode>relativeToGround</altitudeMode>
      <coordinates>7.33876, 46.9735,20</coordinates>
    </Point>
  </Placemark><Placemark>
    <name>Hinterkappelen, Bennenboden</name>
    <Style><LineStyle><width>2</width></LineStyle></Style>
    <Point>
      <extrude>1</extrude>
      <tesselate>0</tesselate>
      <altitudeMode>relativeToGround</altitudeMode>
      <coordinates>7.36948, 46.9699,20</coordinates>
    </Point>
  </Placemark><Placemark>
    <name>Eymatt b. Bern, Camping</name>
    <Style><LineStyle><width>2</width></LineStyle></Style>
    <Point>
      <extrude>1</extrude>
      <tesselate>0</tesselate>
      <altitudeMode>relativeToGround</altitudeMode>
      <coordinates>7.38483, 46.9622,20</coordinates>
    </Point>
  </Placemark><Placemark>
    <name>Bethlehem b. Bern, Kirche</name>
    <Style><LineStyle><width>2</width></LineStyle></Style>
    <Point>
      <extrude>1</extrude>
      <tesselate>0</tesselate>
      <altitudeMode>relativeToGround</altitudeMode>
      <coordinates>7.39314, 46.9491,20</coordinates>
    </Point>
  </Placemark><Placemark>
    <name>Walkringen, Bahnhof</name>
    <Style><LineStyle><width>2</width></LineStyle></Style>
    <Point>
      <extrude>1</extrude>
      <tesselate>0</tesselate>
      <altitudeMode>relativeToGround</altitudeMode>
      <coordinates>7.61859, 46.9473,20</coordinates>
    </Point>
  </Placemark><Placemark>
    <name>Steinibach BE, Aarmattweg</name>
    <Style><LineStyle><width>2</width></LineStyle></Style>
    <Point>
      <extrude>1</extrude>
      <tesselate>0</tesselate>
      <altitudeMode>relativeToGround</altitudeMode>
      <coordinates>7.45482, 46.9897,20</coordinates>
    </Point>
  </Placemark><Placemark>
    <name>Burgdorf, Lerchenbühlweg</name>
    <Style><LineStyle><width>2</width></LineStyle></Style>
    <Point>
      <extrude>1</extrude>
      <tesselate>0</tesselate>
      <altitudeMode>relativeToGround</altitudeMode>
      <coordinates>7.61291, 47.0594,20</coordinates>
    </Point>
  </Placemark><Placemark>
    <name>Grächwil</name>
    <Style><LineStyle><width>2</width></LineStyle></Style>
    <Point>
      <extrude>1</extrude>
      <tesselate>0</tesselate>
      <altitudeMode>relativeToGround</altitudeMode>
      <coordinates>7.37682, 47.0167,20</coordinates>
    </Point>
  </Placemark><Placemark>
    <name>Moosseedorf, Rest. Utiger</name>
    <Style><LineStyle><width>2</width></LineStyle></Style>
    <Point>
      <extrude>1</extrude>
      <tesselate>0</tesselate>
      <altitudeMode>relativeToGround</altitudeMode>
      <coordinates>7.48267, 47.0165,20</coordinates>
    </Point>
  </Placemark><Placemark>
    <name>Steinibach BE, Aarestrasse</name>
    <Style><LineStyle><width>2</width></LineStyle></Style>
    <Point>
      <extrude>1</extrude>
      <tesselate>0</tesselate>
      <altitudeMode>relativeToGround</altitudeMode>
      <coordinates>7.45638, 46.9853,20</coordinates>
    </Point>
  </Placemark><Placemark>
    <name>Bern Stöckacker</name>
    <Style><LineStyle><width>2</width></LineStyle></Style>
    <Point>
      <extrude>1</extrude>
      <tesselate>0</tesselate>
      <altitudeMode>relativeToGround</altitudeMode>
      <coordinates>7.40118, 46.9464,20</coordinates>
    </Point>
  </Placemark><Placemark>
    <name>Bern, Schönburg</name>
    <Style><LineStyle><width>2</width></LineStyle></Style>
    <Point>
      <extrude>1</extrude>
      <tesselate>0</tesselate>
      <altitudeMode>relativeToGround</altitudeMode>
      <coordinates>7.4577, 46.9536,20</coordinates>
    </Point>
  </Placemark><Placemark>
    <name>Münchenbuchsee, Sagi</name>
    <Style><LineStyle><width>2</width></LineStyle></Style>
    <Point>
      <extrude>1</extrude>
      <tesselate>0</tesselate>
      <altitudeMode>relativeToGround</altitudeMode>
      <coordinates>7.44258, 47.0266,20</coordinates>
    </Point>
  </Placemark></Document>
</kml>
