<kml>
<Document>

<Region>
<LatLonAltBox>
<north>46.995231</north><south>46.928988</south><east>7.315433</east><west>7.163161</west>
<minAltitude>0.000000</minAltitude><maxAltitude>0.000000</maxAltitude>
</LatLonAltBox>
<minLodPixels>2048</minLodPixels><maxLodPixels>1000000000</maxLodPixels>
<minFadeExtent>0</minFadeExtent><maxFadeExtent>0</maxFadeExtent>
</Region>
<Placemark>
    <name>Golaten, Dorf</name>
    <Style><LineStyle><width>2</width></LineStyle></Style>
    <Point>
      <extrude>1</extrude>
      <tesselate>0</tesselate>
      <altitudeMode>relativeToGround</altitudeMode>
      <coordinates>7.23858, 46.9847,20</coordinates>
    </Point>
  </Placemark><Placemark>
    <name>Kerzers, Käserei</name>
    <Style><LineStyle><width>2</width></LineStyle></Style>
    <Point>
      <extrude>1</extrude>
      <tesselate>0</tesselate>
      <altitudeMode>relativeToGround</altitudeMode>
      <coordinates>7.19926, 46.9745,20</coordinates>
    </Point>
  </Placemark><Placemark>
    <name>Frauenkappelen, Längägerten</name>
    <Style><LineStyle><width>2</width></LineStyle></Style>
    <Point>
      <extrude>1</extrude>
      <tesselate>0</tesselate>
      <altitudeMode>relativeToGround</altitudeMode>
      <coordinates>7.31253, 46.9528,20</coordinates>
    </Point>
  </Placemark><Placemark>
    <name>Wileroltigen, Mösli</name>
    <Style><LineStyle><width>2</width></LineStyle></Style>
    <Point>
      <extrude>1</extrude>
      <tesselate>0</tesselate>
      <altitudeMode>relativeToGround</altitudeMode>
      <coordinates>7.23895, 46.9728,20</coordinates>
    </Point>
  </Placemark><Placemark>
    <name>Gurbrü, Gemeindehaus</name>
    <Style><LineStyle><width>2</width></LineStyle></Style>
    <Point>
      <extrude>1</extrude>
      <tesselate>0</tesselate>
      <altitudeMode>relativeToGround</altitudeMode>
      <coordinates>7.21695, 46.9656,20</coordinates>
    </Point>
  </Placemark><Placemark>
    <name>Mühleberg, Säge</name>
    <Style><LineStyle><width>2</width></LineStyle></Style>
    <Point>
      <extrude>1</extrude>
      <tesselate>0</tesselate>
      <altitudeMode>relativeToGround</altitudeMode>
      <coordinates>7.27179, 46.9582,20</coordinates>
    </Point>
  </Placemark><Placemark>
    <name>Mühleberg, Dorf</name>
    <Style><LineStyle><width>2</width></LineStyle></Style>
    <Point>
      <extrude>1</extrude>
      <tesselate>0</tesselate>
      <altitudeMode>relativeToGround</altitudeMode>
      <coordinates>7.26129, 46.9544,20</coordinates>
    </Point>
  </Placemark><Placemark>
    <name>Gümmenen, Bahnhof</name>
    <Style><LineStyle><width>2</width></LineStyle></Style>
    <Point>
      <extrude>1</extrude>
      <tesselate>0</tesselate>
      <altitudeMode>relativeToGround</altitudeMode>
      <coordinates>7.23243, 46.9437,20</coordinates>
    </Point>
  </Placemark><Placemark>
    <name>Gümmenen, Dorf</name>
    <Style><LineStyle><width>2</width></LineStyle></Style>
    <Point>
      <extrude>1</extrude>
      <tesselate>0</tesselate>
      <altitudeMode>relativeToGround</altitudeMode>
      <coordinates>7.24294, 46.9437,20</coordinates>
    </Point>
  </Placemark><Placemark>
    <name>Fuchsenried, Mühlebergwerk</name>
    <Style><LineStyle><width>2</width></LineStyle></Style>
    <Point>
      <extrude>1</extrude>
      <tesselate>0</tesselate>
      <altitudeMode>relativeToGround</altitudeMode>
      <coordinates>7.27833, 46.9654,20</coordinates>
    </Point>
  </Placemark><Placemark>
    <name>Buttenried</name>
    <Style><LineStyle><width>2</width></LineStyle></Style>
    <Point>
      <extrude>1</extrude>
      <tesselate>0</tesselate>
      <altitudeMode>relativeToGround</altitudeMode>
      <coordinates>7.27571, 46.9627,20</coordinates>
    </Point>
  </Placemark><Placemark>
    <name>Mühleberg, Post</name>
    <Style><LineStyle><width>2</width></LineStyle></Style>
    <Point>
      <extrude>1</extrude>
      <tesselate>0</tesselate>
      <altitudeMode>relativeToGround</altitudeMode>
      <coordinates>7.25867, 46.9527,20</coordinates>
    </Point>
  </Placemark><Placemark>
    <name>Mühleberg, Dällenbach</name>
    <Style><LineStyle><width>2</width></LineStyle></Style>
    <Point>
      <extrude>1</extrude>
      <tesselate>0</tesselate>
      <altitudeMode>relativeToGround</altitudeMode>
      <coordinates>7.25737, 46.9482,20</coordinates>
    </Point>
  </Placemark><Placemark>
    <name>Gümmenen, Stutz</name>
    <Style><LineStyle><width>2</width></LineStyle></Style>
    <Point>
      <extrude>1</extrude>
      <tesselate>0</tesselate>
      <altitudeMode>relativeToGround</altitudeMode>
      <coordinates>7.2495, 46.9455,20</coordinates>
    </Point>
  </Placemark><Placemark>
    <name>Trüllern bei Mühleberg</name>
    <Style><LineStyle><width>2</width></LineStyle></Style>
    <Point>
      <extrude>1</extrude>
      <tesselate>0</tesselate>
      <altitudeMode>relativeToGround</altitudeMode>
      <coordinates>7.24898, 46.942,20</coordinates>
    </Point>
  </Placemark><Placemark>
    <name>Frieswil, Dorf</name>
    <Style><LineStyle><width>2</width></LineStyle></Style>
    <Point>
      <extrude>1</extrude>
      <tesselate>0</tesselate>
      <altitudeMode>relativeToGround</altitudeMode>
      <coordinates>7.28611, 46.9948,20</coordinates>
    </Point>
  </Placemark><Placemark>
    <name>Innerberg BE, Weidhaus</name>
    <Style><LineStyle><width>2</width></LineStyle></Style>
    <Point>
      <extrude>1</extrude>
      <tesselate>0</tesselate>
      <altitudeMode>relativeToGround</altitudeMode>
      <coordinates>7.30426, 46.9951,20</coordinates>
    </Point>
  </Placemark><Placemark>
    <name>Gurbrü, Dorf</name>
    <Style><LineStyle><width>2</width></LineStyle></Style>
    <Point>
      <extrude>1</extrude>
      <tesselate>0</tesselate>
      <altitudeMode>relativeToGround</altitudeMode>
      <coordinates>7.21395, 46.9644,20</coordinates>
    </Point>
  </Placemark><Placemark>
    <name>Innerberg BE, Post</name>
    <Style><LineStyle><width>2</width></LineStyle></Style>
    <Point>
      <extrude>1</extrude>
      <tesselate>0</tesselate>
      <altitudeMode>relativeToGround</altitudeMode>
      <coordinates>7.30819, 46.9921,20</coordinates>
    </Point>
  </Placemark><Placemark>
    <name>Ferenbalm-Gurbrü</name>
    <Style><LineStyle><width>2</width></LineStyle></Style>
    <Point>
      <extrude>1</extrude>
      <tesselate>0</tesselate>
      <altitudeMode>relativeToGround</altitudeMode>
      <coordinates>7.21887, 46.9541,20</coordinates>
    </Point>
  </Placemark><Placemark>
    <name>Gümmenen</name>
    <Style><LineStyle><width>2</width></LineStyle></Style>
    <Point>
      <extrude>1</extrude>
      <tesselate>0</tesselate>
      <altitudeMode>relativeToGround</altitudeMode>
      <coordinates>7.23441, 46.9422,20</coordinates>
    </Point>
  </Placemark><Placemark>
    <name>Rosshäusern</name>
    <Style><LineStyle><width>2</width></LineStyle></Style>
    <Point>
      <extrude>1</extrude>
      <tesselate>0</tesselate>
      <altitudeMode>relativeToGround</altitudeMode>
      <coordinates>7.29686, 46.9343,20</coordinates>
    </Point>
  </Placemark><Placemark>
    <name>Zilacher b. Rosshäusern</name>
    <Style><LineStyle><width>2</width></LineStyle></Style>
    <Point>
      <extrude>1</extrude>
      <tesselate>0</tesselate>
      <altitudeMode>relativeToGround</altitudeMode>
      <coordinates>7.28039, 46.9366,20</coordinates>
    </Point>
  </Placemark><Placemark>
    <name>Kerzers</name>
    <Style><LineStyle><width>2</width></LineStyle></Style>
    <Point>
      <extrude>1</extrude>
      <tesselate>0</tesselate>
      <altitudeMode>relativeToGround</altitudeMode>
      <coordinates>7.1928, 46.9751,20</coordinates>
    </Point>
  </Placemark><Placemark>
    <name>Kerzers Papiliorama</name>
    <Style><LineStyle><width>2</width></LineStyle></Style>
    <Point>
      <extrude>1</extrude>
      <tesselate>0</tesselate>
      <altitudeMode>relativeToGround</altitudeMode>
      <coordinates>7.19928, 46.9898,20</coordinates>
    </Point>
  </Placemark><Placemark>
    <name>Ried b. Kerzers, Dorf</name>
    <Style><LineStyle><width>2</width></LineStyle></Style>
    <Point>
      <extrude>1</extrude>
      <tesselate>0</tesselate>
      <altitudeMode>relativeToGround</altitudeMode>
      <coordinates>7.18509, 46.9562,20</coordinates>
    </Point>
  </Placemark><Placemark>
    <name>Kerzers, Abzw. Gurzelen</name>
    <Style><LineStyle><width>2</width></LineStyle></Style>
    <Point>
      <extrude>1</extrude>
      <tesselate>0</tesselate>
      <altitudeMode>relativeToGround</altitudeMode>
      <coordinates>7.18636, 46.9652,20</coordinates>
    </Point>
  </Placemark><Placemark>
    <name>Frauenkappelen, Salzweid</name>
    <Style><LineStyle><width>2</width></LineStyle></Style>
    <Point>
      <extrude>1</extrude>
      <tesselate>0</tesselate>
      <altitudeMode>relativeToGround</altitudeMode>
      <coordinates>7.30465, 46.9519,20</coordinates>
    </Point>
  </Placemark><Placemark>
    <name>Biberen, Molkerei</name>
    <Style><LineStyle><width>2</width></LineStyle></Style>
    <Point>
      <extrude>1</extrude>
      <tesselate>0</tesselate>
      <altitudeMode>relativeToGround</altitudeMode>
      <coordinates>7.21669, 46.9392,20</coordinates>
    </Point>
  </Placemark><Placemark>
    <name>Ulmiz FR, Bauernhof</name>
    <Style><LineStyle><width>2</width></LineStyle></Style>
    <Point>
      <extrude>1</extrude>
      <tesselate>0</tesselate>
      <altitudeMode>relativeToGround</altitudeMode>
      <coordinates>7.19701, 46.9346,20</coordinates>
    </Point>
  </Placemark></Document>
</kml>
