<kml>
<Document>

<Region>
<LatLonAltBox>
<north>47.061475</north><south>46.796500</south><east>8.229060</east><west>7.619975</west>
<minAltitude>0.000000</minAltitude><maxAltitude>0.000000</maxAltitude>
</LatLonAltBox>
<minLodPixels>2048</minLodPixels><maxLodPixels>1000000000</maxLodPixels>
<minFadeExtent>0</minFadeExtent><maxFadeExtent>0</maxFadeExtent>
</Region>
<NetworkLink>
<name>00330</name>

<Region>
<LatLonAltBox>
<north>47.061475</north><south>46.928988</south><east>7.924518</east><west>7.619975</west>
<minAltitude>0.000000</minAltitude><maxAltitude>0.000000</maxAltitude>
</LatLonAltBox>
<minLodPixels>256</minLodPixels><maxLodPixels>1000000000</maxLodPixels>
<minFadeExtent>0</minFadeExtent><maxFadeExtent>0</maxFadeExtent>
</Region>
<Link>
<href>00330.kml</href><viewRefreshMode>onRegion</viewRefreshMode></Link>
</NetworkLink>
<NetworkLink>
<name>00331</name>

<Region>
<LatLonAltBox>
<north>47.061475</north><south>46.928988</south><east>8.229060</east><west>7.924518</west>
<minAltitude>0.000000</minAltitude><maxAltitude>0.000000</maxAltitude>
</LatLonAltBox>
<minLodPixels>256</minLodPixels><maxLodPixels>1000000000</maxLodPixels>
<minFadeExtent>0</minFadeExtent><maxFadeExtent>0</maxFadeExtent>
</Region>
<Link>
<href>00331.kml</href><viewRefreshMode>onRegion</viewRefreshMode></Link>
</NetworkLink>
<NetworkLink>
<name>00332</name>

<Region>
<LatLonAltBox>
<north>46.928988</north><south>46.796500</south><east>7.924518</east><west>7.619975</west>
<minAltitude>0.000000</minAltitude><maxAltitude>0.000000</maxAltitude>
</LatLonAltBox>
<minLodPixels>256</minLodPixels><maxLodPixels>1000000000</maxLodPixels>
<minFadeExtent>0</minFadeExtent><maxFadeExtent>0</maxFadeExtent>
</Region>
<Link>
<href>00332.kml</href><viewRefreshMode>onRegion</viewRefreshMode></Link>
</NetworkLink>
<NetworkLink>
<name>00333</name>

<Region>
<LatLonAltBox>
<north>46.928988</north><south>46.796500</south><east>8.229060</east><west>7.924518</west>
<minAltitude>0.000000</minAltitude><maxAltitude>0.000000</maxAltitude>
</LatLonAltBox>
<minLodPixels>256</minLodPixels><maxLodPixels>1000000000</maxLodPixels>
<minFadeExtent>0</minFadeExtent><maxFadeExtent>0</maxFadeExtent>
</Region>
<Link>
<href>00333.kml</href><viewRefreshMode>onRegion</viewRefreshMode></Link>
</NetworkLink>
<Placemark>
    <name>Obergoldbach, Längacker</name>
    <Style><LineStyle><width>2</width></LineStyle></Style>
    <Point>
      <extrude>1</extrude>
      <tesselate>0</tesselate>
      <altitudeMode>relativeToGround</altitudeMode>
      <coordinates>7.65802, 46.9527,20</coordinates>
    </Point>
  </Placemark><Placemark>
    <name>Grosshöchstetten, Talacker</name>
    <Style><LineStyle><width>2</width></LineStyle></Style>
    <Point>
      <extrude>1</extrude>
      <tesselate>0</tesselate>
      <altitudeMode>relativeToGround</altitudeMode>
      <coordinates>7.62897, 46.9104,20</coordinates>
    </Point>
  </Placemark><Placemark>
    <name>Grosshöchstetten, Bahnhof</name>
    <Style><LineStyle><width>2</width></LineStyle></Style>
    <Point>
      <extrude>1</extrude>
      <tesselate>0</tesselate>
      <altitudeMode>relativeToGround</altitudeMode>
      <coordinates>7.63419, 46.9041,20</coordinates>
    </Point>
  </Placemark><Placemark>
    <name>Grosshöchstetten, Unterführung</name>
    <Style><LineStyle><width>2</width></LineStyle></Style>
    <Point>
      <extrude>1</extrude>
      <tesselate>0</tesselate>
      <altitudeMode>relativeToGround</altitudeMode>
      <coordinates>7.62111, 46.915,20</coordinates>
    </Point>
  </Placemark><Placemark>
    <name>Schlosswil, Nest</name>
    <Style><LineStyle><width>2</width></LineStyle></Style>
    <Point>
      <extrude>1</extrude>
      <tesselate>0</tesselate>
      <altitudeMode>relativeToGround</altitudeMode>
      <coordinates>7.62372, 46.9123,20</coordinates>
    </Point>
  </Placemark><Placemark>
    <name>Lützelflüh-Goldbach, Bahnhof</name>
    <Style><LineStyle><width>2</width></LineStyle></Style>
    <Point>
      <extrude>1</extrude>
      <tesselate>0</tesselate>
      <altitudeMode>relativeToGround</altitudeMode>
      <coordinates>7.6819, 47.0048,20</coordinates>
    </Point>
  </Placemark><Placemark>
    <name>Schwanden i.E., Aeschli</name>
    <Style><LineStyle><width>2</width></LineStyle></Style>
    <Point>
      <extrude>1</extrude>
      <tesselate>0</tesselate>
      <altitudeMode>relativeToGround</altitudeMode>
      <coordinates>7.68833, 46.9751,20</coordinates>
    </Point>
  </Placemark><Placemark>
    <name>Goldbach BE, Sonnhalde</name>
    <Style><LineStyle><width>2</width></LineStyle></Style>
    <Point>
      <extrude>1</extrude>
      <tesselate>0</tesselate>
      <altitudeMode>relativeToGround</altitudeMode>
      <coordinates>7.68185, 46.9949,20</coordinates>
    </Point>
  </Placemark><Placemark>
    <name>Heimisbach, Thal</name>
    <Style><LineStyle><width>2</width></LineStyle></Style>
    <Point>
      <extrude>1</extrude>
      <tesselate>0</tesselate>
      <altitudeMode>relativeToGround</altitudeMode>
      <coordinates>7.77797, 47.018,20</coordinates>
    </Point>
  </Placemark><Placemark>
    <name>Schangnau, Waldegg</name>
    <Style><LineStyle><width>2</width></LineStyle></Style>
    <Point>
      <extrude>1</extrude>
      <tesselate>0</tesselate>
      <altitudeMode>relativeToGround</altitudeMode>
      <coordinates>7.87207, 46.8214,20</coordinates>
    </Point>
  </Placemark><Placemark>
    <name>Oberwilen, Bodenmattli</name>
    <Style><LineStyle><width>2</width></LineStyle></Style>
    <Point>
      <extrude>1</extrude>
      <tesselate>0</tesselate>
      <altitudeMode>relativeToGround</altitudeMode>
      <coordinates>8.2258, 46.882,20</coordinates>
    </Point>
  </Placemark><Placemark>
    <name>Entlebuch, Schwand</name>
    <Style><LineStyle><width>2</width></LineStyle></Style>
    <Point>
      <extrude>1</extrude>
      <tesselate>0</tesselate>
      <altitudeMode>relativeToGround</altitudeMode>
      <coordinates>8.07246, 47.0065,20</coordinates>
    </Point>
  </Placemark><Placemark>
    <name>Entlebuch, Zeug</name>
    <Style><LineStyle><width>2</width></LineStyle></Style>
    <Point>
      <extrude>1</extrude>
      <tesselate>0</tesselate>
      <altitudeMode>relativeToGround</altitudeMode>
      <coordinates>8.07484, 47.0134,20</coordinates>
    </Point>
  </Placemark><Placemark>
    <name>Ebnet (Entlebuch), Bäckerei</name>
    <Style><LineStyle><width>2</width></LineStyle></Style>
    <Point>
      <extrude>1</extrude>
      <tesselate>0</tesselate>
      <altitudeMode>relativeToGround</altitudeMode>
      <coordinates>8.07696, 47.0258,20</coordinates>
    </Point>
  </Placemark><Placemark>
    <name>Finsterwald LU, Entlematt</name>
    <Style><LineStyle><width>2</width></LineStyle></Style>
    <Point>
      <extrude>1</extrude>
      <tesselate>0</tesselate>
      <altitudeMode>relativeToGround</altitudeMode>
      <coordinates>8.11141, 46.9669,20</coordinates>
    </Point>
  </Placemark><Placemark>
    <name>Hasle LU, Haldenegg</name>
    <Style><LineStyle><width>2</width></LineStyle></Style>
    <Point>
      <extrude>1</extrude>
      <tesselate>0</tesselate>
      <altitudeMode>relativeToGround</altitudeMode>
      <coordinates>8.05391, 46.9661,20</coordinates>
    </Point>
  </Placemark><Placemark>
    <name>Hasle LU, Büelweid</name>
    <Style><LineStyle><width>2</width></LineStyle></Style>
    <Point>
      <extrude>1</extrude>
      <tesselate>0</tesselate>
      <altitudeMode>relativeToGround</altitudeMode>
      <coordinates>8.0556, 46.9699,20</coordinates>
    </Point>
  </Placemark><Placemark>
    <name>Hasle LU, Hofstatt</name>
    <Style><LineStyle><width>2</width></LineStyle></Style>
    <Point>
      <extrude>1</extrude>
      <tesselate>0</tesselate>
      <altitudeMode>relativeToGround</altitudeMode>
      <coordinates>8.05698, 46.976,20</coordinates>
    </Point>
  </Placemark><Placemark>
    <name>Hasle LU, Raiffeisenbank</name>
    <Style><LineStyle><width>2</width></LineStyle></Style>
    <Point>
      <extrude>1</extrude>
      <tesselate>0</tesselate>
      <altitudeMode>relativeToGround</altitudeMode>
      <coordinates>8.05374, 46.9798,20</coordinates>
    </Point>
  </Placemark><Placemark>
    <name>Biglen, Bären</name>
    <Style><LineStyle><width>2</width></LineStyle></Style>
    <Point>
      <extrude>1</extrude>
      <tesselate>0</tesselate>
      <altitudeMode>relativeToGround</altitudeMode>
      <coordinates>7.62903, 46.9284,20</coordinates>
    </Point>
  </Placemark><Placemark>
    <name>Wiggen, Unterbach</name>
    <Style><LineStyle><width>2</width></LineStyle></Style>
    <Point>
      <extrude>1</extrude>
      <tesselate>0</tesselate>
      <altitudeMode>relativeToGround</altitudeMode>
      <coordinates>7.92192, 46.9006,20</coordinates>
    </Point>
  </Placemark><Placemark>
    <name>Biglen, Sonne</name>
    <Style><LineStyle><width>2</width></LineStyle></Style>
    <Point>
      <extrude>1</extrude>
      <tesselate>0</tesselate>
      <altitudeMode>relativeToGround</altitudeMode>
      <coordinates>7.62377, 46.9257,20</coordinates>
    </Point>
  </Placemark><Placemark>
    <name>Biglen, Biglenrohr</name>
    <Style><LineStyle><width>2</width></LineStyle></Style>
    <Point>
      <extrude>1</extrude>
      <tesselate>0</tesselate>
      <altitudeMode>relativeToGround</altitudeMode>
      <coordinates>7.62115, 46.9266,20</coordinates>
    </Point>
  </Placemark><Placemark>
    <name>Hasle-Rüegsau, Bahnhof</name>
    <Style><LineStyle><width>2</width></LineStyle></Style>
    <Point>
      <extrude>1</extrude>
      <tesselate>0</tesselate>
      <altitudeMode>relativeToGround</altitudeMode>
      <coordinates>7.65564, 47.0156,20</coordinates>
    </Point>
  </Placemark><Placemark>
    <name>Arni BE, Hämlismatt</name>
    <Style><LineStyle><width>2</width></LineStyle></Style>
    <Point>
      <extrude>1</extrude>
      <tesselate>0</tesselate>
      <altitudeMode>relativeToGround</altitudeMode>
      <coordinates>7.65402, 46.9392,20</coordinates>
    </Point>
  </Placemark><Placemark>
    <name>Entlebuch, Bahnhof</name>
    <Style><LineStyle><width>2</width></LineStyle></Style>
    <Point>
      <extrude>1</extrude>
      <tesselate>0</tesselate>
      <altitudeMode>relativeToGround</altitudeMode>
      <coordinates>8.06178, 46.9935,20</coordinates>
    </Point>
  </Placemark><Placemark>
    <name>Entlebuch, Marktplatz</name>
    <Style><LineStyle><width>2</width></LineStyle></Style>
    <Point>
      <extrude>1</extrude>
      <tesselate>0</tesselate>
      <altitudeMode>relativeToGround</altitudeMode>
      <coordinates>8.0657, 46.9907,20</coordinates>
    </Point>
  </Placemark><Placemark>
    <name>Entlebuch, Unteregg</name>
    <Style><LineStyle><width>2</width></LineStyle></Style>
    <Point>
      <extrude>1</extrude>
      <tesselate>0</tesselate>
      <altitudeMode>relativeToGround</altitudeMode>
      <coordinates>8.07576, 46.9801,20</coordinates>
    </Point>
  </Placemark><Placemark>
    <name>Entlebuch, Spüelen</name>
    <Style><LineStyle><width>2</width></LineStyle></Style>
    <Point>
      <extrude>1</extrude>
      <tesselate>0</tesselate>
      <altitudeMode>relativeToGround</altitudeMode>
      <coordinates>8.06889, 46.9831,20</coordinates>
    </Point>
  </Placemark><Placemark>
    <name>Langnau i.E., Hasenknubel</name>
    <Style><LineStyle><width>2</width></LineStyle></Style>
    <Point>
      <extrude>1</extrude>
      <tesselate>0</tesselate>
      <altitudeMode>relativeToGround</altitudeMode>
      <coordinates>7.79863, 46.9409,20</coordinates>
    </Point>
  </Placemark><Placemark>
    <name>Burgdorf, Schützenhaus</name>
    <Style><LineStyle><width>2</width></LineStyle></Style>
    <Point>
      <extrude>1</extrude>
      <tesselate>0</tesselate>
      <altitudeMode>relativeToGround</altitudeMode>
      <coordinates>7.62982, 47.0584,20</coordinates>
    </Point>
  </Placemark><Placemark>
    <name>Burgdorf, City</name>
    <Style><LineStyle><width>2</width></LineStyle></Style>
    <Point>
      <extrude>1</extrude>
      <tesselate>0</tesselate>
      <altitudeMode>relativeToGround</altitudeMode>
      <coordinates>7.6216, 47.0596,20</coordinates>
    </Point>
  </Placemark><Placemark>
    <name>Burgdorf, Kronenplatz</name>
    <Style><LineStyle><width>2</width></LineStyle></Style>
    <Point>
      <extrude>1</extrude>
      <tesselate>0</tesselate>
      <altitudeMode>relativeToGround</altitudeMode>
      <coordinates>7.62751, 47.0559,20</coordinates>
    </Point>
  </Placemark><Placemark>
    <name>Sörenberg, Post</name>
    <Style><LineStyle><width>2</width></LineStyle></Style>
    <Point>
      <extrude>1</extrude>
      <tesselate>0</tesselate>
      <altitudeMode>relativeToGround</altitudeMode>
      <coordinates>8.03424, 46.8218,20</coordinates>
    </Point>
  </Placemark><Placemark>
    <name>Schwarzenberg LU, Post</name>
    <Style><LineStyle><width>2</width></LineStyle></Style>
    <Point>
      <extrude>1</extrude>
      <tesselate>0</tesselate>
      <altitudeMode>relativeToGround</altitudeMode>
      <coordinates>8.17283, 47.0139,20</coordinates>
    </Point>
  </Placemark><Placemark>
    <name>Schangnau, Post</name>
    <Style><LineStyle><width>2</width></LineStyle></Style>
    <Point>
      <extrude>1</extrude>
      <tesselate>0</tesselate>
      <altitudeMode>relativeToGround</altitudeMode>
      <coordinates>7.86163, 46.8273,20</coordinates>
    </Point>
  </Placemark><Placemark>
    <name>Romoos, Post</name>
    <Style><LineStyle><width>2</width></LineStyle></Style>
    <Point>
      <extrude>1</extrude>
      <tesselate>0</tesselate>
      <altitudeMode>relativeToGround</altitudeMode>
      <coordinates>8.02714, 47.011,20</coordinates>
    </Point>
  </Placemark><Placemark>
    <name>Trubschachen</name>
    <Style><LineStyle><width>2</width></LineStyle></Style>
    <Point>
      <extrude>1</extrude>
      <tesselate>0</tesselate>
      <altitudeMode>relativeToGround</altitudeMode>
      <coordinates>7.84613, 46.9217,20</coordinates>
    </Point>
  </Placemark><Placemark>
    <name>Wiggen</name>
    <Style><LineStyle><width>2</width></LineStyle></Style>
    <Point>
      <extrude>1</extrude>
      <tesselate>0</tesselate>
      <altitudeMode>relativeToGround</altitudeMode>
      <coordinates>7.90138, 46.8999,20</coordinates>
    </Point>
  </Placemark><Placemark>
    <name>Konolfingen</name>
    <Style><LineStyle><width>2</width></LineStyle></Style>
    <Point>
      <extrude>1</extrude>
      <tesselate>0</tesselate>
      <altitudeMode>relativeToGround</altitudeMode>
      <coordinates>7.62136, 46.8807,20</coordinates>
    </Point>
  </Placemark><Placemark>
    <name>Zäziwil</name>
    <Style><LineStyle><width>2</width></LineStyle></Style>
    <Point>
      <extrude>1</extrude>
      <tesselate>0</tesselate>
      <altitudeMode>relativeToGround</altitudeMode>
      <coordinates>7.66288, 46.8997,20</coordinates>
    </Point>
  </Placemark><Placemark>
    <name>Emmenmatt</name>
    <Style><LineStyle><width>2</width></LineStyle></Style>
    <Point>
      <extrude>1</extrude>
      <tesselate>0</tesselate>
      <altitudeMode>relativeToGround</altitudeMode>
      <coordinates>7.74729, 46.9481,20</coordinates>
    </Point>
  </Placemark><Placemark>
    <name>Langnau</name>
    <Style><LineStyle><width>2</width></LineStyle></Style>
    <Point>
      <extrude>1</extrude>
      <tesselate>0</tesselate>
      <altitudeMode>relativeToGround</altitudeMode>
      <coordinates>7.78419, 46.9392,20</coordinates>
    </Point>
  </Placemark><Placemark>
    <name>Bowil</name>
    <Style><LineStyle><width>2</width></LineStyle></Style>
    <Point>
      <extrude>1</extrude>
      <tesselate>0</tesselate>
      <altitudeMode>relativeToGround</altitudeMode>
      <coordinates>7.69805, 46.9,20</coordinates>
    </Point>
  </Placemark><Placemark>
    <name>Signau</name>
    <Style><LineStyle><width>2</width></LineStyle></Style>
    <Point>
      <extrude>1</extrude>
      <tesselate>0</tesselate>
      <altitudeMode>relativeToGround</altitudeMode>
      <coordinates>7.72545, 46.9196,20</coordinates>
    </Point>
  </Placemark><Placemark>
    <name>Stalden OW, Abzw. Stockenmatt</name>
    <Style><LineStyle><width>2</width></LineStyle></Style>
    <Point>
      <extrude>1</extrude>
      <tesselate>0</tesselate>
      <altitudeMode>relativeToGround</altitudeMode>
      <coordinates>8.17131, 46.8788,20</coordinates>
    </Point>
  </Placemark><Placemark>
    <name>Arni BE, Schwendelweg</name>
    <Style><LineStyle><width>2</width></LineStyle></Style>
    <Point>
      <extrude>1</extrude>
      <tesselate>0</tesselate>
      <altitudeMode>relativeToGround</altitudeMode>
      <coordinates>7.68127, 46.9382,20</coordinates>
    </Point>
  </Placemark><Placemark>
    <name>Tschamerie</name>
    <Style><LineStyle><width>2</width></LineStyle></Style>
    <Point>
      <extrude>1</extrude>
      <tesselate>0</tesselate>
      <altitudeMode>relativeToGround</altitudeMode>
      <coordinates>7.63595, 47.0247,20</coordinates>
    </Point>
  </Placemark><Placemark>
    <name>Oberburg, Ziegelgut</name>
    <Style><LineStyle><width>2</width></LineStyle></Style>
    <Point>
      <extrude>1</extrude>
      <tesselate>0</tesselate>
      <altitudeMode>relativeToGround</altitudeMode>
      <coordinates>7.63333, 47.0283,20</coordinates>
    </Point>
  </Placemark></Document>
</kml>
