<kml>
<Document>

<Region>
<LatLonAltBox>
<north>47.723912</north><south>47.591425</south><east>8.533603</east><west>8.229060</west>
<minAltitude>0.000000</minAltitude><maxAltitude>0.000000</maxAltitude>
</LatLonAltBox>
<minLodPixels>2048</minLodPixels><maxLodPixels>1000000000</maxLodPixels>
<minFadeExtent>0</minFadeExtent><maxFadeExtent>0</maxFadeExtent>
</Region>
<Placemark>
    <name>Neunkirch, Emag</name>
    <Style><LineStyle><width>2</width></LineStyle></Style>
    <Point>
      <extrude>1</extrude>
      <tesselate>0</tesselate>
      <altitudeMode>relativeToGround</altitudeMode>
      <coordinates>8.50154, 47.6901,20</coordinates>
    </Point>
  </Placemark><Placemark>
    <name>Neunkirch, Bahnhof</name>
    <Style><LineStyle><width>2</width></LineStyle></Style>
    <Point>
      <extrude>1</extrude>
      <tesselate>0</tesselate>
      <altitudeMode>relativeToGround</altitudeMode>
      <coordinates>8.49486, 47.6892,20</coordinates>
    </Point>
  </Placemark><Placemark>
    <name>Oberhallau, Dorf</name>
    <Style><LineStyle><width>2</width></LineStyle></Style>
    <Point>
      <extrude>1</extrude>
      <tesselate>0</tesselate>
      <altitudeMode>relativeToGround</altitudeMode>
      <coordinates>8.47783, 47.7038,20</coordinates>
    </Point>
  </Placemark><Placemark>
    <name>Hallau, Atlingen</name>
    <Style><LineStyle><width>2</width></LineStyle></Style>
    <Point>
      <extrude>1</extrude>
      <tesselate>0</tesselate>
      <altitudeMode>relativeToGround</altitudeMode>
      <coordinates>8.46572, 47.6976,20</coordinates>
    </Point>
  </Placemark><Placemark>
    <name>Siblingen, Post</name>
    <Style><LineStyle><width>2</width></LineStyle></Style>
    <Point>
      <extrude>1</extrude>
      <tesselate>0</tesselate>
      <altitudeMode>relativeToGround</altitudeMode>
      <coordinates>8.52138, 47.7141,20</coordinates>
    </Point>
  </Placemark><Placemark>
    <name>Siblingerhöhe</name>
    <Style><LineStyle><width>2</width></LineStyle></Style>
    <Point>
      <extrude>1</extrude>
      <tesselate>0</tesselate>
      <altitudeMode>relativeToGround</altitudeMode>
      <coordinates>8.5035, 47.7215,20</coordinates>
    </Point>
  </Placemark><Placemark>
    <name>Erzingen (Baden)</name>
    <Style><LineStyle><width>2</width></LineStyle></Style>
    <Point>
      <extrude>1</extrude>
      <tesselate>0</tesselate>
      <altitudeMode>relativeToGround</altitudeMode>
      <coordinates>8.43038, 47.6601,20</coordinates>
    </Point>
  </Placemark><Placemark>
    <name>Osterfingen, Unterdorf</name>
    <Style><LineStyle><width>2</width></LineStyle></Style>
    <Point>
      <extrude>1</extrude>
      <tesselate>0</tesselate>
      <altitudeMode>relativeToGround</altitudeMode>
      <coordinates>8.48501, 47.6623,20</coordinates>
    </Point>
  </Placemark><Placemark>
    <name>Tiengen, Bahnhof</name>
    <Style><LineStyle><width>2</width></LineStyle></Style>
    <Point>
      <extrude>1</extrude>
      <tesselate>0</tesselate>
      <altitudeMode>relativeToGround</altitudeMode>
      <coordinates>8.2729, 47.6353,20</coordinates>
    </Point>
  </Placemark><Placemark>
    <name>Kadelburg, Post</name>
    <Style><LineStyle><width>2</width></LineStyle></Style>
    <Point>
      <extrude>1</extrude>
      <tesselate>0</tesselate>
      <altitudeMode>relativeToGround</altitudeMode>
      <coordinates>8.2951, 47.609,20</coordinates>
    </Point>
  </Placemark><Placemark>
    <name>Wilchingen-Hallau</name>
    <Style><LineStyle><width>2</width></LineStyle></Style>
    <Point>
      <extrude>1</extrude>
      <tesselate>0</tesselate>
      <altitudeMode>relativeToGround</altitudeMode>
      <coordinates>8.47603, 47.6795,20</coordinates>
    </Point>
  </Placemark><Placemark>
    <name>Koblenz Dorf</name>
    <Style><LineStyle><width>2</width></LineStyle></Style>
    <Point>
      <extrude>1</extrude>
      <tesselate>0</tesselate>
      <altitudeMode>relativeToGround</altitudeMode>
      <coordinates>8.24014, 47.6094,20</coordinates>
    </Point>
  </Placemark><Placemark>
    <name>Tiengen (Hochrhein)</name>
    <Style><LineStyle><width>2</width></LineStyle></Style>
    <Point>
      <extrude>1</extrude>
      <tesselate>0</tesselate>
      <altitudeMode>relativeToGround</altitudeMode>
      <coordinates>8.2729, 47.6353,20</coordinates>
    </Point>
  </Placemark><Placemark>
    <name>Hallau, Brugg</name>
    <Style><LineStyle><width>2</width></LineStyle></Style>
    <Point>
      <extrude>1</extrude>
      <tesselate>0</tesselate>
      <altitudeMode>relativeToGround</altitudeMode>
      <coordinates>8.45763, 47.6923,20</coordinates>
    </Point>
  </Placemark><Placemark>
    <name>Hallau, Post</name>
    <Style><LineStyle><width>2</width></LineStyle></Style>
    <Point>
      <extrude>1</extrude>
      <tesselate>0</tesselate>
      <altitudeMode>relativeToGround</altitudeMode>
      <coordinates>8.45372, 47.6968,20</coordinates>
    </Point>
  </Placemark><Placemark>
    <name>Wilchingen, Schulgasse</name>
    <Style><LineStyle><width>2</width></LineStyle></Style>
    <Point>
      <extrude>1</extrude>
      <tesselate>0</tesselate>
      <altitudeMode>relativeToGround</altitudeMode>
      <coordinates>8.46912, 47.667,20</coordinates>
    </Point>
  </Placemark><Placemark>
    <name>Wilchingen, Post</name>
    <Style><LineStyle><width>2</width></LineStyle></Style>
    <Point>
      <extrude>1</extrude>
      <tesselate>0</tesselate>
      <altitudeMode>relativeToGround</altitudeMode>
      <coordinates>8.46646, 47.667,20</coordinates>
    </Point>
  </Placemark><Placemark>
    <name>Wilchingen, Abendstrasse</name>
    <Style><LineStyle><width>2</width></LineStyle></Style>
    <Point>
      <extrude>1</extrude>
      <tesselate>0</tesselate>
      <altitudeMode>relativeToGround</altitudeMode>
      <coordinates>8.46382, 47.6679,20</coordinates>
    </Point>
  </Placemark><Placemark>
    <name>Wilchingen-Hallau, Bahnhof</name>
    <Style><LineStyle><width>2</width></LineStyle></Style>
    <Point>
      <extrude>1</extrude>
      <tesselate>0</tesselate>
      <altitudeMode>relativeToGround</altitudeMode>
      <coordinates>8.47603, 47.6795,20</coordinates>
    </Point>
  </Placemark><Placemark>
    <name>Trasadingen, Tanner</name>
    <Style><LineStyle><width>2</width></LineStyle></Style>
    <Point>
      <extrude>1</extrude>
      <tesselate>0</tesselate>
      <altitudeMode>relativeToGround</altitudeMode>
      <coordinates>8.43446, 47.6646,20</coordinates>
    </Point>
  </Placemark><Placemark>
    <name>Osterfingen, Dorf</name>
    <Style><LineStyle><width>2</width></LineStyle></Style>
    <Point>
      <extrude>1</extrude>
      <tesselate>0</tesselate>
      <altitudeMode>relativeToGround</altitudeMode>
      <coordinates>8.48767, 47.6623,20</coordinates>
    </Point>
  </Placemark><Placemark>
    <name>Hüntwangen, Dorf</name>
    <Style><LineStyle><width>2</width></LineStyle></Style>
    <Point>
      <extrude>1</extrude>
      <tesselate>0</tesselate>
      <altitudeMode>relativeToGround</altitudeMode>
      <coordinates>8.49276, 47.5948,20</coordinates>
    </Point>
  </Placemark><Placemark>
    <name>Gächlingen, Dorf</name>
    <Style><LineStyle><width>2</width></LineStyle></Style>
    <Point>
      <extrude>1</extrude>
      <tesselate>0</tesselate>
      <altitudeMode>relativeToGround</altitudeMode>
      <coordinates>8.49804, 47.7023,20</coordinates>
    </Point>
  </Placemark><Placemark>
    <name>Neunkirch</name>
    <Style><LineStyle><width>2</width></LineStyle></Style>
    <Point>
      <extrude>1</extrude>
      <tesselate>0</tesselate>
      <altitudeMode>relativeToGround</altitudeMode>
      <coordinates>8.49486, 47.6892,20</coordinates>
    </Point>
  </Placemark><Placemark>
    <name>Tiengen, Mitte</name>
    <Style><LineStyle><width>2</width></LineStyle></Style>
    <Point>
      <extrude>1</extrude>
      <tesselate>0</tesselate>
      <altitudeMode>relativeToGround</altitudeMode>
      <coordinates>8.2782, 47.6334,20</coordinates>
    </Point>
  </Placemark></Document>
</kml>
