<kml>
<Document>

<Region>
<LatLonAltBox>
<north>47.657669</north><south>47.591425</south><east>9.142688</east><west>8.990416</west>
<minAltitude>0.000000</minAltitude><maxAltitude>0.000000</maxAltitude>
</LatLonAltBox>
<minLodPixels>2048</minLodPixels><maxLodPixels>1000000000</maxLodPixels>
<minFadeExtent>0</minFadeExtent><maxFadeExtent>0</maxFadeExtent>
</Region>
<Placemark>
    <name>Engwang, Dorf</name>
    <Style><LineStyle><width>2</width></LineStyle></Style>
    <Point>
      <extrude>1</extrude>
      <tesselate>0</tesselate>
      <altitudeMode>relativeToGround</altitudeMode>
      <coordinates>9.0543, 47.6,20</coordinates>
    </Point>
  </Placemark><Placemark>
    <name>Müllheim Dorf, Post</name>
    <Style><LineStyle><width>2</width></LineStyle></Style>
    <Point>
      <extrude>1</extrude>
      <tesselate>0</tesselate>
      <altitudeMode>relativeToGround</altitudeMode>
      <coordinates>9.00283, 47.6023,20</coordinates>
    </Point>
  </Placemark><Placemark>
    <name>Wigoltingen, Unterdorf</name>
    <Style><LineStyle><width>2</width></LineStyle></Style>
    <Point>
      <extrude>1</extrude>
      <tesselate>0</tesselate>
      <altitudeMode>relativeToGround</altitudeMode>
      <coordinates>9.03174, 47.6017,20</coordinates>
    </Point>
  </Placemark><Placemark>
    <name>Wigoltingen, Oberdorf</name>
    <Style><LineStyle><width>2</width></LineStyle></Style>
    <Point>
      <extrude>1</extrude>
      <tesselate>0</tesselate>
      <altitudeMode>relativeToGround</altitudeMode>
      <coordinates>9.03122, 47.5956,20</coordinates>
    </Point>
  </Placemark><Placemark>
    <name>Illhart, Sternen</name>
    <Style><LineStyle><width>2</width></LineStyle></Style>
    <Point>
      <extrude>1</extrude>
      <tesselate>0</tesselate>
      <altitudeMode>relativeToGround</altitudeMode>
      <coordinates>9.03791, 47.6192,20</coordinates>
    </Point>
  </Placemark><Placemark>
    <name>Lamperswil TG</name>
    <Style><LineStyle><width>2</width></LineStyle></Style>
    <Point>
      <extrude>1</extrude>
      <tesselate>0</tesselate>
      <altitudeMode>relativeToGround</altitudeMode>
      <coordinates>9.03729, 47.6095,20</coordinates>
    </Point>
  </Placemark><Placemark>
    <name>Müllheim Dorf, Grüneck</name>
    <Style><LineStyle><width>2</width></LineStyle></Style>
    <Point>
      <extrude>1</extrude>
      <tesselate>0</tesselate>
      <altitudeMode>relativeToGround</altitudeMode>
      <coordinates>8.99076, 47.5989,20</coordinates>
    </Point>
  </Placemark><Placemark>
    <name>Lipperswil, Abzw. Conny Land</name>
    <Style><LineStyle><width>2</width></LineStyle></Style>
    <Point>
      <extrude>1</extrude>
      <tesselate>0</tesselate>
      <altitudeMode>relativeToGround</altitudeMode>
      <coordinates>9.05348, 47.6169,20</coordinates>
    </Point>
  </Placemark><Placemark>
    <name>Fruthwilen, Eggishof</name>
    <Style><LineStyle><width>2</width></LineStyle></Style>
    <Point>
      <extrude>1</extrude>
      <tesselate>0</tesselate>
      <altitudeMode>relativeToGround</altitudeMode>
      <coordinates>9.06455, 47.6528,20</coordinates>
    </Point>
  </Placemark><Placemark>
    <name>Lipperswil, Abzw.</name>
    <Style><LineStyle><width>2</width></LineStyle></Style>
    <Point>
      <extrude>1</extrude>
      <tesselate>0</tesselate>
      <altitudeMode>relativeToGround</altitudeMode>
      <coordinates>9.04188, 47.6182,20</coordinates>
    </Point>
  </Placemark><Placemark>
    <name>Lipperswil, Conny Land</name>
    <Style><LineStyle><width>2</width></LineStyle></Style>
    <Point>
      <extrude>1</extrude>
      <tesselate>0</tesselate>
      <altitudeMode>relativeToGround</altitudeMode>
      <coordinates>9.05581, 47.6147,20</coordinates>
    </Point>
  </Placemark><Placemark>
    <name>Illhart, Oberdorf</name>
    <Style><LineStyle><width>2</width></LineStyle></Style>
    <Point>
      <extrude>1</extrude>
      <tesselate>0</tesselate>
      <altitudeMode>relativeToGround</altitudeMode>
      <coordinates>9.04065, 47.6216,20</coordinates>
    </Point>
  </Placemark><Placemark>
    <name>Raperswilen, Schulhaus</name>
    <Style><LineStyle><width>2</width></LineStyle></Style>
    <Point>
      <extrude>1</extrude>
      <tesselate>0</tesselate>
      <altitudeMode>relativeToGround</altitudeMode>
      <coordinates>9.04474, 47.6359,20</coordinates>
    </Point>
  </Placemark><Placemark>
    <name>Dotnacht, Post</name>
    <Style><LineStyle><width>2</width></LineStyle></Style>
    <Point>
      <extrude>1</extrude>
      <tesselate>0</tesselate>
      <altitudeMode>relativeToGround</altitudeMode>
      <coordinates>9.1404, 47.5997,20</coordinates>
    </Point>
  </Placemark><Placemark>
    <name>Ellighausen</name>
    <Style><LineStyle><width>2</width></LineStyle></Style>
    <Point>
      <extrude>1</extrude>
      <tesselate>0</tesselate>
      <altitudeMode>relativeToGround</altitudeMode>
      <coordinates>9.13653, 47.6137,20</coordinates>
    </Point>
  </Placemark><Placemark>
    <name>Hugelshofen, Post</name>
    <Style><LineStyle><width>2</width></LineStyle></Style>
    <Point>
      <extrude>1</extrude>
      <tesselate>0</tesselate>
      <altitudeMode>relativeToGround</altitudeMode>
      <coordinates>9.11808, 47.5982,20</coordinates>
    </Point>
  </Placemark><Placemark>
    <name>Neuwilen, Dorf</name>
    <Style><LineStyle><width>2</width></LineStyle></Style>
    <Point>
      <extrude>1</extrude>
      <tesselate>0</tesselate>
      <altitudeMode>relativeToGround</altitudeMode>
      <coordinates>9.13614, 47.6223,20</coordinates>
    </Point>
  </Placemark></Document>
</kml>
