<kml>
<Document>

<Region>
<LatLonAltBox>
<north>47.657669</north><south>47.591425</south><east>8.990416</east><west>8.838145</west>
<minAltitude>0.000000</minAltitude><maxAltitude>0.000000</maxAltitude>
</LatLonAltBox>
<minLodPixels>2048</minLodPixels><maxLodPixels>1000000000</maxLodPixels>
<minFadeExtent>0</minFadeExtent><maxFadeExtent>0</maxFadeExtent>
</Region>
<Placemark>
    <name>Pfyn, Bürgi</name>
    <Style><LineStyle><width>2</width></LineStyle></Style>
    <Point>
      <extrude>1</extrude>
      <tesselate>0</tesselate>
      <altitudeMode>relativeToGround</altitudeMode>
      <coordinates>8.95144, 47.596,20</coordinates>
    </Point>
  </Placemark><Placemark>
    <name>Pfyn, Grütli</name>
    <Style><LineStyle><width>2</width></LineStyle></Style>
    <Point>
      <extrude>1</extrude>
      <tesselate>0</tesselate>
      <altitudeMode>relativeToGround</altitudeMode>
      <coordinates>8.95277, 47.5958,20</coordinates>
    </Point>
  </Placemark><Placemark>
    <name>Steckborn, Eichhölzli</name>
    <Style><LineStyle><width>2</width></LineStyle></Style>
    <Point>
      <extrude>1</extrude>
      <tesselate>0</tesselate>
      <altitudeMode>relativeToGround</altitudeMode>
      <coordinates>8.97801, 47.6524,20</coordinates>
    </Point>
  </Placemark><Placemark>
    <name>Stein am Rhein, Bahnhof</name>
    <Style><LineStyle><width>2</width></LineStyle></Style>
    <Point>
      <extrude>1</extrude>
      <tesselate>0</tesselate>
      <altitudeMode>relativeToGround</altitudeMode>
      <coordinates>8.85497, 47.6559,20</coordinates>
    </Point>
  </Placemark><Placemark>
    <name>Dettighofen (Lanzen), Käserei</name>
    <Style><LineStyle><width>2</width></LineStyle></Style>
    <Point>
      <extrude>1</extrude>
      <tesselate>0</tesselate>
      <altitudeMode>relativeToGround</altitudeMode>
      <coordinates>8.95439, 47.6179,20</coordinates>
    </Point>
  </Placemark><Placemark>
    <name>Lanzenneunforn, Schweikhof</name>
    <Style><LineStyle><width>2</width></LineStyle></Style>
    <Point>
      <extrude>1</extrude>
      <tesselate>0</tesselate>
      <altitudeMode>relativeToGround</altitudeMode>
      <coordinates>8.95528, 47.6257,20</coordinates>
    </Point>
  </Placemark><Placemark>
    <name>Reckenwil, Steinberg</name>
    <Style><LineStyle><width>2</width></LineStyle></Style>
    <Point>
      <extrude>1</extrude>
      <tesselate>0</tesselate>
      <altitudeMode>relativeToGround</altitudeMode>
      <coordinates>8.98981, 47.6347,20</coordinates>
    </Point>
  </Placemark><Placemark>
    <name>Lanzenneunforn, Post</name>
    <Style><LineStyle><width>2</width></LineStyle></Style>
    <Point>
      <extrude>1</extrude>
      <tesselate>0</tesselate>
      <altitudeMode>relativeToGround</altitudeMode>
      <coordinates>8.93923, 47.6225,20</coordinates>
    </Point>
  </Placemark><Placemark>
    <name>Hörhausen, Post</name>
    <Style><LineStyle><width>2</width></LineStyle></Style>
    <Point>
      <extrude>1</extrude>
      <tesselate>0</tesselate>
      <altitudeMode>relativeToGround</altitudeMode>
      <coordinates>8.9681, 47.6318,20</coordinates>
    </Point>
  </Placemark><Placemark>
    <name>Hüttwilen, Oberdorf</name>
    <Style><LineStyle><width>2</width></LineStyle></Style>
    <Point>
      <extrude>1</extrude>
      <tesselate>0</tesselate>
      <altitudeMode>relativeToGround</altitudeMode>
      <coordinates>8.87103, 47.6099,20</coordinates>
    </Point>
  </Placemark><Placemark>
    <name>Eschenz, Post</name>
    <Style><LineStyle><width>2</width></LineStyle></Style>
    <Point>
      <extrude>1</extrude>
      <tesselate>0</tesselate>
      <altitudeMode>relativeToGround</altitudeMode>
      <coordinates>8.87371, 47.6474,20</coordinates>
    </Point>
  </Placemark></Document>
</kml>
