<kml>
<Document>

<Region>
<LatLonAltBox>
<north>47.657669</north><south>47.591425</south><east>9.294959</east><west>9.142688</west>
<minAltitude>0.000000</minAltitude><maxAltitude>0.000000</maxAltitude>
</LatLonAltBox>
<minLodPixels>2048</minLodPixels><maxLodPixels>1000000000</maxLodPixels>
<minFadeExtent>0</minFadeExtent><maxFadeExtent>0</maxFadeExtent>
</Region>
<Placemark>
    <name>Landschlacht, Post</name>
    <Style><LineStyle><width>2</width></LineStyle></Style>
    <Point>
      <extrude>1</extrude>
      <tesselate>0</tesselate>
      <altitudeMode>relativeToGround</altitudeMode>
      <coordinates>9.24542, 47.6274,20</coordinates>
    </Point>
  </Placemark><Placemark>
    <name>Landschlacht, Vorderdorf</name>
    <Style><LineStyle><width>2</width></LineStyle></Style>
    <Point>
      <extrude>1</extrude>
      <tesselate>0</tesselate>
      <altitudeMode>relativeToGround</altitudeMode>
      <coordinates>9.25006, 47.6268,20</coordinates>
    </Point>
  </Placemark><Placemark>
    <name>Kreuzlingen, Rebstockplatz</name>
    <Style><LineStyle><width>2</width></LineStyle></Style>
    <Point>
      <extrude>1</extrude>
      <tesselate>0</tesselate>
      <altitudeMode>relativeToGround</altitudeMode>
      <coordinates>9.16292, 47.648,20</coordinates>
    </Point>
  </Placemark><Placemark>
    <name>Kreuzlingen, Bärenplatz</name>
    <Style><LineStyle><width>2</width></LineStyle></Style>
    <Point>
      <extrude>1</extrude>
      <tesselate>0</tesselate>
      <altitudeMode>relativeToGround</altitudeMode>
      <coordinates>9.17551, 47.6464,20</coordinates>
    </Point>
  </Placemark><Placemark>
    <name>Kreuzlingen, Kurzrickenbach</name>
    <Style><LineStyle><width>2</width></LineStyle></Style>
    <Point>
      <extrude>1</extrude>
      <tesselate>0</tesselate>
      <altitudeMode>relativeToGround</altitudeMode>
      <coordinates>9.1946, 47.6398,20</coordinates>
    </Point>
  </Placemark><Placemark>
    <name>Kreuzlingen, Zielstrasse</name>
    <Style><LineStyle><width>2</width></LineStyle></Style>
    <Point>
      <extrude>1</extrude>
      <tesselate>0</tesselate>
      <altitudeMode>relativeToGround</altitudeMode>
      <coordinates>9.20058, 47.6398,20</coordinates>
    </Point>
  </Placemark><Placemark>
    <name>Alterswilen</name>
    <Style><LineStyle><width>2</width></LineStyle></Style>
    <Point>
      <extrude>1</extrude>
      <tesselate>0</tesselate>
      <altitudeMode>relativeToGround</altitudeMode>
      <coordinates>9.15368, 47.6094,20</coordinates>
    </Point>
  </Placemark><Placemark>
    <name>Scherzingen, Bäckerstübli</name>
    <Style><LineStyle><width>2</width></LineStyle></Style>
    <Point>
      <extrude>1</extrude>
      <tesselate>0</tesselate>
      <altitudeMode>relativeToGround</altitudeMode>
      <coordinates>9.22622, 47.6304,20</coordinates>
    </Point>
  </Placemark><Placemark>
    <name>Schönenbaumgarten</name>
    <Style><LineStyle><width>2</width></LineStyle></Style>
    <Point>
      <extrude>1</extrude>
      <tesselate>0</tesselate>
      <altitudeMode>relativeToGround</altitudeMode>
      <coordinates>9.23101, 47.6145,20</coordinates>
    </Point>
  </Placemark><Placemark>
    <name>Bottighofen, altes Schulhaus</name>
    <Style><LineStyle><width>2</width></LineStyle></Style>
    <Point>
      <extrude>1</extrude>
      <tesselate>0</tesselate>
      <altitudeMode>relativeToGround</altitudeMode>
      <coordinates>9.21055, 47.6394,20</coordinates>
    </Point>
  </Placemark><Placemark>
    <name>Bottighofen, Post</name>
    <Style><LineStyle><width>2</width></LineStyle></Style>
    <Point>
      <extrude>1</extrude>
      <tesselate>0</tesselate>
      <altitudeMode>relativeToGround</altitudeMode>
      <coordinates>9.20724, 47.6399,20</coordinates>
    </Point>
  </Placemark><Placemark>
    <name>Münsterlingen, Spitaleingang</name>
    <Style><LineStyle><width>2</width></LineStyle></Style>
    <Point>
      <extrude>1</extrude>
      <tesselate>0</tesselate>
      <altitudeMode>relativeToGround</altitudeMode>
      <coordinates>9.23689, 47.6311,20</coordinates>
    </Point>
  </Placemark><Placemark>
    <name>Scherzingen, Scheidweg</name>
    <Style><LineStyle><width>2</width></LineStyle></Style>
    <Point>
      <extrude>1</extrude>
      <tesselate>0</tesselate>
      <altitudeMode>relativeToGround</altitudeMode>
      <coordinates>9.22037, 47.6345,20</coordinates>
    </Point>
  </Placemark><Placemark>
    <name>Münsterlingen, Nonnenpförtli</name>
    <Style><LineStyle><width>2</width></LineStyle></Style>
    <Point>
      <extrude>1</extrude>
      <tesselate>0</tesselate>
      <altitudeMode>relativeToGround</altitudeMode>
      <coordinates>9.23437, 47.6313,20</coordinates>
    </Point>
  </Placemark></Document>
</kml>
