<kml>
<Document>

<Region>
<LatLonAltBox>
<north>47.392694</north><south>47.359572</south><east>8.838145</east><west>8.762009</west>
<minAltitude>0.000000</minAltitude><maxAltitude>0.000000</maxAltitude>
</LatLonAltBox>
<minLodPixels>2048</minLodPixels><maxLodPixels>1000000000</maxLodPixels>
<minFadeExtent>0</minFadeExtent><maxFadeExtent>0</maxFadeExtent>
</Region>
<Placemark>
    <name>Pfäffikon ZH, Abzw. Rutschberg</name>
    <Style><LineStyle><width>2</width></LineStyle></Style>
    <Point>
      <extrude>1</extrude>
      <tesselate>0</tesselate>
      <altitudeMode>relativeToGround</altitudeMode>
      <coordinates>8.76675, 47.3628,20</coordinates>
    </Point>
  </Placemark><Placemark>
    <name>Pfäffikon ZH, im Spitz</name>
    <Style><LineStyle><width>2</width></LineStyle></Style>
    <Point>
      <extrude>1</extrude>
      <tesselate>0</tesselate>
      <altitudeMode>relativeToGround</altitudeMode>
      <coordinates>8.7721, 47.3653,20</coordinates>
    </Point>
  </Placemark><Placemark>
    <name>Pfäffikon ZH, Kirche</name>
    <Style><LineStyle><width>2</width></LineStyle></Style>
    <Point>
      <extrude>1</extrude>
      <tesselate>0</tesselate>
      <altitudeMode>relativeToGround</altitudeMode>
      <coordinates>8.78086, 47.3656,20</coordinates>
    </Point>
  </Placemark><Placemark>
    <name>Russikon, Tüfi</name>
    <Style><LineStyle><width>2</width></LineStyle></Style>
    <Point>
      <extrude>1</extrude>
      <tesselate>0</tesselate>
      <altitudeMode>relativeToGround</altitudeMode>
      <coordinates>8.77486, 47.3914,20</coordinates>
    </Point>
  </Placemark><Placemark>
    <name>Pfäffikon ZH, Sulzberg</name>
    <Style><LineStyle><width>2</width></LineStyle></Style>
    <Point>
      <extrude>1</extrude>
      <tesselate>0</tesselate>
      <altitudeMode>relativeToGround</altitudeMode>
      <coordinates>8.78214, 47.3796,20</coordinates>
    </Point>
  </Placemark><Placemark>
    <name>Pfäffikon ZH, Frohwies</name>
    <Style><LineStyle><width>2</width></LineStyle></Style>
    <Point>
      <extrude>1</extrude>
      <tesselate>0</tesselate>
      <altitudeMode>relativeToGround</altitudeMode>
      <coordinates>8.78152, 47.3682,20</coordinates>
    </Point>
  </Placemark><Placemark>
    <name>Pfäffikon ZH, Grüter</name>
    <Style><LineStyle><width>2</width></LineStyle></Style>
    <Point>
      <extrude>1</extrude>
      <tesselate>0</tesselate>
      <altitudeMode>relativeToGround</altitudeMode>
      <coordinates>8.82032, 47.3862,20</coordinates>
    </Point>
  </Placemark><Placemark>
    <name>Hittnau, Hasel/Schönau</name>
    <Style><LineStyle><width>2</width></LineStyle></Style>
    <Point>
      <extrude>1</extrude>
      <tesselate>0</tesselate>
      <altitudeMode>relativeToGround</altitudeMode>
      <coordinates>8.83212, 47.3797,20</coordinates>
    </Point>
  </Placemark><Placemark>
    <name>Pfäffikon ZH, Wiesengrund</name>
    <Style><LineStyle><width>2</width></LineStyle></Style>
    <Point>
      <extrude>1</extrude>
      <tesselate>0</tesselate>
      <altitudeMode>relativeToGround</altitudeMode>
      <coordinates>8.7902, 47.3736,20</coordinates>
    </Point>
  </Placemark><Placemark>
    <name>Pfäffikon ZH, Humbel</name>
    <Style><LineStyle><width>2</width></LineStyle></Style>
    <Point>
      <extrude>1</extrude>
      <tesselate>0</tesselate>
      <altitudeMode>relativeToGround</altitudeMode>
      <coordinates>8.80083, 47.3818,20</coordinates>
    </Point>
  </Placemark><Placemark>
    <name>Pfäffikon ZH, Wallikon</name>
    <Style><LineStyle><width>2</width></LineStyle></Style>
    <Point>
      <extrude>1</extrude>
      <tesselate>0</tesselate>
      <altitudeMode>relativeToGround</altitudeMode>
      <coordinates>8.80283, 47.3793,20</coordinates>
    </Point>
  </Placemark><Placemark>
    <name>Pfäffikon ZH, Berg</name>
    <Style><LineStyle><width>2</width></LineStyle></Style>
    <Point>
      <extrude>1</extrude>
      <tesselate>0</tesselate>
      <altitudeMode>relativeToGround</altitudeMode>
      <coordinates>8.79584, 47.3742,20</coordinates>
    </Point>
  </Placemark></Document>
</kml>
