<kml>
<Document>

<Region>
<LatLonAltBox>
<north>47.359572</north><south>47.326450</south><east>8.381331</east><west>8.305196</west>
<minAltitude>0.000000</minAltitude><maxAltitude>0.000000</maxAltitude>
</LatLonAltBox>
<minLodPixels>2048</minLodPixels><maxLodPixels>1000000000</maxLodPixels>
<minFadeExtent>0</minFadeExtent><maxFadeExtent>0</maxFadeExtent>
</Region>
<Placemark>
    <name>Waltenschwil, Hessel</name>
    <Style><LineStyle><width>2</width></LineStyle></Style>
    <Point>
      <extrude>1</extrude>
      <tesselate>0</tesselate>
      <altitudeMode>relativeToGround</altitudeMode>
      <coordinates>8.30855, 47.3341,20</coordinates>
    </Point>
  </Placemark><Placemark>
    <name>Zufikon Hammergut</name>
    <Style><LineStyle><width>2</width></LineStyle></Style>
    <Point>
      <extrude>1</extrude>
      <tesselate>0</tesselate>
      <altitudeMode>relativeToGround</altitudeMode>
      <coordinates>8.35473, 47.3558,20</coordinates>
    </Point>
  </Placemark><Placemark>
    <name>Bremgarten AG, Elro</name>
    <Style><LineStyle><width>2</width></LineStyle></Style>
    <Point>
      <extrude>1</extrude>
      <tesselate>0</tesselate>
      <altitudeMode>relativeToGround</altitudeMode>
      <coordinates>8.32544, 47.3554,20</coordinates>
    </Point>
  </Placemark><Placemark>
    <name>Zufikon, Algier</name>
    <Style><LineStyle><width>2</width></LineStyle></Style>
    <Point>
      <extrude>1</extrude>
      <tesselate>0</tesselate>
      <altitudeMode>relativeToGround</altitudeMode>
      <coordinates>8.35467, 47.3418,20</coordinates>
    </Point>
  </Placemark><Placemark>
    <name>Zufikon, Emaus</name>
    <Style><LineStyle><width>2</width></LineStyle></Style>
    <Point>
      <extrude>1</extrude>
      <tesselate>0</tesselate>
      <altitudeMode>relativeToGround</altitudeMode>
      <coordinates>8.35193, 47.3447,20</coordinates>
    </Point>
  </Placemark><Placemark>
    <name>Bremgarten AG, Kaserne</name>
    <Style><LineStyle><width>2</width></LineStyle></Style>
    <Point>
      <extrude>1</extrude>
      <tesselate>0</tesselate>
      <altitudeMode>relativeToGround</altitudeMode>
      <coordinates>8.33277, 47.3582,20</coordinates>
    </Point>
  </Placemark><Placemark>
    <name>Bremgarten AG, Bibenlos</name>
    <Style><LineStyle><width>2</width></LineStyle></Style>
    <Point>
      <extrude>1</extrude>
      <tesselate>0</tesselate>
      <altitudeMode>relativeToGround</altitudeMode>
      <coordinates>8.3499, 47.3536,20</coordinates>
    </Point>
  </Placemark><Placemark>
    <name>Staffeln AG, Schulhaus</name>
    <Style><LineStyle><width>2</width></LineStyle></Style>
    <Point>
      <extrude>1</extrude>
      <tesselate>0</tesselate>
      <altitudeMode>relativeToGround</altitudeMode>
      <coordinates>8.34189, 47.3298,20</coordinates>
    </Point>
  </Placemark><Placemark>
    <name>Berikon, Kreisschule</name>
    <Style><LineStyle><width>2</width></LineStyle></Style>
    <Point>
      <extrude>1</extrude>
      <tesselate>0</tesselate>
      <altitudeMode>relativeToGround</altitudeMode>
      <coordinates>8.36648, 47.3557,20</coordinates>
    </Point>
  </Placemark><Placemark>
    <name>Berikon, Mattenhof</name>
    <Style><LineStyle><width>2</width></LineStyle></Style>
    <Point>
      <extrude>1</extrude>
      <tesselate>0</tesselate>
      <altitudeMode>relativeToGround</altitudeMode>
      <coordinates>8.3805, 47.3439,20</coordinates>
    </Point>
  </Placemark><Placemark>
    <name>Bremgarten AG, West</name>
    <Style><LineStyle><width>2</width></LineStyle></Style>
    <Point>
      <extrude>1</extrude>
      <tesselate>0</tesselate>
      <altitudeMode>relativeToGround</altitudeMode>
      <coordinates>8.33851, 47.3452,20</coordinates>
    </Point>
  </Placemark><Placemark>
    <name>Hermetschwil, Kloster</name>
    <Style><LineStyle><width>2</width></LineStyle></Style>
    <Point>
      <extrude>1</extrude>
      <tesselate>0</tesselate>
      <altitudeMode>relativeToGround</altitudeMode>
      <coordinates>8.34493, 47.3339,20</coordinates>
    </Point>
  </Placemark><Placemark>
    <name>Staffeln AG, Gass</name>
    <Style><LineStyle><width>2</width></LineStyle></Style>
    <Point>
      <extrude>1</extrude>
      <tesselate>0</tesselate>
      <altitudeMode>relativeToGround</altitudeMode>
      <coordinates>8.33994, 47.3321,20</coordinates>
    </Point>
  </Placemark><Placemark>
    <name>Bremgarten Obertor</name>
    <Style><LineStyle><width>2</width></LineStyle></Style>
    <Point>
      <extrude>1</extrude>
      <tesselate>0</tesselate>
      <altitudeMode>relativeToGround</altitudeMode>
      <coordinates>8.34323, 47.3505,20</coordinates>
    </Point>
  </Placemark><Placemark>
    <name>Berikon, Staldenkreuzung</name>
    <Style><LineStyle><width>2</width></LineStyle></Style>
    <Point>
      <extrude>1</extrude>
      <tesselate>0</tesselate>
      <altitudeMode>relativeToGround</altitudeMode>
      <coordinates>8.37627, 47.3478,20</coordinates>
    </Point>
  </Placemark><Placemark>
    <name>Belveder BDWM</name>
    <Style><LineStyle><width>2</width></LineStyle></Style>
    <Point>
      <extrude>1</extrude>
      <tesselate>0</tesselate>
      <altitudeMode>relativeToGround</altitudeMode>
      <coordinates>8.35923, 47.3576,20</coordinates>
    </Point>
  </Placemark><Placemark>
    <name>Erdmannlistein</name>
    <Style><LineStyle><width>2</width></LineStyle></Style>
    <Point>
      <extrude>1</extrude>
      <tesselate>0</tesselate>
      <altitudeMode>relativeToGround</altitudeMode>
      <coordinates>8.31276, 47.3496,20</coordinates>
    </Point>
  </Placemark><Placemark>
    <name>Bremgarten AG, Fischbacherstr.</name>
    <Style><LineStyle><width>2</width></LineStyle></Style>
    <Point>
      <extrude>1</extrude>
      <tesselate>0</tesselate>
      <altitudeMode>relativeToGround</altitudeMode>
      <coordinates>8.32282, 47.357,20</coordinates>
    </Point>
  </Placemark><Placemark>
    <name>Bremgarten AG, Meyerhof</name>
    <Style><LineStyle><width>2</width></LineStyle></Style>
    <Point>
      <extrude>1</extrude>
      <tesselate>0</tesselate>
      <altitudeMode>relativeToGround</altitudeMode>
      <coordinates>8.34037, 47.3573,20</coordinates>
    </Point>
  </Placemark><Placemark>
    <name>Berikon, Post</name>
    <Style><LineStyle><width>2</width></LineStyle></Style>
    <Point>
      <extrude>1</extrude>
      <tesselate>0</tesselate>
      <altitudeMode>relativeToGround</altitudeMode>
      <coordinates>8.37169, 47.3507,20</coordinates>
    </Point>
  </Placemark><Placemark>
    <name>Hermetschwil, alte Post</name>
    <Style><LineStyle><width>2</width></LineStyle></Style>
    <Point>
      <extrude>1</extrude>
      <tesselate>0</tesselate>
      <altitudeMode>relativeToGround</altitudeMode>
      <coordinates>8.3462, 47.3307,20</coordinates>
    </Point>
  </Placemark><Placemark>
    <name>Zufikon, Volg</name>
    <Style><LineStyle><width>2</width></LineStyle></Style>
    <Point>
      <extrude>1</extrude>
      <tesselate>0</tesselate>
      <altitudeMode>relativeToGround</altitudeMode>
      <coordinates>8.35691, 47.3454,20</coordinates>
    </Point>
  </Placemark><Placemark>
    <name>Zufikon, Haldenstrasse</name>
    <Style><LineStyle><width>2</width></LineStyle></Style>
    <Point>
      <extrude>1</extrude>
      <tesselate>0</tesselate>
      <altitudeMode>relativeToGround</altitudeMode>
      <coordinates>8.35667, 47.343,20</coordinates>
    </Point>
  </Placemark><Placemark>
    <name>Bremgarten AG, Marktgasse</name>
    <Style><LineStyle><width>2</width></LineStyle></Style>
    <Point>
      <extrude>1</extrude>
      <tesselate>0</tesselate>
      <altitudeMode>relativeToGround</altitudeMode>
      <coordinates>8.34257, 47.3505,20</coordinates>
    </Point>
  </Placemark><Placemark>
    <name>Bremgarten AG, Waage</name>
    <Style><LineStyle><width>2</width></LineStyle></Style>
    <Point>
      <extrude>1</extrude>
      <tesselate>0</tesselate>
      <altitudeMode>relativeToGround</altitudeMode>
      <coordinates>8.3399, 47.3492,20</coordinates>
    </Point>
  </Placemark></Document>
</kml>
