<kml>
<Document>

<Region>
<LatLonAltBox>
<north>47.591425</north><south>47.326450</south><east>8.838145</east><west>8.229060</west>
<minAltitude>0.000000</minAltitude><maxAltitude>0.000000</maxAltitude>
</LatLonAltBox>
<minLodPixels>2048</minLodPixels><maxLodPixels>1000000000</maxLodPixels>
<minFadeExtent>0</minFadeExtent><maxFadeExtent>0</maxFadeExtent>
</Region>
<NetworkLink>
<name>01020</name>

<Region>
<LatLonAltBox>
<north>47.591425</north><south>47.458938</south><east>8.533603</east><west>8.229060</west>
<minAltitude>0.000000</minAltitude><maxAltitude>0.000000</maxAltitude>
</LatLonAltBox>
<minLodPixels>256</minLodPixels><maxLodPixels>1000000000</maxLodPixels>
<minFadeExtent>0</minFadeExtent><maxFadeExtent>0</maxFadeExtent>
</Region>
<Link>
<href>01020.kml</href><viewRefreshMode>onRegion</viewRefreshMode></Link>
</NetworkLink>
<NetworkLink>
<name>01021</name>

<Region>
<LatLonAltBox>
<north>47.591425</north><south>47.458938</south><east>8.838145</east><west>8.533603</west>
<minAltitude>0.000000</minAltitude><maxAltitude>0.000000</maxAltitude>
</LatLonAltBox>
<minLodPixels>256</minLodPixels><maxLodPixels>1000000000</maxLodPixels>
<minFadeExtent>0</minFadeExtent><maxFadeExtent>0</maxFadeExtent>
</Region>
<Link>
<href>01021.kml</href><viewRefreshMode>onRegion</viewRefreshMode></Link>
</NetworkLink>
<NetworkLink>
<name>01022</name>

<Region>
<LatLonAltBox>
<north>47.458938</north><south>47.326450</south><east>8.533603</east><west>8.229060</west>
<minAltitude>0.000000</minAltitude><maxAltitude>0.000000</maxAltitude>
</LatLonAltBox>
<minLodPixels>256</minLodPixels><maxLodPixels>1000000000</maxLodPixels>
<minFadeExtent>0</minFadeExtent><maxFadeExtent>0</maxFadeExtent>
</Region>
<Link>
<href>01022.kml</href><viewRefreshMode>onRegion</viewRefreshMode></Link>
</NetworkLink>
<NetworkLink>
<name>01023</name>

<Region>
<LatLonAltBox>
<north>47.458938</north><south>47.326450</south><east>8.838145</east><west>8.533603</west>
<minAltitude>0.000000</minAltitude><maxAltitude>0.000000</maxAltitude>
</LatLonAltBox>
<minLodPixels>256</minLodPixels><maxLodPixels>1000000000</maxLodPixels>
<minFadeExtent>0</minFadeExtent><maxFadeExtent>0</maxFadeExtent>
</Region>
<Link>
<href>01023.kml</href><viewRefreshMode>onRegion</viewRefreshMode></Link>
</NetworkLink>
<Placemark>
    <name>Wettswil a.A., Moosstrasse</name>
    <Style><LineStyle><width>2</width></LineStyle></Style>
    <Point>
      <extrude>1</extrude>
      <tesselate>0</tesselate>
      <altitudeMode>relativeToGround</altitudeMode>
      <coordinates>8.47475, 47.335,20</coordinates>
    </Point>
  </Placemark><Placemark>
    <name>Niederrohrdorf, Fohrhölzli</name>
    <Style><LineStyle><width>2</width></LineStyle></Style>
    <Point>
      <extrude>1</extrude>
      <tesselate>0</tesselate>
      <altitudeMode>relativeToGround</altitudeMode>
      <coordinates>8.30447, 47.4293,20</coordinates>
    </Point>
  </Placemark><Placemark>
    <name>Fislisbach, Monopol</name>
    <Style><LineStyle><width>2</width></LineStyle></Style>
    <Point>
      <extrude>1</extrude>
      <tesselate>0</tesselate>
      <altitudeMode>relativeToGround</altitudeMode>
      <coordinates>8.29766, 47.4381,20</coordinates>
    </Point>
  </Placemark><Placemark>
    <name>Wiesendangen, Gemeindehaus</name>
    <Style><LineStyle><width>2</width></LineStyle></Style>
    <Point>
      <extrude>1</extrude>
      <tesselate>0</tesselate>
      <altitudeMode>relativeToGround</altitudeMode>
      <coordinates>8.78827, 47.5225,20</coordinates>
    </Point>
  </Placemark><Placemark>
    <name>Wiesendangen, Dorf</name>
    <Style><LineStyle><width>2</width></LineStyle></Style>
    <Point>
      <extrude>1</extrude>
      <tesselate>0</tesselate>
      <altitudeMode>relativeToGround</altitudeMode>
      <coordinates>8.79029, 47.5212,20</coordinates>
    </Point>
  </Placemark><Placemark>
    <name>Wiesendangen, Hinterdorf</name>
    <Style><LineStyle><width>2</width></LineStyle></Style>
    <Point>
      <extrude>1</extrude>
      <tesselate>0</tesselate>
      <altitudeMode>relativeToGround</altitudeMode>
      <coordinates>8.79494, 47.522,20</coordinates>
    </Point>
  </Placemark><Placemark>
    <name>Bülach, Landi</name>
    <Style><LineStyle><width>2</width></LineStyle></Style>
    <Point>
      <extrude>1</extrude>
      <tesselate>0</tesselate>
      <altitudeMode>relativeToGround</altitudeMode>
      <coordinates>8.54649, 47.5201,20</coordinates>
    </Point>
  </Placemark><Placemark>
    <name>Wildberg, Schalchen</name>
    <Style><LineStyle><width>2</width></LineStyle></Style>
    <Point>
      <extrude>1</extrude>
      <tesselate>0</tesselate>
      <altitudeMode>relativeToGround</altitudeMode>
      <coordinates>8.82647, 47.4064,20</coordinates>
    </Point>
  </Placemark><Placemark>
    <name>Bülach, Schwerzgrueb</name>
    <Style><LineStyle><width>2</width></LineStyle></Style>
    <Point>
      <extrude>1</extrude>
      <tesselate>0</tesselate>
      <altitudeMode>relativeToGround</altitudeMode>
      <coordinates>8.54406, 47.515,20</coordinates>
    </Point>
  </Placemark><Placemark>
    <name>Bülach, Tiefengasse</name>
    <Style><LineStyle><width>2</width></LineStyle></Style>
    <Point>
      <extrude>1</extrude>
      <tesselate>0</tesselate>
      <altitudeMode>relativeToGround</altitudeMode>
      <coordinates>8.53325, 47.5147,20</coordinates>
    </Point>
  </Placemark><Placemark>
    <name>Bülach, Stadthalle</name>
    <Style><LineStyle><width>2</width></LineStyle></Style>
    <Point>
      <extrude>1</extrude>
      <tesselate>0</tesselate>
      <altitudeMode>relativeToGround</altitudeMode>
      <coordinates>8.5371, 47.5154,20</coordinates>
    </Point>
  </Placemark><Placemark>
    <name>Bülach, Engelwis</name>
    <Style><LineStyle><width>2</width></LineStyle></Style>
    <Point>
      <extrude>1</extrude>
      <tesselate>0</tesselate>
      <altitudeMode>relativeToGround</altitudeMode>
      <coordinates>8.53644, 47.5116,20</coordinates>
    </Point>
  </Placemark><Placemark>
    <name>Bülach, Erachfeld</name>
    <Style><LineStyle><width>2</width></LineStyle></Style>
    <Point>
      <extrude>1</extrude>
      <tesselate>0</tesselate>
      <altitudeMode>relativeToGround</altitudeMode>
      <coordinates>8.53429, 47.5133,20</coordinates>
    </Point>
  </Placemark><Placemark>
    <name>Bachenbülach, Bramenländli</name>
    <Style><LineStyle><width>2</width></LineStyle></Style>
    <Point>
      <extrude>1</extrude>
      <tesselate>0</tesselate>
      <altitudeMode>relativeToGround</altitudeMode>
      <coordinates>8.53717, 47.503,20</coordinates>
    </Point>
  </Placemark><Placemark>
    <name>Bülach, Feld-/Grenzstrasse</name>
    <Style><LineStyle><width>2</width></LineStyle></Style>
    <Point>
      <extrude>1</extrude>
      <tesselate>0</tesselate>
      <altitudeMode>relativeToGround</altitudeMode>
      <coordinates>8.54138, 47.5076,20</coordinates>
    </Point>
  </Placemark><Placemark>
    <name>Bülach, Stubenchlaus</name>
    <Style><LineStyle><width>2</width></LineStyle></Style>
    <Point>
      <extrude>1</extrude>
      <tesselate>0</tesselate>
      <altitudeMode>relativeToGround</altitudeMode>
      <coordinates>8.55197, 47.5223,20</coordinates>
    </Point>
  </Placemark><Placemark>
    <name>Würenlingen, Weissenstein</name>
    <Style><LineStyle><width>2</width></LineStyle></Style>
    <Point>
      <extrude>1</extrude>
      <tesselate>0</tesselate>
      <altitudeMode>relativeToGround</altitudeMode>
      <coordinates>8.24728, 47.5253,20</coordinates>
    </Point>
  </Placemark><Placemark>
    <name>Kleindöttingen, Post</name>
    <Style><LineStyle><width>2</width></LineStyle></Style>
    <Point>
      <extrude>1</extrude>
      <tesselate>0</tesselate>
      <altitudeMode>relativeToGround</altitudeMode>
      <coordinates>8.24798, 47.5714,20</coordinates>
    </Point>
  </Placemark><Placemark>
    <name>Windlach, Raat</name>
    <Style><LineStyle><width>2</width></LineStyle></Style>
    <Point>
      <extrude>1</extrude>
      <tesselate>0</tesselate>
      <altitudeMode>relativeToGround</altitudeMode>
      <coordinates>8.45845, 47.5445,20</coordinates>
    </Point>
  </Placemark><Placemark>
    <name>Schneisingen, Post</name>
    <Style><LineStyle><width>2</width></LineStyle></Style>
    <Point>
      <extrude>1</extrude>
      <tesselate>0</tesselate>
      <altitudeMode>relativeToGround</altitudeMode>
      <coordinates>8.36336, 47.5195,20</coordinates>
    </Point>
  </Placemark><Placemark>
    <name>Zurzacherberg, Passhöhe</name>
    <Style><LineStyle><width>2</width></LineStyle></Style>
    <Point>
      <extrude>1</extrude>
      <tesselate>0</tesselate>
      <altitudeMode>relativeToGround</altitudeMode>
      <coordinates>8.27729, 47.5759,20</coordinates>
    </Point>
  </Placemark><Placemark>
    <name>Villigen, PSI Ost</name>
    <Style><LineStyle><width>2</width></LineStyle></Style>
    <Point>
      <extrude>1</extrude>
      <tesselate>0</tesselate>
      <altitudeMode>relativeToGround</altitudeMode>
      <coordinates>8.23022, 47.5389,20</coordinates>
    </Point>
  </Placemark><Placemark>
    <name>Bonstetten-Wettswil, Bahnhof</name>
    <Style><LineStyle><width>2</width></LineStyle></Style>
    <Point>
      <extrude>1</extrude>
      <tesselate>0</tesselate>
      <altitudeMode>relativeToGround</altitudeMode>
      <coordinates>8.46841, 47.3265,20</coordinates>
    </Point>
  </Placemark><Placemark>
    <name>Mellingen, Lindenplatz</name>
    <Style><LineStyle><width>2</width></LineStyle></Style>
    <Point>
      <extrude>1</extrude>
      <tesselate>0</tesselate>
      <altitudeMode>relativeToGround</altitudeMode>
      <coordinates>8.27182, 47.4181,20</coordinates>
    </Point>
  </Placemark><Placemark>
    <name>Wohlen AG, Bahnhof</name>
    <Style><LineStyle><width>2</width></LineStyle></Style>
    <Point>
      <extrude>1</extrude>
      <tesselate>0</tesselate>
      <altitudeMode>relativeToGround</altitudeMode>
      <coordinates>8.26909, 47.3493,20</coordinates>
    </Point>
  </Placemark><Placemark>
    <name>Busslingen, Stetterstrasse</name>
    <Style><LineStyle><width>2</width></LineStyle></Style>
    <Point>
      <extrude>1</extrude>
      <tesselate>0</tesselate>
      <altitudeMode>relativeToGround</altitudeMode>
      <coordinates>8.31604, 47.4076,20</coordinates>
    </Point>
  </Placemark><Placemark>
    <name>Künten, Post</name>
    <Style><LineStyle><width>2</width></LineStyle></Style>
    <Point>
      <extrude>1</extrude>
      <tesselate>0</tesselate>
      <altitudeMode>relativeToGround</altitudeMode>
      <coordinates>8.32868, 47.3907,20</coordinates>
    </Point>
  </Placemark><Placemark>
    <name>Baden, Bahnhof West</name>
    <Style><LineStyle><width>2</width></LineStyle></Style>
    <Point>
      <extrude>1</extrude>
      <tesselate>0</tesselate>
      <altitudeMode>relativeToGround</altitudeMode>
      <coordinates>8.30689, 47.4763,20</coordinates>
    </Point>
  </Placemark><Placemark>
    <name>Weisslingen, Post</name>
    <Style><LineStyle><width>2</width></LineStyle></Style>
    <Point>
      <extrude>1</extrude>
      <tesselate>0</tesselate>
      <altitudeMode>relativeToGround</altitudeMode>
      <coordinates>8.76528, 47.4297,20</coordinates>
    </Point>
  </Placemark><Placemark>
    <name>Dättwil AG, Kantonsspital</name>
    <Style><LineStyle><width>2</width></LineStyle></Style>
    <Point>
      <extrude>1</extrude>
      <tesselate>0</tesselate>
      <altitudeMode>relativeToGround</altitudeMode>
      <coordinates>8.27935, 47.4542,20</coordinates>
    </Point>
  </Placemark><Placemark>
    <name>Kloten, Weinbergstrasse</name>
    <Style><LineStyle><width>2</width></LineStyle></Style>
    <Point>
      <extrude>1</extrude>
      <tesselate>0</tesselate>
      <altitudeMode>relativeToGround</altitudeMode>
      <coordinates>8.58164, 47.4654,20</coordinates>
    </Point>
  </Placemark><Placemark>
    <name>Fislisbach, Steinäcker</name>
    <Style><LineStyle><width>2</width></LineStyle></Style>
    <Point>
      <extrude>1</extrude>
      <tesselate>0</tesselate>
      <altitudeMode>relativeToGround</altitudeMode>
      <coordinates>8.28929, 47.4332,20</coordinates>
    </Point>
  </Placemark><Placemark>
    <name>Kloten, Chanzler</name>
    <Style><LineStyle><width>2</width></LineStyle></Style>
    <Point>
      <extrude>1</extrude>
      <tesselate>0</tesselate>
      <altitudeMode>relativeToGround</altitudeMode>
      <coordinates>8.58202, 47.4671,20</coordinates>
    </Point>
  </Placemark><Placemark>
    <name>Kloten, Egetswil</name>
    <Style><LineStyle><width>2</width></LineStyle></Style>
    <Point>
      <extrude>1</extrude>
      <tesselate>0</tesselate>
      <altitudeMode>relativeToGround</altitudeMode>
      <coordinates>8.58466, 47.4696,20</coordinates>
    </Point>
  </Placemark><Placemark>
    <name>Pfäffikon ZH, Hörnlistrasse</name>
    <Style><LineStyle><width>2</width></LineStyle></Style>
    <Point>
      <extrude>1</extrude>
      <tesselate>0</tesselate>
      <altitudeMode>relativeToGround</altitudeMode>
      <coordinates>8.78576, 47.3709,20</coordinates>
    </Point>
  </Placemark><Placemark>
    <name>Zollikon</name>
    <Style><LineStyle><width>2</width></LineStyle></Style>
    <Point>
      <extrude>1</extrude>
      <tesselate>0</tesselate>
      <altitudeMode>relativeToGround</altitudeMode>
      <coordinates>8.56972, 47.3373,20</coordinates>
    </Point>
  </Placemark><Placemark>
    <name>Kloten, Bahnhof</name>
    <Style><LineStyle><width>2</width></LineStyle></Style>
    <Point>
      <extrude>1</extrude>
      <tesselate>0</tesselate>
      <altitudeMode>relativeToGround</altitudeMode>
      <coordinates>8.58367, 47.4485,20</coordinates>
    </Point>
  </Placemark><Placemark>
    <name>Kleindöttingen, Schwächeler</name>
    <Style><LineStyle><width>2</width></LineStyle></Style>
    <Point>
      <extrude>1</extrude>
      <tesselate>0</tesselate>
      <altitudeMode>relativeToGround</altitudeMode>
      <coordinates>8.24268, 47.5724,20</coordinates>
    </Point>
  </Placemark><Placemark>
    <name>Schlatt b. Winterthur, Post</name>
    <Style><LineStyle><width>2</width></LineStyle></Style>
    <Point>
      <extrude>1</extrude>
      <tesselate>0</tesselate>
      <altitudeMode>relativeToGround</altitudeMode>
      <coordinates>8.82767, 47.4692,20</coordinates>
    </Point>
  </Placemark><Placemark>
    <name>Ober Ohringen</name>
    <Style><LineStyle><width>2</width></LineStyle></Style>
    <Point>
      <extrude>1</extrude>
      <tesselate>0</tesselate>
      <altitudeMode>relativeToGround</altitudeMode>
      <coordinates>8.71233, 47.5276,20</coordinates>
    </Point>
  </Placemark><Placemark>
    <name>Steinenkreuz</name>
    <Style><LineStyle><width>2</width></LineStyle></Style>
    <Point>
      <extrude>1</extrude>
      <tesselate>0</tesselate>
      <altitudeMode>relativeToGround</altitudeMode>
      <coordinates>8.56301, 47.5814,20</coordinates>
    </Point>
  </Placemark><Placemark>
    <name>Henggart, Bahnhof</name>
    <Style><LineStyle><width>2</width></LineStyle></Style>
    <Point>
      <extrude>1</extrude>
      <tesselate>0</tesselate>
      <altitudeMode>relativeToGround</altitudeMode>
      <coordinates>8.68511, 47.5639,20</coordinates>
    </Point>
  </Placemark><Placemark>
    <name>Dägerlen, Lindenhof</name>
    <Style><LineStyle><width>2</width></LineStyle></Style>
    <Point>
      <extrude>1</extrude>
      <tesselate>0</tesselate>
      <altitudeMode>relativeToGround</altitudeMode>
      <coordinates>8.71374, 47.5671,20</coordinates>
    </Point>
  </Placemark><Placemark>
    <name>Flaach, Oberdorf</name>
    <Style><LineStyle><width>2</width></LineStyle></Style>
    <Point>
      <extrude>1</extrude>
      <tesselate>0</tesselate>
      <altitudeMode>relativeToGround</altitudeMode>
      <coordinates>8.61579, 47.5754,20</coordinates>
    </Point>
  </Placemark><Placemark>
    <name>Volken, Post</name>
    <Style><LineStyle><width>2</width></LineStyle></Style>
    <Point>
      <extrude>1</extrude>
      <tesselate>0</tesselate>
      <altitudeMode>relativeToGround</altitudeMode>
      <coordinates>8.62443, 47.5741,20</coordinates>
    </Point>
  </Placemark><Placemark>
    <name>Flaach, Ziegelhütte</name>
    <Style><LineStyle><width>2</width></LineStyle></Style>
    <Point>
      <extrude>1</extrude>
      <tesselate>0</tesselate>
      <altitudeMode>relativeToGround</altitudeMode>
      <coordinates>8.58165, 47.5751,20</coordinates>
    </Point>
  </Placemark><Placemark>
    <name>Flaach, Schollenberg</name>
    <Style><LineStyle><width>2</width></LineStyle></Style>
    <Point>
      <extrude>1</extrude>
      <tesselate>0</tesselate>
      <altitudeMode>relativeToGround</altitudeMode>
      <coordinates>8.58752, 47.5742,20</coordinates>
    </Point>
  </Placemark><Placemark>
    <name>Rüdlingen, Heimstätte</name>
    <Style><LineStyle><width>2</width></LineStyle></Style>
    <Point>
      <extrude>1</extrude>
      <tesselate>0</tesselate>
      <altitudeMode>relativeToGround</altitudeMode>
      <coordinates>8.56731, 47.5878,20</coordinates>
    </Point>
  </Placemark><Placemark>
    <name>Rüdlingen, Brückenwaage</name>
    <Style><LineStyle><width>2</width></LineStyle></Style>
    <Point>
      <extrude>1</extrude>
      <tesselate>0</tesselate>
      <altitudeMode>relativeToGround</altitudeMode>
      <coordinates>8.57132, 47.5806,20</coordinates>
    </Point>
  </Placemark></Document>
</kml>
