<kml>
<Document>

<Region>
<LatLonAltBox>
<north>47.458938</north><south>47.392694</south><east>8.838145</east><west>8.685874</west>
<minAltitude>0.000000</minAltitude><maxAltitude>0.000000</maxAltitude>
</LatLonAltBox>
<minLodPixels>2048</minLodPixels><maxLodPixels>1000000000</maxLodPixels>
<minFadeExtent>0</minFadeExtent><maxFadeExtent>0</maxFadeExtent>
</Region>
<Placemark>
    <name>Russikon, Stuketen</name>
    <Style><LineStyle><width>2</width></LineStyle></Style>
    <Point>
      <extrude>1</extrude>
      <tesselate>0</tesselate>
      <altitudeMode>relativeToGround</altitudeMode>
      <coordinates>8.76285, 47.4041,20</coordinates>
    </Point>
  </Placemark><Placemark>
    <name>Russikon, Platte</name>
    <Style><LineStyle><width>2</width></LineStyle></Style>
    <Point>
      <extrude>1</extrude>
      <tesselate>0</tesselate>
      <altitudeMode>relativeToGround</altitudeMode>
      <coordinates>8.77042, 47.4,20</coordinates>
    </Point>
  </Placemark><Placemark>
    <name>Weisslingen, Mühle</name>
    <Style><LineStyle><width>2</width></LineStyle></Style>
    <Point>
      <extrude>1</extrude>
      <tesselate>0</tesselate>
      <altitudeMode>relativeToGround</altitudeMode>
      <coordinates>8.76489, 47.4418,20</coordinates>
    </Point>
  </Placemark><Placemark>
    <name>Kollbrunn, Weissenthal</name>
    <Style><LineStyle><width>2</width></LineStyle></Style>
    <Point>
      <extrude>1</extrude>
      <tesselate>0</tesselate>
      <altitudeMode>relativeToGround</altitudeMode>
      <coordinates>8.7712, 47.4464,20</coordinates>
    </Point>
  </Placemark><Placemark>
    <name>Weisslingen, Oberhof</name>
    <Style><LineStyle><width>2</width></LineStyle></Style>
    <Point>
      <extrude>1</extrude>
      <tesselate>0</tesselate>
      <altitudeMode>relativeToGround</altitudeMode>
      <coordinates>8.7668, 47.4275,20</coordinates>
    </Point>
  </Placemark><Placemark>
    <name>Weisslingen, Widum</name>
    <Style><LineStyle><width>2</width></LineStyle></Style>
    <Point>
      <extrude>1</extrude>
      <tesselate>0</tesselate>
      <altitudeMode>relativeToGround</altitudeMode>
      <coordinates>8.76344, 47.4345,20</coordinates>
    </Point>
  </Placemark><Placemark>
    <name>Kollbrunn, Bahnhof</name>
    <Style><LineStyle><width>2</width></LineStyle></Style>
    <Point>
      <extrude>1</extrude>
      <tesselate>0</tesselate>
      <altitudeMode>relativeToGround</altitudeMode>
      <coordinates>8.77395, 47.4582,20</coordinates>
    </Point>
  </Placemark><Placemark>
    <name>Russikon, Madetswil</name>
    <Style><LineStyle><width>2</width></LineStyle></Style>
    <Point>
      <extrude>1</extrude>
      <tesselate>0</tesselate>
      <altitudeMode>relativeToGround</altitudeMode>
      <coordinates>8.79302, 47.4109,20</coordinates>
    </Point>
  </Placemark><Placemark>
    <name>Russikon, Rumlikon</name>
    <Style><LineStyle><width>2</width></LineStyle></Style>
    <Point>
      <extrude>1</extrude>
      <tesselate>0</tesselate>
      <altitudeMode>relativeToGround</altitudeMode>
      <coordinates>8.76154, 47.4093,20</coordinates>
    </Point>
  </Placemark><Placemark>
    <name>Fehraltorf, Schrännenbrunnen</name>
    <Style><LineStyle><width>2</width></LineStyle></Style>
    <Point>
      <extrude>1</extrude>
      <tesselate>0</tesselate>
      <altitudeMode>relativeToGround</altitudeMode>
      <coordinates>8.73623, 47.3953,20</coordinates>
    </Point>
  </Placemark><Placemark>
    <name>Russikon, Gündisau</name>
    <Style><LineStyle><width>2</width></LineStyle></Style>
    <Point>
      <extrude>1</extrude>
      <tesselate>0</tesselate>
      <altitudeMode>relativeToGround</altitudeMode>
      <coordinates>8.80715, 47.3974,20</coordinates>
    </Point>
  </Placemark><Placemark>
    <name>Lendikon</name>
    <Style><LineStyle><width>2</width></LineStyle></Style>
    <Point>
      <extrude>1</extrude>
      <tesselate>0</tesselate>
      <altitudeMode>relativeToGround</altitudeMode>
      <coordinates>8.78066, 47.4255,20</coordinates>
    </Point>
  </Placemark><Placemark>
    <name>Illnau, Bahnhof</name>
    <Style><LineStyle><width>2</width></LineStyle></Style>
    <Point>
      <extrude>1</extrude>
      <tesselate>0</tesselate>
      <altitudeMode>relativeToGround</altitudeMode>
      <coordinates>8.72257, 47.4089,20</coordinates>
    </Point>
  </Placemark><Placemark>
    <name>Illnau, Kirche</name>
    <Style><LineStyle><width>2</width></LineStyle></Style>
    <Point>
      <extrude>1</extrude>
      <tesselate>0</tesselate>
      <altitudeMode>relativeToGround</altitudeMode>
      <coordinates>8.71739, 47.4146,20</coordinates>
    </Point>
  </Placemark><Placemark>
    <name>Effretikon, Müselacher</name>
    <Style><LineStyle><width>2</width></LineStyle></Style>
    <Point>
      <extrude>1</extrude>
      <tesselate>0</tesselate>
      <altitudeMode>relativeToGround</altitudeMode>
      <coordinates>8.6966, 47.4291,20</coordinates>
    </Point>
  </Placemark><Placemark>
    <name>Illnau, Horben</name>
    <Style><LineStyle><width>2</width></LineStyle></Style>
    <Point>
      <extrude>1</extrude>
      <tesselate>0</tesselate>
      <altitudeMode>relativeToGround</altitudeMode>
      <coordinates>8.74454, 47.4128,20</coordinates>
    </Point>
  </Placemark><Placemark>
    <name>Mesikon</name>
    <Style><LineStyle><width>2</width></LineStyle></Style>
    <Point>
      <extrude>1</extrude>
      <tesselate>0</tesselate>
      <altitudeMode>relativeToGround</altitudeMode>
      <coordinates>8.74422, 47.4066,20</coordinates>
    </Point>
  </Placemark><Placemark>
    <name>Effretikon</name>
    <Style><LineStyle><width>2</width></LineStyle></Style>
    <Point>
      <extrude>1</extrude>
      <tesselate>0</tesselate>
      <altitudeMode>relativeToGround</altitudeMode>
      <coordinates>8.68666, 47.4258,20</coordinates>
    </Point>
  </Placemark><Placemark>
    <name>Illnau</name>
    <Style><LineStyle><width>2</width></LineStyle></Style>
    <Point>
      <extrude>1</extrude>
      <tesselate>0</tesselate>
      <altitudeMode>relativeToGround</altitudeMode>
      <coordinates>8.7227, 47.4088,20</coordinates>
    </Point>
  </Placemark><Placemark>
    <name>Kyburg, Ettenhusen</name>
    <Style><LineStyle><width>2</width></LineStyle></Style>
    <Point>
      <extrude>1</extrude>
      <tesselate>0</tesselate>
      <altitudeMode>relativeToGround</altitudeMode>
      <coordinates>8.73714, 47.449,20</coordinates>
    </Point>
  </Placemark><Placemark>
    <name>Zell ZH, Mühliwies</name>
    <Style><LineStyle><width>2</width></LineStyle></Style>
    <Point>
      <extrude>1</extrude>
      <tesselate>0</tesselate>
      <altitudeMode>relativeToGround</altitudeMode>
      <coordinates>8.81883, 47.4439,20</coordinates>
    </Point>
  </Placemark><Placemark>
    <name>Rämismühle-Zell, Bahnhof</name>
    <Style><LineStyle><width>2</width></LineStyle></Style>
    <Point>
      <extrude>1</extrude>
      <tesselate>0</tesselate>
      <altitudeMode>relativeToGround</altitudeMode>
      <coordinates>8.82009, 47.4412,20</coordinates>
    </Point>
  </Placemark><Placemark>
    <name>Dettenried</name>
    <Style><LineStyle><width>2</width></LineStyle></Style>
    <Point>
      <extrude>1</extrude>
      <tesselate>0</tesselate>
      <altitudeMode>relativeToGround</altitudeMode>
      <coordinates>8.77606, 47.4408,20</coordinates>
    </Point>
  </Placemark><Placemark>
    <name>Winterberg ZH, Dorf</name>
    <Style><LineStyle><width>2</width></LineStyle></Style>
    <Point>
      <extrude>1</extrude>
      <tesselate>0</tesselate>
      <altitudeMode>relativeToGround</altitudeMode>
      <coordinates>8.69305, 47.4564,20</coordinates>
    </Point>
  </Placemark><Placemark>
    <name>Zell ZH, Dorf</name>
    <Style><LineStyle><width>2</width></LineStyle></Style>
    <Point>
      <extrude>1</extrude>
      <tesselate>0</tesselate>
      <altitudeMode>relativeToGround</altitudeMode>
      <coordinates>8.82291, 47.4479,20</coordinates>
    </Point>
  </Placemark><Placemark>
    <name>Hermatswil</name>
    <Style><LineStyle><width>2</width></LineStyle></Style>
    <Point>
      <extrude>1</extrude>
      <tesselate>0</tesselate>
      <altitudeMode>relativeToGround</altitudeMode>
      <coordinates>8.82621, 47.3943,20</coordinates>
    </Point>
  </Placemark><Placemark>
    <name>Effretikon, Langhag</name>
    <Style><LineStyle><width>2</width></LineStyle></Style>
    <Point>
      <extrude>1</extrude>
      <tesselate>0</tesselate>
      <altitudeMode>relativeToGround</altitudeMode>
      <coordinates>8.68628, 47.4372,20</coordinates>
    </Point>
  </Placemark><Placemark>
    <name>Russikon, Post</name>
    <Style><LineStyle><width>2</width></LineStyle></Style>
    <Point>
      <extrude>1</extrude>
      <tesselate>0</tesselate>
      <altitudeMode>relativeToGround</altitudeMode>
      <coordinates>8.77576, 47.3946,20</coordinates>
    </Point>
  </Placemark><Placemark>
    <name>Rämismühle-Zell</name>
    <Style><LineStyle><width>2</width></LineStyle></Style>
    <Point>
      <extrude>1</extrude>
      <tesselate>0</tesselate>
      <altitudeMode>relativeToGround</altitudeMode>
      <coordinates>8.81911, 47.4416,20</coordinates>
    </Point>
  </Placemark><Placemark>
    <name>Kollbrunn</name>
    <Style><LineStyle><width>2</width></LineStyle></Style>
    <Point>
      <extrude>1</extrude>
      <tesselate>0</tesselate>
      <altitudeMode>relativeToGround</altitudeMode>
      <coordinates>8.77399, 47.4583,20</coordinates>
    </Point>
  </Placemark><Placemark>
    <name>Rikon</name>
    <Style><LineStyle><width>2</width></LineStyle></Style>
    <Point>
      <extrude>1</extrude>
      <tesselate>0</tesselate>
      <altitudeMode>relativeToGround</altitudeMode>
      <coordinates>8.7963, 47.445,20</coordinates>
    </Point>
  </Placemark><Placemark>
    <name>Kemptthal</name>
    <Style><LineStyle><width>2</width></LineStyle></Style>
    <Point>
      <extrude>1</extrude>
      <tesselate>0</tesselate>
      <altitudeMode>relativeToGround</altitudeMode>
      <coordinates>8.70557, 47.4528,20</coordinates>
    </Point>
  </Placemark><Placemark>
    <name>Illnau, Gemeindehaus</name>
    <Style><LineStyle><width>2</width></LineStyle></Style>
    <Point>
      <extrude>1</extrude>
      <tesselate>0</tesselate>
      <altitudeMode>relativeToGround</altitudeMode>
      <coordinates>8.71922, 47.4149,20</coordinates>
    </Point>
  </Placemark><Placemark>
    <name>Rikon, Bahnhof</name>
    <Style><LineStyle><width>2</width></LineStyle></Style>
    <Point>
      <extrude>1</extrude>
      <tesselate>0</tesselate>
      <altitudeMode>relativeToGround</altitudeMode>
      <coordinates>8.79764, 47.445,20</coordinates>
    </Point>
  </Placemark></Document>
</kml>
