<kml>
<Document>

<Region>
<LatLonAltBox>
<north>47.392694</north><south>47.359572</south><east>8.305196</east><west>8.229060</west>
<minAltitude>0.000000</minAltitude><maxAltitude>0.000000</maxAltitude>
</LatLonAltBox>
<minLodPixels>2048</minLodPixels><maxLodPixels>1000000000</maxLodPixels>
<minFadeExtent>0</minFadeExtent><maxFadeExtent>0</maxFadeExtent>
</Region>
<Placemark>
    <name>Fischbach-Göslikon, Kirchenack</name>
    <Style><LineStyle><width>2</width></LineStyle></Style>
    <Point>
      <extrude>1</extrude>
      <tesselate>0</tesselate>
      <altitudeMode>relativeToGround</altitudeMode>
      <coordinates>8.30261, 47.3756,20</coordinates>
    </Point>
  </Placemark><Placemark>
    <name>Fischbach-Göslikon, Reusstal</name>
    <Style><LineStyle><width>2</width></LineStyle></Style>
    <Point>
      <extrude>1</extrude>
      <tesselate>0</tesselate>
      <altitudeMode>relativeToGround</altitudeMode>
      <coordinates>8.30325, 47.3742,20</coordinates>
    </Point>
  </Placemark><Placemark>
    <name>Anglikon, Kapelle</name>
    <Style><LineStyle><width>2</width></LineStyle></Style>
    <Point>
      <extrude>1</extrude>
      <tesselate>0</tesselate>
      <altitudeMode>relativeToGround</altitudeMode>
      <coordinates>8.26273, 47.3657,20</coordinates>
    </Point>
  </Placemark><Placemark>
    <name>Wohlen AG, Rigacker/Vogelsang</name>
    <Style><LineStyle><width>2</width></LineStyle></Style>
    <Point>
      <extrude>1</extrude>
      <tesselate>0</tesselate>
      <altitudeMode>relativeToGround</altitudeMode>
      <coordinates>8.26498, 47.3614,20</coordinates>
    </Point>
  </Placemark><Placemark>
    <name>Anglikon, Knobel/Kesselacker</name>
    <Style><LineStyle><width>2</width></LineStyle></Style>
    <Point>
      <extrude>1</extrude>
      <tesselate>0</tesselate>
      <altitudeMode>relativeToGround</altitudeMode>
      <coordinates>8.26537, 47.3655,20</coordinates>
    </Point>
  </Placemark><Placemark>
    <name>Anglikon, Kehrpl. Brändliacker</name>
    <Style><LineStyle><width>2</width></LineStyle></Style>
    <Point>
      <extrude>1</extrude>
      <tesselate>0</tesselate>
      <altitudeMode>relativeToGround</altitudeMode>
      <coordinates>8.268, 47.3644,20</coordinates>
    </Point>
  </Placemark><Placemark>
    <name>Niederwil AG, Gnadenthal</name>
    <Style><LineStyle><width>2</width></LineStyle></Style>
    <Point>
      <extrude>1</extrude>
      <tesselate>0</tesselate>
      <altitudeMode>relativeToGround</altitudeMode>
      <coordinates>8.30254, 47.392,20</coordinates>
    </Point>
  </Placemark></Document>
</kml>
