<kml>
<Document>

<Region>
<LatLonAltBox>
<north>47.392694</north><south>47.326450</south><east>9.142688</east><west>8.990416</west>
<minAltitude>0.000000</minAltitude><maxAltitude>0.000000</maxAltitude>
</LatLonAltBox>
<minLodPixels>2048</minLodPixels><maxLodPixels>1000000000</maxLodPixels>
<minFadeExtent>0</minFadeExtent><maxFadeExtent>0</maxFadeExtent>
</Region>
<Placemark>
    <name>Brunnadern, Alters-und Pflegeh</name>
    <Style><LineStyle><width>2</width></LineStyle></Style>
    <Point>
      <extrude>1</extrude>
      <tesselate>0</tesselate>
      <altitudeMode>relativeToGround</altitudeMode>
      <coordinates>9.13385, 47.3319,20</coordinates>
    </Point>
  </Placemark><Placemark>
    <name>Necker, Grütli</name>
    <Style><LineStyle><width>2</width></LineStyle></Style>
    <Point>
      <extrude>1</extrude>
      <tesselate>0</tesselate>
      <altitudeMode>relativeToGround</altitudeMode>
      <coordinates>9.13038, 47.348,20</coordinates>
    </Point>
  </Placemark><Placemark>
    <name>Brunnadern-Neckertal</name>
    <Style><LineStyle><width>2</width></LineStyle></Style>
    <Point>
      <extrude>1</extrude>
      <tesselate>0</tesselate>
      <altitudeMode>relativeToGround</altitudeMode>
      <coordinates>9.12987, 47.3373,20</coordinates>
    </Point>
  </Placemark><Placemark>
    <name>Mogelsberg</name>
    <Style><LineStyle><width>2</width></LineStyle></Style>
    <Point>
      <extrude>1</extrude>
      <tesselate>0</tesselate>
      <altitudeMode>relativeToGround</altitudeMode>
      <coordinates>9.1426, 47.3638,20</coordinates>
    </Point>
  </Placemark><Placemark>
    <name>Brunnadern, Anker</name>
    <Style><LineStyle><width>2</width></LineStyle></Style>
    <Point>
      <extrude>1</extrude>
      <tesselate>0</tesselate>
      <altitudeMode>relativeToGround</altitudeMode>
      <coordinates>9.13706, 47.329,20</coordinates>
    </Point>
  </Placemark><Placemark>
    <name>Ganterschwil, Post</name>
    <Style><LineStyle><width>2</width></LineStyle></Style>
    <Point>
      <extrude>1</extrude>
      <tesselate>0</tesselate>
      <altitudeMode>relativeToGround</altitudeMode>
      <coordinates>9.09071, 47.3812,20</coordinates>
    </Point>
  </Placemark><Placemark>
    <name>Oberhelfenschwil, Post</name>
    <Style><LineStyle><width>2</width></LineStyle></Style>
    <Point>
      <extrude>1</extrude>
      <tesselate>0</tesselate>
      <altitudeMode>relativeToGround</altitudeMode>
      <coordinates>9.11337, 47.3543,20</coordinates>
    </Point>
  </Placemark><Placemark>
    <name>Dietfurt, Langensteig</name>
    <Style><LineStyle><width>2</width></LineStyle></Style>
    <Point>
      <extrude>1</extrude>
      <tesselate>0</tesselate>
      <altitudeMode>relativeToGround</altitudeMode>
      <coordinates>9.08374, 47.3376,20</coordinates>
    </Point>
  </Placemark><Placemark>
    <name>Lichtensteig, St. Loretto</name>
    <Style><LineStyle><width>2</width></LineStyle></Style>
    <Point>
      <extrude>1</extrude>
      <tesselate>0</tesselate>
      <altitudeMode>relativeToGround</altitudeMode>
      <coordinates>9.08574, 47.3275,20</coordinates>
    </Point>
  </Placemark><Placemark>
    <name>Oberhelfenschwil, Wigetshof</name>
    <Style><LineStyle><width>2</width></LineStyle></Style>
    <Point>
      <extrude>1</extrude>
      <tesselate>0</tesselate>
      <altitudeMode>relativeToGround</altitudeMode>
      <coordinates>9.08697, 47.3459,20</coordinates>
    </Point>
  </Placemark><Placemark>
    <name>Brunnadern-Neckertal, Bahnhof</name>
    <Style><LineStyle><width>2</width></LineStyle></Style>
    <Point>
      <extrude>1</extrude>
      <tesselate>0</tesselate>
      <altitudeMode>relativeToGround</altitudeMode>
      <coordinates>9.1304, 47.3381,20</coordinates>
    </Point>
  </Placemark><Placemark>
    <name>Mosnang, Dietenwil</name>
    <Style><LineStyle><width>2</width></LineStyle></Style>
    <Point>
      <extrude>1</extrude>
      <tesselate>0</tesselate>
      <altitudeMode>relativeToGround</altitudeMode>
      <coordinates>9.04003, 47.3477,20</coordinates>
    </Point>
  </Placemark><Placemark>
    <name>Bütschwil, Engi</name>
    <Style><LineStyle><width>2</width></LineStyle></Style>
    <Point>
      <extrude>1</extrude>
      <tesselate>0</tesselate>
      <altitudeMode>relativeToGround</altitudeMode>
      <coordinates>9.07679, 47.3699,20</coordinates>
    </Point>
  </Placemark><Placemark>
    <name>Libingen, Lindenboden</name>
    <Style><LineStyle><width>2</width></LineStyle></Style>
    <Point>
      <extrude>1</extrude>
      <tesselate>0</tesselate>
      <altitudeMode>relativeToGround</altitudeMode>
      <coordinates>9.04286, 47.3425,20</coordinates>
    </Point>
  </Placemark><Placemark>
    <name>Libingen, Hinterhofen</name>
    <Style><LineStyle><width>2</width></LineStyle></Style>
    <Point>
      <extrude>1</extrude>
      <tesselate>0</tesselate>
      <altitudeMode>relativeToGround</altitudeMode>
      <coordinates>9.03005, 47.3348,20</coordinates>
    </Point>
  </Placemark><Placemark>
    <name>Mosnang, Aufeld</name>
    <Style><LineStyle><width>2</width></LineStyle></Style>
    <Point>
      <extrude>1</extrude>
      <tesselate>0</tesselate>
      <altitudeMode>relativeToGround</altitudeMode>
      <coordinates>9.03729, 47.3556,20</coordinates>
    </Point>
  </Placemark><Placemark>
    <name>Dietfurt, Käserei</name>
    <Style><LineStyle><width>2</width></LineStyle></Style>
    <Point>
      <extrude>1</extrude>
      <tesselate>0</tesselate>
      <altitudeMode>relativeToGround</altitudeMode>
      <coordinates>9.07966, 47.3451,20</coordinates>
    </Point>
  </Placemark><Placemark>
    <name>Dietfurt, Restaurant Rössli</name>
    <Style><LineStyle><width>2</width></LineStyle></Style>
    <Point>
      <extrude>1</extrude>
      <tesselate>0</tesselate>
      <altitudeMode>relativeToGround</altitudeMode>
      <coordinates>9.08096, 47.3442,20</coordinates>
    </Point>
  </Placemark><Placemark>
    <name>Dietfurt, Bahnhof</name>
    <Style><LineStyle><width>2</width></LineStyle></Style>
    <Point>
      <extrude>1</extrude>
      <tesselate>0</tesselate>
      <altitudeMode>relativeToGround</altitudeMode>
      <coordinates>9.07833, 47.3447,20</coordinates>
    </Point>
  </Placemark><Placemark>
    <name>Oberhelfenschwil, Metzwil</name>
    <Style><LineStyle><width>2</width></LineStyle></Style>
    <Point>
      <extrude>1</extrude>
      <tesselate>0</tesselate>
      <altitudeMode>relativeToGround</altitudeMode>
      <coordinates>9.12316, 47.3496,20</coordinates>
    </Point>
  </Placemark><Placemark>
    <name>Dietfurt, Neudietfurt</name>
    <Style><LineStyle><width>2</width></LineStyle></Style>
    <Point>
      <extrude>1</extrude>
      <tesselate>0</tesselate>
      <altitudeMode>relativeToGround</altitudeMode>
      <coordinates>9.08199, 47.3453,20</coordinates>
    </Point>
  </Placemark><Placemark>
    <name>Lichtensteig, Steigrüti</name>
    <Style><LineStyle><width>2</width></LineStyle></Style>
    <Point>
      <extrude>1</extrude>
      <tesselate>0</tesselate>
      <altitudeMode>relativeToGround</altitudeMode>
      <coordinates>9.08453, 47.3313,20</coordinates>
    </Point>
  </Placemark><Placemark>
    <name>Oberhelfenschwil, Tobelacker</name>
    <Style><LineStyle><width>2</width></LineStyle></Style>
    <Point>
      <extrude>1</extrude>
      <tesselate>0</tesselate>
      <altitudeMode>relativeToGround</altitudeMode>
      <coordinates>9.10068, 47.3504,20</coordinates>
    </Point>
  </Placemark><Placemark>
    <name>Lütisburg</name>
    <Style><LineStyle><width>2</width></LineStyle></Style>
    <Point>
      <extrude>1</extrude>
      <tesselate>0</tesselate>
      <altitudeMode>relativeToGround</altitudeMode>
      <coordinates>9.07067, 47.3838,20</coordinates>
    </Point>
  </Placemark><Placemark>
    <name>Dietfurt</name>
    <Style><LineStyle><width>2</width></LineStyle></Style>
    <Point>
      <extrude>1</extrude>
      <tesselate>0</tesselate>
      <altitudeMode>relativeToGround</altitudeMode>
      <coordinates>9.0783, 47.3446,20</coordinates>
    </Point>
  </Placemark><Placemark>
    <name>Bütschwil</name>
    <Style><LineStyle><width>2</width></LineStyle></Style>
    <Point>
      <extrude>1</extrude>
      <tesselate>0</tesselate>
      <altitudeMode>relativeToGround</altitudeMode>
      <coordinates>9.07513, 47.3596,20</coordinates>
    </Point>
  </Placemark><Placemark>
    <name>Libingen, Vorderhofen</name>
    <Style><LineStyle><width>2</width></LineStyle></Style>
    <Point>
      <extrude>1</extrude>
      <tesselate>0</tesselate>
      <altitudeMode>relativeToGround</altitudeMode>
      <coordinates>9.03678, 47.3385,20</coordinates>
    </Point>
  </Placemark><Placemark>
    <name>Bütschwil, Hofwiesen</name>
    <Style><LineStyle><width>2</width></LineStyle></Style>
    <Point>
      <extrude>1</extrude>
      <tesselate>0</tesselate>
      <altitudeMode>relativeToGround</altitudeMode>
      <coordinates>9.07357, 47.3623,20</coordinates>
    </Point>
  </Placemark><Placemark>
    <name>Lichtensteig, Gurtberg</name>
    <Style><LineStyle><width>2</width></LineStyle></Style>
    <Point>
      <extrude>1</extrude>
      <tesselate>0</tesselate>
      <altitudeMode>relativeToGround</altitudeMode>
      <coordinates>9.07919, 47.3296,20</coordinates>
    </Point>
  </Placemark><Placemark>
    <name>Ganterschwil, Oetschwilerstr.</name>
    <Style><LineStyle><width>2</width></LineStyle></Style>
    <Point>
      <extrude>1</extrude>
      <tesselate>0</tesselate>
      <altitudeMode>relativeToGround</altitudeMode>
      <coordinates>9.08395, 47.3768,20</coordinates>
    </Point>
  </Placemark></Document>
</kml>
