<kml>
<Document>

<Region>
<LatLonAltBox>
<north>47.392694</north><south>47.326450</south><east>9.294959</east><west>9.142688</west>
<minAltitude>0.000000</minAltitude><maxAltitude>0.000000</maxAltitude>
</LatLonAltBox>
<minLodPixels>2048</minLodPixels><maxLodPixels>1000000000</maxLodPixels>
<minFadeExtent>0</minFadeExtent><maxFadeExtent>0</maxFadeExtent>
</Region>
<Placemark>
    <name>Degersheim, Hinterswil</name>
    <Style><LineStyle><width>2</width></LineStyle></Style>
    <Point>
      <extrude>1</extrude>
      <tesselate>0</tesselate>
      <altitudeMode>relativeToGround</altitudeMode>
      <coordinates>9.2079, 47.3803,20</coordinates>
    </Point>
  </Placemark><Placemark>
    <name>Degersheim, Ifang</name>
    <Style><LineStyle><width>2</width></LineStyle></Style>
    <Point>
      <extrude>1</extrude>
      <tesselate>0</tesselate>
      <altitudeMode>relativeToGround</altitudeMode>
      <coordinates>9.20174, 47.3842,20</coordinates>
    </Point>
  </Placemark><Placemark>
    <name>Degersheim</name>
    <Style><LineStyle><width>2</width></LineStyle></Style>
    <Point>
      <extrude>1</extrude>
      <tesselate>0</tesselate>
      <altitudeMode>relativeToGround</altitudeMode>
      <coordinates>9.19854, 47.3717,20</coordinates>
    </Point>
  </Placemark><Placemark>
    <name>Schachen (Herisau)</name>
    <Style><LineStyle><width>2</width></LineStyle></Style>
    <Point>
      <extrude>1</extrude>
      <tesselate>0</tesselate>
      <altitudeMode>relativeToGround</altitudeMode>
      <coordinates>9.24351, 47.3856,20</coordinates>
    </Point>
  </Placemark><Placemark>
    <name>Herisau</name>
    <Style><LineStyle><width>2</width></LineStyle></Style>
    <Point>
      <extrude>1</extrude>
      <tesselate>0</tesselate>
      <altitudeMode>relativeToGround</altitudeMode>
      <coordinates>9.2768, 47.3902,20</coordinates>
    </Point>
  </Placemark><Placemark>
    <name>Brunnadern, Auboden</name>
    <Style><LineStyle><width>2</width></LineStyle></Style>
    <Point>
      <extrude>1</extrude>
      <tesselate>0</tesselate>
      <altitudeMode>relativeToGround</altitudeMode>
      <coordinates>9.16049, 47.3271,20</coordinates>
    </Point>
  </Placemark><Placemark>
    <name>Herisau, Obstmarkt</name>
    <Style><LineStyle><width>2</width></LineStyle></Style>
    <Point>
      <extrude>1</extrude>
      <tesselate>0</tesselate>
      <altitudeMode>relativeToGround</altitudeMode>
      <coordinates>9.27995, 47.3857,20</coordinates>
    </Point>
  </Placemark><Placemark>
    <name>Schwellbrunn, Hohrain</name>
    <Style><LineStyle><width>2</width></LineStyle></Style>
    <Point>
      <extrude>1</extrude>
      <tesselate>0</tesselate>
      <altitudeMode>relativeToGround</altitudeMode>
      <coordinates>9.25171, 47.354,20</coordinates>
    </Point>
  </Placemark><Placemark>
    <name>Herisau, Bruggeregg</name>
    <Style><LineStyle><width>2</width></LineStyle></Style>
    <Point>
      <extrude>1</extrude>
      <tesselate>0</tesselate>
      <altitudeMode>relativeToGround</altitudeMode>
      <coordinates>9.27609, 47.3795,20</coordinates>
    </Point>
  </Placemark><Placemark>
    <name>Degersheim, Bahnhof</name>
    <Style><LineStyle><width>2</width></LineStyle></Style>
    <Point>
      <extrude>1</extrude>
      <tesselate>0</tesselate>
      <altitudeMode>relativeToGround</altitudeMode>
      <coordinates>9.20103, 47.3728,20</coordinates>
    </Point>
  </Placemark><Placemark>
    <name>Degersheim, Post</name>
    <Style><LineStyle><width>2</width></LineStyle></Style>
    <Point>
      <extrude>1</extrude>
      <tesselate>0</tesselate>
      <altitudeMode>relativeToGround</altitudeMode>
      <coordinates>9.19804, 47.3726,20</coordinates>
    </Point>
  </Placemark><Placemark>
    <name>Dicken b Dgh, Freihof</name>
    <Style><LineStyle><width>2</width></LineStyle></Style>
    <Point>
      <extrude>1</extrude>
      <tesselate>0</tesselate>
      <altitudeMode>relativeToGround</altitudeMode>
      <coordinates>9.19038, 47.3408,20</coordinates>
    </Point>
  </Placemark><Placemark>
    <name>Hoffeld, Säge-Waldbach</name>
    <Style><LineStyle><width>2</width></LineStyle></Style>
    <Point>
      <extrude>1</extrude>
      <tesselate>0</tesselate>
      <altitudeMode>relativeToGround</altitudeMode>
      <coordinates>9.17611, 47.3599,20</coordinates>
    </Point>
  </Placemark><Placemark>
    <name>Herisau, Schloss</name>
    <Style><LineStyle><width>2</width></LineStyle></Style>
    <Point>
      <extrude>1</extrude>
      <tesselate>0</tesselate>
      <altitudeMode>relativeToGround</altitudeMode>
      <coordinates>9.26788, 47.3814,20</coordinates>
    </Point>
  </Placemark><Placemark>
    <name>Herisau, Müli</name>
    <Style><LineStyle><width>2</width></LineStyle></Style>
    <Point>
      <extrude>1</extrude>
      <tesselate>0</tesselate>
      <altitudeMode>relativeToGround</altitudeMode>
      <coordinates>9.2733, 47.3849,20</coordinates>
    </Point>
  </Placemark><Placemark>
    <name>Waldstatt, Auerhof</name>
    <Style><LineStyle><width>2</width></LineStyle></Style>
    <Point>
      <extrude>1</extrude>
      <tesselate>0</tesselate>
      <altitudeMode>relativeToGround</altitudeMode>
      <coordinates>9.29236, 47.3619,20</coordinates>
    </Point>
  </Placemark><Placemark>
    <name>Herisau, am Bach</name>
    <Style><LineStyle><width>2</width></LineStyle></Style>
    <Point>
      <extrude>1</extrude>
      <tesselate>0</tesselate>
      <altitudeMode>relativeToGround</altitudeMode>
      <coordinates>9.26473, 47.3765,20</coordinates>
    </Point>
  </Placemark><Placemark>
    <name>Dicken b Dgh, Schwindel</name>
    <Style><LineStyle><width>2</width></LineStyle></Style>
    <Point>
      <extrude>1</extrude>
      <tesselate>0</tesselate>
      <altitudeMode>relativeToGround</altitudeMode>
      <coordinates>9.18306, 47.3296,20</coordinates>
    </Point>
  </Placemark><Placemark>
    <name>Schwellbrunn, Tobelacker</name>
    <Style><LineStyle><width>2</width></LineStyle></Style>
    <Point>
      <extrude>1</extrude>
      <tesselate>0</tesselate>
      <altitudeMode>relativeToGround</altitudeMode>
      <coordinates>9.2323, 47.3437,20</coordinates>
    </Point>
  </Placemark><Placemark>
    <name>Dicken b Dgh, Post</name>
    <Style><LineStyle><width>2</width></LineStyle></Style>
    <Point>
      <extrude>1</extrude>
      <tesselate>0</tesselate>
      <altitudeMode>relativeToGround</altitudeMode>
      <coordinates>9.19024, 47.3365,20</coordinates>
    </Point>
  </Placemark><Placemark>
    <name>Schwellbrunn, Sommertal</name>
    <Style><LineStyle><width>2</width></LineStyle></Style>
    <Point>
      <extrude>1</extrude>
      <tesselate>0</tesselate>
      <altitudeMode>relativeToGround</altitudeMode>
      <coordinates>9.24679, 47.3552,20</coordinates>
    </Point>
  </Placemark><Placemark>
    <name>Schwellbrunn, Brisig</name>
    <Style><LineStyle><width>2</width></LineStyle></Style>
    <Point>
      <extrude>1</extrude>
      <tesselate>0</tesselate>
      <altitudeMode>relativeToGround</altitudeMode>
      <coordinates>9.26303, 47.3462,20</coordinates>
    </Point>
  </Placemark><Placemark>
    <name>Schwellbrunn, Einsiegele</name>
    <Style><LineStyle><width>2</width></LineStyle></Style>
    <Point>
      <extrude>1</extrude>
      <tesselate>0</tesselate>
      <altitudeMode>relativeToGround</altitudeMode>
      <coordinates>9.24896, 47.3412,20</coordinates>
    </Point>
  </Placemark><Placemark>
    <name>Schwellbrunn, Teufen</name>
    <Style><LineStyle><width>2</width></LineStyle></Style>
    <Point>
      <extrude>1</extrude>
      <tesselate>0</tesselate>
      <altitudeMode>relativeToGround</altitudeMode>
      <coordinates>9.2355, 47.3345,20</coordinates>
    </Point>
  </Placemark><Placemark>
    <name>Schwellbrunn, Winkfeld</name>
    <Style><LineStyle><width>2</width></LineStyle></Style>
    <Point>
      <extrude>1</extrude>
      <tesselate>0</tesselate>
      <altitudeMode>relativeToGround</altitudeMode>
      <coordinates>9.26677, 47.349,20</coordinates>
    </Point>
  </Placemark><Placemark>
    <name>Herisau, Landersberg</name>
    <Style><LineStyle><width>2</width></LineStyle></Style>
    <Point>
      <extrude>1</extrude>
      <tesselate>0</tesselate>
      <altitudeMode>relativeToGround</altitudeMode>
      <coordinates>9.25833, 47.3638,20</coordinates>
    </Point>
  </Placemark><Placemark>
    <name>Hoffeld, Ziegelhütte</name>
    <Style><LineStyle><width>2</width></LineStyle></Style>
    <Point>
      <extrude>1</extrude>
      <tesselate>0</tesselate>
      <altitudeMode>relativeToGround</altitudeMode>
      <coordinates>9.18517, 47.3636,20</coordinates>
    </Point>
  </Placemark><Placemark>
    <name>Hoffeld, Strickwald</name>
    <Style><LineStyle><width>2</width></LineStyle></Style>
    <Point>
      <extrude>1</extrude>
      <tesselate>0</tesselate>
      <altitudeMode>relativeToGround</altitudeMode>
      <coordinates>9.18773, 47.3509,20</coordinates>
    </Point>
  </Placemark><Placemark>
    <name>Hoffeld, Post</name>
    <Style><LineStyle><width>2</width></LineStyle></Style>
    <Point>
      <extrude>1</extrude>
      <tesselate>0</tesselate>
      <altitudeMode>relativeToGround</altitudeMode>
      <coordinates>9.1752, 47.3624,20</coordinates>
    </Point>
  </Placemark><Placemark>
    <name>Herisau, Lederbach</name>
    <Style><LineStyle><width>2</width></LineStyle></Style>
    <Point>
      <extrude>1</extrude>
      <tesselate>0</tesselate>
      <altitudeMode>relativeToGround</altitudeMode>
      <coordinates>9.27884, 47.3826,20</coordinates>
    </Point>
  </Placemark><Placemark>
    <name>Herisau, Langelen</name>
    <Style><LineStyle><width>2</width></LineStyle></Style>
    <Point>
      <extrude>1</extrude>
      <tesselate>0</tesselate>
      <altitudeMode>relativeToGround</altitudeMode>
      <coordinates>9.28184, 47.3735,20</coordinates>
    </Point>
  </Placemark><Placemark>
    <name>Waldstatt, Rössli</name>
    <Style><LineStyle><width>2</width></LineStyle></Style>
    <Point>
      <extrude>1</extrude>
      <tesselate>0</tesselate>
      <altitudeMode>relativeToGround</altitudeMode>
      <coordinates>9.27989, 47.3553,20</coordinates>
    </Point>
  </Placemark><Placemark>
    <name>Waldstatt, Adler</name>
    <Style><LineStyle><width>2</width></LineStyle></Style>
    <Point>
      <extrude>1</extrude>
      <tesselate>0</tesselate>
      <altitudeMode>relativeToGround</altitudeMode>
      <coordinates>9.27317, 47.3525,20</coordinates>
    </Point>
  </Placemark><Placemark>
    <name>Degersheim, Wolfhag</name>
    <Style><LineStyle><width>2</width></LineStyle></Style>
    <Point>
      <extrude>1</extrude>
      <tesselate>0</tesselate>
      <altitudeMode>relativeToGround</altitudeMode>
      <coordinates>9.191, 47.3698,20</coordinates>
    </Point>
  </Placemark><Placemark>
    <name>Herisau, Kaserne</name>
    <Style><LineStyle><width>2</width></LineStyle></Style>
    <Point>
      <extrude>1</extrude>
      <tesselate>0</tesselate>
      <altitudeMode>relativeToGround</altitudeMode>
      <coordinates>9.28969, 47.3898,20</coordinates>
    </Point>
  </Placemark><Placemark>
    <name>Herisau, Heinrichsbad</name>
    <Style><LineStyle><width>2</width></LineStyle></Style>
    <Point>
      <extrude>1</extrude>
      <tesselate>0</tesselate>
      <altitudeMode>relativeToGround</altitudeMode>
      <coordinates>9.28048, 47.3916,20</coordinates>
    </Point>
  </Placemark><Placemark>
    <name>Wilen</name>
    <Style><LineStyle><width>2</width></LineStyle></Style>
    <Point>
      <extrude>1</extrude>
      <tesselate>0</tesselate>
      <altitudeMode>relativeToGround</altitudeMode>
      <coordinates>9.27942, 47.3755,20</coordinates>
    </Point>
  </Placemark><Placemark>
    <name>Waldstatt</name>
    <Style><LineStyle><width>2</width></LineStyle></Style>
    <Point>
      <extrude>1</extrude>
      <tesselate>0</tesselate>
      <altitudeMode>relativeToGround</altitudeMode>
      <coordinates>9.2864, 47.3575,20</coordinates>
    </Point>
  </Placemark><Placemark>
    <name>Zürchersmühle</name>
    <Style><LineStyle><width>2</width></LineStyle></Style>
    <Point>
      <extrude>1</extrude>
      <tesselate>0</tesselate>
      <altitudeMode>relativeToGround</altitudeMode>
      <coordinates>9.29258, 47.3303,20</coordinates>
    </Point>
  </Placemark><Placemark>
    <name>Degersheim, Kreuzstrasse</name>
    <Style><LineStyle><width>2</width></LineStyle></Style>
    <Point>
      <extrude>1</extrude>
      <tesselate>0</tesselate>
      <altitudeMode>relativeToGround</altitudeMode>
      <coordinates>9.19369, 47.3911,20</coordinates>
    </Point>
  </Placemark></Document>
</kml>
