<kml>
<Document>

<Region>
<LatLonAltBox>
<north>47.591425</north><south>47.525181</south><east>8.990416</east><west>8.838145</west>
<minAltitude>0.000000</minAltitude><maxAltitude>0.000000</maxAltitude>
</LatLonAltBox>
<minLodPixels>2048</minLodPixels><maxLodPixels>1000000000</maxLodPixels>
<minFadeExtent>0</minFadeExtent><maxFadeExtent>0</maxFadeExtent>
</Region>
<NetworkLink>
<name>0103000</name>

<Region>
<LatLonAltBox>
<north>47.591425</north><south>47.558303</south><east>8.914281</east><west>8.838145</west>
<minAltitude>0.000000</minAltitude><maxAltitude>0.000000</maxAltitude>
</LatLonAltBox>
<minLodPixels>256</minLodPixels><maxLodPixels>1000000000</maxLodPixels>
<minFadeExtent>0</minFadeExtent><maxFadeExtent>0</maxFadeExtent>
</Region>
<Link>
<href>0103000.kml</href><viewRefreshMode>onRegion</viewRefreshMode></Link>
</NetworkLink>
<NetworkLink>
<name>0103001</name>

<Region>
<LatLonAltBox>
<north>47.591425</north><south>47.558303</south><east>8.990416</east><west>8.914281</west>
<minAltitude>0.000000</minAltitude><maxAltitude>0.000000</maxAltitude>
</LatLonAltBox>
<minLodPixels>256</minLodPixels><maxLodPixels>1000000000</maxLodPixels>
<minFadeExtent>0</minFadeExtent><maxFadeExtent>0</maxFadeExtent>
</Region>
<Link>
<href>0103001.kml</href><viewRefreshMode>onRegion</viewRefreshMode></Link>
</NetworkLink>
<NetworkLink>
<name>0103002</name>

<Region>
<LatLonAltBox>
<north>47.558303</north><south>47.525181</south><east>8.914281</east><west>8.838145</west>
<minAltitude>0.000000</minAltitude><maxAltitude>0.000000</maxAltitude>
</LatLonAltBox>
<minLodPixels>256</minLodPixels><maxLodPixels>1000000000</maxLodPixels>
<minFadeExtent>0</minFadeExtent><maxFadeExtent>0</maxFadeExtent>
</Region>
<Link>
<href>0103002.kml</href><viewRefreshMode>onRegion</viewRefreshMode></Link>
</NetworkLink>
<NetworkLink>
<name>0103003</name>

<Region>
<LatLonAltBox>
<north>47.558303</north><south>47.525181</south><east>8.990416</east><west>8.914281</west>
<minAltitude>0.000000</minAltitude><maxAltitude>0.000000</maxAltitude>
</LatLonAltBox>
<minLodPixels>256</minLodPixels><maxLodPixels>1000000000</maxLodPixels>
<minFadeExtent>0</minFadeExtent><maxFadeExtent>0</maxFadeExtent>
</Region>
<Link>
<href>0103003.kml</href><viewRefreshMode>onRegion</viewRefreshMode></Link>
</NetworkLink>
<Placemark>
    <name>Frauenfeld, Gerlikonerstrasse</name>
    <Style><LineStyle><width>2</width></LineStyle></Style>
    <Point>
      <extrude>1</extrude>
      <tesselate>0</tesselate>
      <altitudeMode>relativeToGround</altitudeMode>
      <coordinates>8.89339, 47.5523,20</coordinates>
    </Point>
  </Placemark><Placemark>
    <name>Islikon, Bahnhof</name>
    <Style><LineStyle><width>2</width></LineStyle></Style>
    <Point>
      <extrude>1</extrude>
      <tesselate>0</tesselate>
      <altitudeMode>relativeToGround</altitudeMode>
      <coordinates>8.84517, 47.5474,20</coordinates>
    </Point>
  </Placemark><Placemark>
    <name>Frauenfeld, SIA</name>
    <Style><LineStyle><width>2</width></LineStyle></Style>
    <Point>
      <extrude>1</extrude>
      <tesselate>0</tesselate>
      <altitudeMode>relativeToGround</altitudeMode>
      <coordinates>8.8986, 47.5605,20</coordinates>
    </Point>
  </Placemark><Placemark>
    <name>Pfyn, Biberpfad</name>
    <Style><LineStyle><width>2</width></LineStyle></Style>
    <Point>
      <extrude>1</extrude>
      <tesselate>0</tesselate>
      <altitudeMode>relativeToGround</altitudeMode>
      <coordinates>8.94735, 47.5902,20</coordinates>
    </Point>
  </Placemark><Placemark>
    <name>Islikon</name>
    <Style><LineStyle><width>2</width></LineStyle></Style>
    <Point>
      <extrude>1</extrude>
      <tesselate>0</tesselate>
      <altitudeMode>relativeToGround</altitudeMode>
      <coordinates>8.84618, 47.5479,20</coordinates>
    </Point>
  </Placemark><Placemark>
    <name>Dingenhart, Stählibuck</name>
    <Style><LineStyle><width>2</width></LineStyle></Style>
    <Point>
      <extrude>1</extrude>
      <tesselate>0</tesselate>
      <altitudeMode>relativeToGround</altitudeMode>
      <coordinates>8.93974, 47.5465,20</coordinates>
    </Point>
  </Placemark><Placemark>
    <name>Frauenfeld, Schaffhauserplatz</name>
    <Style><LineStyle><width>2</width></LineStyle></Style>
    <Point>
      <extrude>1</extrude>
      <tesselate>0</tesselate>
      <altitudeMode>relativeToGround</altitudeMode>
      <coordinates>8.8913, 47.5608,20</coordinates>
    </Point>
  </Placemark><Placemark>
    <name>Frauenfeld, neue Kaserne</name>
    <Style><LineStyle><width>2</width></LineStyle></Style>
    <Point>
      <extrude>1</extrude>
      <tesselate>0</tesselate>
      <altitudeMode>relativeToGround</altitudeMode>
      <coordinates>8.88689, 47.5721,20</coordinates>
    </Point>
  </Placemark><Placemark>
    <name>Frauenfeld, Graströchni</name>
    <Style><LineStyle><width>2</width></LineStyle></Style>
    <Point>
      <extrude>1</extrude>
      <tesselate>0</tesselate>
      <altitudeMode>relativeToGround</altitudeMode>
      <coordinates>8.85956, 47.5666,20</coordinates>
    </Point>
  </Placemark><Placemark>
    <name>Erzenholz, alte Post</name>
    <Style><LineStyle><width>2</width></LineStyle></Style>
    <Point>
      <extrude>1</extrude>
      <tesselate>0</tesselate>
      <altitudeMode>relativeToGround</altitudeMode>
      <coordinates>8.85295, 47.5678,20</coordinates>
    </Point>
  </Placemark><Placemark>
    <name>Frauenfeld, Sonnmatt</name>
    <Style><LineStyle><width>2</width></LineStyle></Style>
    <Point>
      <extrude>1</extrude>
      <tesselate>0</tesselate>
      <altitudeMode>relativeToGround</altitudeMode>
      <coordinates>8.86711, 47.5629,20</coordinates>
    </Point>
  </Placemark><Placemark>
    <name>Frauenfeld, Hilzinger</name>
    <Style><LineStyle><width>2</width></LineStyle></Style>
    <Point>
      <extrude>1</extrude>
      <tesselate>0</tesselate>
      <altitudeMode>relativeToGround</altitudeMode>
      <coordinates>8.86849, 47.5649,20</coordinates>
    </Point>
  </Placemark><Placemark>
    <name>Frauenfeld, Bruder-K. Kapelle</name>
    <Style><LineStyle><width>2</width></LineStyle></Style>
    <Point>
      <extrude>1</extrude>
      <tesselate>0</tesselate>
      <altitudeMode>relativeToGround</altitudeMode>
      <coordinates>8.88731, 47.5483,20</coordinates>
    </Point>
  </Placemark><Placemark>
    <name>Frauenfeld, Talackerstrasse</name>
    <Style><LineStyle><width>2</width></LineStyle></Style>
    <Point>
      <extrude>1</extrude>
      <tesselate>0</tesselate>
      <altitudeMode>relativeToGround</altitudeMode>
      <coordinates>8.89336, 47.5509,20</coordinates>
    </Point>
  </Placemark><Placemark>
    <name>Frauenfeld, Rorerbrücke</name>
    <Style><LineStyle><width>2</width></LineStyle></Style>
    <Point>
      <extrude>1</extrude>
      <tesselate>0</tesselate>
      <altitudeMode>relativeToGround</altitudeMode>
      <coordinates>8.88468, 47.5786,20</coordinates>
    </Point>
  </Placemark><Placemark>
    <name>Dingenhart, Dorf</name>
    <Style><LineStyle><width>2</width></LineStyle></Style>
    <Point>
      <extrude>1</extrude>
      <tesselate>0</tesselate>
      <altitudeMode>relativeToGround</altitudeMode>
      <coordinates>8.93373, 47.5454,20</coordinates>
    </Point>
  </Placemark><Placemark>
    <name>Thundorf, Aufhofen</name>
    <Style><LineStyle><width>2</width></LineStyle></Style>
    <Point>
      <extrude>1</extrude>
      <tesselate>0</tesselate>
      <altitudeMode>relativeToGround</altitudeMode>
      <coordinates>8.97231, 47.5472,20</coordinates>
    </Point>
  </Placemark><Placemark>
    <name>Warth, Post</name>
    <Style><LineStyle><width>2</width></LineStyle></Style>
    <Point>
      <extrude>1</extrude>
      <tesselate>0</tesselate>
      <altitudeMode>relativeToGround</altitudeMode>
      <coordinates>8.87462, 47.5828,20</coordinates>
    </Point>
  </Placemark><Placemark>
    <name>Gerlikon, Post</name>
    <Style><LineStyle><width>2</width></LineStyle></Style>
    <Point>
      <extrude>1</extrude>
      <tesselate>0</tesselate>
      <altitudeMode>relativeToGround</altitudeMode>
      <coordinates>8.87704, 47.5371,20</coordinates>
    </Point>
  </Placemark><Placemark>
    <name>Gachnang, Dorf</name>
    <Style><LineStyle><width>2</width></LineStyle></Style>
    <Point>
      <extrude>1</extrude>
      <tesselate>0</tesselate>
      <altitudeMode>relativeToGround</altitudeMode>
      <coordinates>8.85318, 47.5388,20</coordinates>
    </Point>
  </Placemark><Placemark>
    <name>Felben, Löwen</name>
    <Style><LineStyle><width>2</width></LineStyle></Style>
    <Point>
      <extrude>1</extrude>
      <tesselate>0</tesselate>
      <altitudeMode>relativeToGround</altitudeMode>
      <coordinates>8.94334, 47.58,20</coordinates>
    </Point>
  </Placemark><Placemark>
    <name>Uesslingen, Post</name>
    <Style><LineStyle><width>2</width></LineStyle></Style>
    <Point>
      <extrude>1</extrude>
      <tesselate>0</tesselate>
      <altitudeMode>relativeToGround</altitudeMode>
      <coordinates>8.8443, 47.5801,20</coordinates>
    </Point>
  </Placemark><Placemark>
    <name>Thundorf, Post</name>
    <Style><LineStyle><width>2</width></LineStyle></Style>
    <Point>
      <extrude>1</extrude>
      <tesselate>0</tesselate>
      <altitudeMode>relativeToGround</altitudeMode>
      <coordinates>8.96664, 47.5464,20</coordinates>
    </Point>
  </Placemark><Placemark>
    <name>Weiningen TG, Post</name>
    <Style><LineStyle><width>2</width></LineStyle></Style>
    <Point>
      <extrude>1</extrude>
      <tesselate>0</tesselate>
      <altitudeMode>relativeToGround</altitudeMode>
      <coordinates>8.88676, 47.5892,20</coordinates>
    </Point>
  </Placemark><Placemark>
    <name>Frauenfeld, Scheidweg</name>
    <Style><LineStyle><width>2</width></LineStyle></Style>
    <Point>
      <extrude>1</extrude>
      <tesselate>0</tesselate>
      <altitudeMode>relativeToGround</altitudeMode>
      <coordinates>8.92113, 47.5701,20</coordinates>
    </Point>
  </Placemark><Placemark>
    <name>Felben, Unterdorf</name>
    <Style><LineStyle><width>2</width></LineStyle></Style>
    <Point>
      <extrude>1</extrude>
      <tesselate>0</tesselate>
      <altitudeMode>relativeToGround</altitudeMode>
      <coordinates>8.93795, 47.5773,20</coordinates>
    </Point>
  </Placemark><Placemark>
    <name>Strass</name>
    <Style><LineStyle><width>2</width></LineStyle></Style>
    <Point>
      <extrude>1</extrude>
      <tesselate>0</tesselate>
      <altitudeMode>relativeToGround</altitudeMode>
      <coordinates>8.85778, 47.5621,20</coordinates>
    </Point>
  </Placemark><Placemark>
    <name>Thundorf, Fela</name>
    <Style><LineStyle><width>2</width></LineStyle></Style>
    <Point>
      <extrude>1</extrude>
      <tesselate>0</tesselate>
      <altitudeMode>relativeToGround</altitudeMode>
      <coordinates>8.95866, 47.546,20</coordinates>
    </Point>
  </Placemark><Placemark>
    <name>Huben, Dorf</name>
    <Style><LineStyle><width>2</width></LineStyle></Style>
    <Point>
      <extrude>1</extrude>
      <tesselate>0</tesselate>
      <altitudeMode>relativeToGround</altitudeMode>
      <coordinates>8.91215, 47.5457,20</coordinates>
    </Point>
  </Placemark><Placemark>
    <name>Frauenfeld, Rosenbergstrasse</name>
    <Style><LineStyle><width>2</width></LineStyle></Style>
    <Point>
      <extrude>1</extrude>
      <tesselate>0</tesselate>
      <altitudeMode>relativeToGround</altitudeMode>
      <coordinates>8.90527, 47.5492,20</coordinates>
    </Point>
  </Placemark><Placemark>
    <name>Häuslenen, Moos</name>
    <Style><LineStyle><width>2</width></LineStyle></Style>
    <Point>
      <extrude>1</extrude>
      <tesselate>0</tesselate>
      <altitudeMode>relativeToGround</altitudeMode>
      <coordinates>8.9042, 47.5297,20</coordinates>
    </Point>
  </Placemark><Placemark>
    <name>Frauenfeld, Reutenenstrasse</name>
    <Style><LineStyle><width>2</width></LineStyle></Style>
    <Point>
      <extrude>1</extrude>
      <tesselate>0</tesselate>
      <altitudeMode>relativeToGround</altitudeMode>
      <coordinates>8.89907, 47.5533,20</coordinates>
    </Point>
  </Placemark><Placemark>
    <name>Oberwil TG, Dorf</name>
    <Style><LineStyle><width>2</width></LineStyle></Style>
    <Point>
      <extrude>1</extrude>
      <tesselate>0</tesselate>
      <altitudeMode>relativeToGround</altitudeMode>
      <coordinates>8.8668, 47.5517,20</coordinates>
    </Point>
  </Placemark><Placemark>
    <name>Felben-Wellhausen, Schulhaus</name>
    <Style><LineStyle><width>2</width></LineStyle></Style>
    <Point>
      <extrude>1</extrude>
      <tesselate>0</tesselate>
      <altitudeMode>relativeToGround</altitudeMode>
      <coordinates>8.94488, 47.5757,20</coordinates>
    </Point>
  </Placemark><Placemark>
    <name>Wellhausen</name>
    <Style><LineStyle><width>2</width></LineStyle></Style>
    <Point>
      <extrude>1</extrude>
      <tesselate>0</tesselate>
      <altitudeMode>relativeToGround</altitudeMode>
      <coordinates>8.9448, 47.573,20</coordinates>
    </Point>
  </Placemark><Placemark>
    <name>Kartause Ittingen</name>
    <Style><LineStyle><width>2</width></LineStyle></Style>
    <Point>
      <extrude>1</extrude>
      <tesselate>0</tesselate>
      <altitudeMode>relativeToGround</altitudeMode>
      <coordinates>8.86398, 47.5828,20</coordinates>
    </Point>
  </Placemark><Placemark>
    <name>Häuslenen, Post</name>
    <Style><LineStyle><width>2</width></LineStyle></Style>
    <Point>
      <extrude>1</extrude>
      <tesselate>0</tesselate>
      <altitudeMode>relativeToGround</altitudeMode>
      <coordinates>8.90366, 47.5269,20</coordinates>
    </Point>
  </Placemark><Placemark>
    <name>Horgenbach, Hauptstrasse</name>
    <Style><LineStyle><width>2</width></LineStyle></Style>
    <Point>
      <extrude>1</extrude>
      <tesselate>0</tesselate>
      <altitudeMode>relativeToGround</altitudeMode>
      <coordinates>8.84467, 47.5688,20</coordinates>
    </Point>
  </Placemark><Placemark>
    <name>Hüttlingen-Mettendorf</name>
    <Style><LineStyle><width>2</width></LineStyle></Style>
    <Point>
      <extrude>1</extrude>
      <tesselate>0</tesselate>
      <altitudeMode>relativeToGround</altitudeMode>
      <coordinates>8.97453, 47.5824,20</coordinates>
    </Point>
  </Placemark><Placemark>
    <name>Felben-Wellhausen</name>
    <Style><LineStyle><width>2</width></LineStyle></Style>
    <Point>
      <extrude>1</extrude>
      <tesselate>0</tesselate>
      <altitudeMode>relativeToGround</altitudeMode>
      <coordinates>8.94315, 47.5771,20</coordinates>
    </Point>
  </Placemark><Placemark>
    <name>Frauenfeld</name>
    <Style><LineStyle><width>2</width></LineStyle></Style>
    <Point>
      <extrude>1</extrude>
      <tesselate>0</tesselate>
      <altitudeMode>relativeToGround</altitudeMode>
      <coordinates>8.89653, 47.5582,20</coordinates>
    </Point>
  </Placemark><Placemark>
    <name>Frauenfeld, Langdorf</name>
    <Style><LineStyle><width>2</width></LineStyle></Style>
    <Point>
      <extrude>1</extrude>
      <tesselate>0</tesselate>
      <altitudeMode>relativeToGround</altitudeMode>
      <coordinates>8.90428, 47.5616,20</coordinates>
    </Point>
  </Placemark><Placemark>
    <name>Lustdorf</name>
    <Style><LineStyle><width>2</width></LineStyle></Style>
    <Point>
      <extrude>1</extrude>
      <tesselate>0</tesselate>
      <altitudeMode>relativeToGround</altitudeMode>
      <coordinates>8.985, 47.5495,20</coordinates>
    </Point>
  </Placemark><Placemark>
    <name>Gerlikon, Huggenbergerhaus</name>
    <Style><LineStyle><width>2</width></LineStyle></Style>
    <Point>
      <extrude>1</extrude>
      <tesselate>0</tesselate>
      <altitudeMode>relativeToGround</altitudeMode>
      <coordinates>8.88044, 47.5402,20</coordinates>
    </Point>
  </Placemark><Placemark>
    <name>Gerlikon, Bausel</name>
    <Style><LineStyle><width>2</width></LineStyle></Style>
    <Point>
      <extrude>1</extrude>
      <tesselate>0</tesselate>
      <altitudeMode>relativeToGround</altitudeMode>
      <coordinates>8.87577, 47.5394,20</coordinates>
    </Point>
  </Placemark><Placemark>
    <name>Gachnang, Hofen</name>
    <Style><LineStyle><width>2</width></LineStyle></Style>
    <Point>
      <extrude>1</extrude>
      <tesselate>0</tesselate>
      <altitudeMode>relativeToGround</altitudeMode>
      <coordinates>8.86148, 47.5414,20</coordinates>
    </Point>
  </Placemark><Placemark>
    <name>Gachnang, Oberwilerstrasse</name>
    <Style><LineStyle><width>2</width></LineStyle></Style>
    <Point>
      <extrude>1</extrude>
      <tesselate>0</tesselate>
      <altitudeMode>relativeToGround</altitudeMode>
      <coordinates>8.85584, 47.5392,20</coordinates>
    </Point>
  </Placemark><Placemark>
    <name>Gachnang, Trotte</name>
    <Style><LineStyle><width>2</width></LineStyle></Style>
    <Point>
      <extrude>1</extrude>
      <tesselate>0</tesselate>
      <altitudeMode>relativeToGround</altitudeMode>
      <coordinates>8.85054, 47.5397,20</coordinates>
    </Point>
  </Placemark><Placemark>
    <name>Frauenfeld, Freiestrasse</name>
    <Style><LineStyle><width>2</width></LineStyle></Style>
    <Point>
      <extrude>1</extrude>
      <tesselate>0</tesselate>
      <altitudeMode>relativeToGround</altitudeMode>
      <coordinates>8.89749, 47.5561,20</coordinates>
    </Point>
  </Placemark></Document>
</kml>
