<kml>
<Document>

<Region>
<LatLonAltBox>
<north>47.525181</north><south>47.458938</south><east>8.990416</east><west>8.838145</west>
<minAltitude>0.000000</minAltitude><maxAltitude>0.000000</maxAltitude>
</LatLonAltBox>
<minLodPixels>2048</minLodPixels><maxLodPixels>1000000000</maxLodPixels>
<minFadeExtent>0</minFadeExtent><maxFadeExtent>0</maxFadeExtent>
</Region>
<Placemark>
    <name>Jakobstal</name>
    <Style><LineStyle><width>2</width></LineStyle></Style>
    <Point>
      <extrude>1</extrude>
      <tesselate>0</tesselate>
      <altitudeMode>relativeToGround</altitudeMode>
      <coordinates>8.94425, 47.5089,20</coordinates>
    </Point>
  </Placemark><Placemark>
    <name>Stettfurt, Post</name>
    <Style><LineStyle><width>2</width></LineStyle></Style>
    <Point>
      <extrude>1</extrude>
      <tesselate>0</tesselate>
      <altitudeMode>relativeToGround</altitudeMode>
      <coordinates>8.95273, 47.5245,20</coordinates>
    </Point>
  </Placemark><Placemark>
    <name>Kalthäusern, Dorf</name>
    <Style><LineStyle><width>2</width></LineStyle></Style>
    <Point>
      <extrude>1</extrude>
      <tesselate>0</tesselate>
      <altitudeMode>relativeToGround</altitudeMode>
      <coordinates>8.97593, 47.5231,20</coordinates>
    </Point>
  </Placemark><Placemark>
    <name>Stettfurt, Lettenstrasse</name>
    <Style><LineStyle><width>2</width></LineStyle></Style>
    <Point>
      <extrude>1</extrude>
      <tesselate>0</tesselate>
      <altitudeMode>relativeToGround</altitudeMode>
      <coordinates>8.95801, 47.5235,20</coordinates>
    </Point>
  </Placemark><Placemark>
    <name>Weingarten, Brücke</name>
    <Style><LineStyle><width>2</width></LineStyle></Style>
    <Point>
      <extrude>1</extrude>
      <tesselate>0</tesselate>
      <altitudeMode>relativeToGround</altitudeMode>
      <coordinates>8.98618, 47.5216,20</coordinates>
    </Point>
  </Placemark><Placemark>
    <name>Weingarten-Kalthäusern, Post</name>
    <Style><LineStyle><width>2</width></LineStyle></Style>
    <Point>
      <extrude>1</extrude>
      <tesselate>0</tesselate>
      <altitudeMode>relativeToGround</altitudeMode>
      <coordinates>8.98527, 47.5245,20</coordinates>
    </Point>
  </Placemark><Placemark>
    <name>Elgg, Torweiher</name>
    <Style><LineStyle><width>2</width></LineStyle></Style>
    <Point>
      <extrude>1</extrude>
      <tesselate>0</tesselate>
      <altitudeMode>relativeToGround</altitudeMode>
      <coordinates>8.86937, 47.4889,20</coordinates>
    </Point>
  </Placemark><Placemark>
    <name>Elgg, Eintracht</name>
    <Style><LineStyle><width>2</width></LineStyle></Style>
    <Point>
      <extrude>1</extrude>
      <tesselate>0</tesselate>
      <altitudeMode>relativeToGround</altitudeMode>
      <coordinates>8.8664, 47.492,20</coordinates>
    </Point>
  </Placemark><Placemark>
    <name>Eschlikon</name>
    <Style><LineStyle><width>2</width></LineStyle></Style>
    <Point>
      <extrude>1</extrude>
      <tesselate>0</tesselate>
      <altitudeMode>relativeToGround</altitudeMode>
      <coordinates>8.95851, 47.4615,20</coordinates>
    </Point>
  </Placemark><Placemark>
    <name>Aadorf</name>
    <Style><LineStyle><width>2</width></LineStyle></Style>
    <Point>
      <extrude>1</extrude>
      <tesselate>0</tesselate>
      <altitudeMode>relativeToGround</altitudeMode>
      <coordinates>8.90328, 47.4881,20</coordinates>
    </Point>
  </Placemark><Placemark>
    <name>Guntershausen</name>
    <Style><LineStyle><width>2</width></LineStyle></Style>
    <Point>
      <extrude>1</extrude>
      <tesselate>0</tesselate>
      <altitudeMode>relativeToGround</altitudeMode>
      <coordinates>8.91701, 47.4741,20</coordinates>
    </Point>
  </Placemark><Placemark>
    <name>Elgg</name>
    <Style><LineStyle><width>2</width></LineStyle></Style>
    <Point>
      <extrude>1</extrude>
      <tesselate>0</tesselate>
      <altitudeMode>relativeToGround</altitudeMode>
      <coordinates>8.86339, 47.4985,20</coordinates>
    </Point>
  </Placemark><Placemark>
    <name>Ettenhausen TG, Post</name>
    <Style><LineStyle><width>2</width></LineStyle></Style>
    <Point>
      <extrude>1</extrude>
      <tesselate>0</tesselate>
      <altitudeMode>relativeToGround</altitudeMode>
      <coordinates>8.89998, 47.4775,20</coordinates>
    </Point>
  </Placemark><Placemark>
    <name>Ettenhausen TG, Weidlistrasse</name>
    <Style><LineStyle><width>2</width></LineStyle></Style>
    <Point>
      <extrude>1</extrude>
      <tesselate>0</tesselate>
      <altitudeMode>relativeToGround</altitudeMode>
      <coordinates>8.90466, 47.4839,20</coordinates>
    </Point>
  </Placemark><Placemark>
    <name>Aadorf, Bahnhof</name>
    <Style><LineStyle><width>2</width></LineStyle></Style>
    <Point>
      <extrude>1</extrude>
      <tesselate>0</tesselate>
      <altitudeMode>relativeToGround</altitudeMode>
      <coordinates>8.90332, 47.4882,20</coordinates>
    </Point>
  </Placemark><Placemark>
    <name>Aadorf, Zentrum</name>
    <Style><LineStyle><width>2</width></LineStyle></Style>
    <Point>
      <extrude>1</extrude>
      <tesselate>0</tesselate>
      <altitudeMode>relativeToGround</altitudeMode>
      <coordinates>8.91296, 47.4911,20</coordinates>
    </Point>
  </Placemark><Placemark>
    <name>Tänikon, Forschungsanstalt</name>
    <Style><LineStyle><width>2</width></LineStyle></Style>
    <Point>
      <extrude>1</extrude>
      <tesselate>0</tesselate>
      <altitudeMode>relativeToGround</altitudeMode>
      <coordinates>8.90546, 47.4792,20</coordinates>
    </Point>
  </Placemark><Placemark>
    <name>Ettenhausen TG, Dorf</name>
    <Style><LineStyle><width>2</width></LineStyle></Style>
    <Point>
      <extrude>1</extrude>
      <tesselate>0</tesselate>
      <altitudeMode>relativeToGround</altitudeMode>
      <coordinates>8.8993, 47.4772,20</coordinates>
    </Point>
  </Placemark><Placemark>
    <name>Hagenbuch ZH</name>
    <Style><LineStyle><width>2</width></LineStyle></Style>
    <Point>
      <extrude>1</extrude>
      <tesselate>0</tesselate>
      <altitudeMode>relativeToGround</altitudeMode>
      <coordinates>8.8904, 47.5219,20</coordinates>
    </Point>
  </Placemark><Placemark>
    <name>Eschlikon TG, Bahnhof Süd</name>
    <Style><LineStyle><width>2</width></LineStyle></Style>
    <Point>
      <extrude>1</extrude>
      <tesselate>0</tesselate>
      <altitudeMode>relativeToGround</altitudeMode>
      <coordinates>8.95921, 47.461,20</coordinates>
    </Point>
  </Placemark><Placemark>
    <name>Wiesengrund</name>
    <Style><LineStyle><width>2</width></LineStyle></Style>
    <Point>
      <extrude>1</extrude>
      <tesselate>0</tesselate>
      <altitudeMode>relativeToGround</altitudeMode>
      <coordinates>8.94887, 47.5022,20</coordinates>
    </Point>
  </Placemark><Placemark>
    <name>Eschlikon TG, Bahnhof</name>
    <Style><LineStyle><width>2</width></LineStyle></Style>
    <Point>
      <extrude>1</extrude>
      <tesselate>0</tesselate>
      <altitudeMode>relativeToGround</altitudeMode>
      <coordinates>8.95855, 47.461,20</coordinates>
    </Point>
  </Placemark><Placemark>
    <name>Wittenwil, Dorf</name>
    <Style><LineStyle><width>2</width></LineStyle></Style>
    <Point>
      <extrude>1</extrude>
      <tesselate>0</tesselate>
      <altitudeMode>relativeToGround</altitudeMode>
      <coordinates>8.9216, 47.5035,20</coordinates>
    </Point>
  </Placemark><Placemark>
    <name>Elgg, Bahnhof</name>
    <Style><LineStyle><width>2</width></LineStyle></Style>
    <Point>
      <extrude>1</extrude>
      <tesselate>0</tesselate>
      <altitudeMode>relativeToGround</altitudeMode>
      <coordinates>8.86342, 47.4984,20</coordinates>
    </Point>
  </Placemark><Placemark>
    <name>Sirnach, Hofen</name>
    <Style><LineStyle><width>2</width></LineStyle></Style>
    <Point>
      <extrude>1</extrude>
      <tesselate>0</tesselate>
      <altitudeMode>relativeToGround</altitudeMode>
      <coordinates>8.98912, 47.4633,20</coordinates>
    </Point>
  </Placemark><Placemark>
    <name>Aawangen, Dorf</name>
    <Style><LineStyle><width>2</width></LineStyle></Style>
    <Point>
      <extrude>1</extrude>
      <tesselate>0</tesselate>
      <altitudeMode>relativeToGround</altitudeMode>
      <coordinates>8.89987, 47.5121,20</coordinates>
    </Point>
  </Placemark></Document>
</kml>
