<kml>
<Document>

<Region>
<LatLonAltBox>
<north>47.458938</north><south>47.326450</south><east>9.447230</east><west>9.142688</west>
<minAltitude>0.000000</minAltitude><maxAltitude>0.000000</maxAltitude>
</LatLonAltBox>
<minLodPixels>2048</minLodPixels><maxLodPixels>1000000000</maxLodPixels>
<minFadeExtent>0</minFadeExtent><maxFadeExtent>0</maxFadeExtent>
</Region>
<NetworkLink>
<name>010330</name>

<Region>
<LatLonAltBox>
<north>47.458938</north><south>47.392694</south><east>9.294959</east><west>9.142688</west>
<minAltitude>0.000000</minAltitude><maxAltitude>0.000000</maxAltitude>
</LatLonAltBox>
<minLodPixels>256</minLodPixels><maxLodPixels>1000000000</maxLodPixels>
<minFadeExtent>0</minFadeExtent><maxFadeExtent>0</maxFadeExtent>
</Region>
<Link>
<href>010330.kml</href><viewRefreshMode>onRegion</viewRefreshMode></Link>
</NetworkLink>
<NetworkLink>
<name>010331</name>

<Region>
<LatLonAltBox>
<north>47.458938</north><south>47.392694</south><east>9.447230</east><west>9.294959</west>
<minAltitude>0.000000</minAltitude><maxAltitude>0.000000</maxAltitude>
</LatLonAltBox>
<minLodPixels>256</minLodPixels><maxLodPixels>1000000000</maxLodPixels>
<minFadeExtent>0</minFadeExtent><maxFadeExtent>0</maxFadeExtent>
</Region>
<Link>
<href>010331.kml</href><viewRefreshMode>onRegion</viewRefreshMode></Link>
</NetworkLink>
<NetworkLink>
<name>010332</name>

<Region>
<LatLonAltBox>
<north>47.392694</north><south>47.326450</south><east>9.294959</east><west>9.142688</west>
<minAltitude>0.000000</minAltitude><maxAltitude>0.000000</maxAltitude>
</LatLonAltBox>
<minLodPixels>256</minLodPixels><maxLodPixels>1000000000</maxLodPixels>
<minFadeExtent>0</minFadeExtent><maxFadeExtent>0</maxFadeExtent>
</Region>
<Link>
<href>010332.kml</href><viewRefreshMode>onRegion</viewRefreshMode></Link>
</NetworkLink>
<NetworkLink>
<name>010333</name>

<Region>
<LatLonAltBox>
<north>47.392694</north><south>47.326450</south><east>9.447230</east><west>9.294959</west>
<minAltitude>0.000000</minAltitude><maxAltitude>0.000000</maxAltitude>
</LatLonAltBox>
<minLodPixels>256</minLodPixels><maxLodPixels>1000000000</maxLodPixels>
<minFadeExtent>0</minFadeExtent><maxFadeExtent>0</maxFadeExtent>
</Region>
<Link>
<href>010333.kml</href><viewRefreshMode>onRegion</viewRefreshMode></Link>
</NetworkLink>
<Placemark>
    <name>Hundwil, Post</name>
    <Style><LineStyle><width>2</width></LineStyle></Style>
    <Point>
      <extrude>1</extrude>
      <tesselate>0</tesselate>
      <altitudeMode>relativeToGround</altitudeMode>
      <coordinates>9.3173, 47.3649,20</coordinates>
    </Point>
  </Placemark><Placemark>
    <name>St. Gallen, Neudorf/R'str.</name>
    <Style><LineStyle><width>2</width></LineStyle></Style>
    <Point>
      <extrude>1</extrude>
      <tesselate>0</tesselate>
      <altitudeMode>relativeToGround</altitudeMode>
      <coordinates>9.40604, 47.4372,20</coordinates>
    </Point>
  </Placemark><Placemark>
    <name>St. Gallen, Langgass</name>
    <Style><LineStyle><width>2</width></LineStyle></Style>
    <Point>
      <extrude>1</extrude>
      <tesselate>0</tesselate>
      <altitudeMode>relativeToGround</altitudeMode>
      <coordinates>9.38507, 47.4348,20</coordinates>
    </Point>
  </Placemark><Placemark>
    <name>St. Gallen Winkeln</name>
    <Style><LineStyle><width>2</width></LineStyle></Style>
    <Point>
      <extrude>1</extrude>
      <tesselate>0</tesselate>
      <altitudeMode>relativeToGround</altitudeMode>
      <coordinates>9.30084, 47.4039,20</coordinates>
    </Point>
  </Placemark><Placemark>
    <name>Engelburg, Dorfplatz</name>
    <Style><LineStyle><width>2</width></LineStyle></Style>
    <Point>
      <extrude>1</extrude>
      <tesselate>0</tesselate>
      <altitudeMode>relativeToGround</altitudeMode>
      <coordinates>9.34065, 47.4441,20</coordinates>
    </Point>
  </Placemark><Placemark>
    <name>Appenzell, Lehn</name>
    <Style><LineStyle><width>2</width></LineStyle></Style>
    <Point>
      <extrude>1</extrude>
      <tesselate>0</tesselate>
      <altitudeMode>relativeToGround</altitudeMode>
      <coordinates>9.41572, 47.3407,20</coordinates>
    </Point>
  </Placemark><Placemark>
    <name>Niederwil SG, Post</name>
    <Style><LineStyle><width>2</width></LineStyle></Style>
    <Point>
      <extrude>1</extrude>
      <tesselate>0</tesselate>
      <altitudeMode>relativeToGround</altitudeMode>
      <coordinates>9.19854, 47.4378,20</coordinates>
    </Point>
  </Placemark><Placemark>
    <name>Niederuzwil, Augarten</name>
    <Style><LineStyle><width>2</width></LineStyle></Style>
    <Point>
      <extrude>1</extrude>
      <tesselate>0</tesselate>
      <altitudeMode>relativeToGround</altitudeMode>
      <coordinates>9.14675, 47.4458,20</coordinates>
    </Point>
  </Placemark><Placemark>
    <name>St. Gallen, Breitfeld</name>
    <Style><LineStyle><width>2</width></LineStyle></Style>
    <Point>
      <extrude>1</extrude>
      <tesselate>0</tesselate>
      <altitudeMode>relativeToGround</altitudeMode>
      <coordinates>9.30277, 47.4038,20</coordinates>
    </Point>
  </Placemark><Placemark>
    <name>St. Gallen, Fürstenlandbrücke</name>
    <Style><LineStyle><width>2</width></LineStyle></Style>
    <Point>
      <extrude>1</extrude>
      <tesselate>0</tesselate>
      <altitudeMode>relativeToGround</altitudeMode>
      <coordinates>9.33654, 47.4122,20</coordinates>
    </Point>
  </Placemark><Placemark>
    <name>Gossau SG, Mettendorf</name>
    <Style><LineStyle><width>2</width></LineStyle></Style>
    <Point>
      <extrude>1</extrude>
      <tesselate>0</tesselate>
      <altitudeMode>relativeToGround</altitudeMode>
      <coordinates>9.26577, 47.4165,20</coordinates>
    </Point>
  </Placemark><Placemark>
    <name>Oberbüren, Eich/Au</name>
    <Style><LineStyle><width>2</width></LineStyle></Style>
    <Point>
      <extrude>1</extrude>
      <tesselate>0</tesselate>
      <altitudeMode>relativeToGround</altitudeMode>
      <coordinates>9.17689, 47.4548,20</coordinates>
    </Point>
  </Placemark><Placemark>
    <name>Oberbüren, Post</name>
    <Style><LineStyle><width>2</width></LineStyle></Style>
    <Point>
      <extrude>1</extrude>
      <tesselate>0</tesselate>
      <altitudeMode>relativeToGround</altitudeMode>
      <coordinates>9.15953, 47.4512,20</coordinates>
    </Point>
  </Placemark><Placemark>
    <name>Arnegg, Restaurant Ilge</name>
    <Style><LineStyle><width>2</width></LineStyle></Style>
    <Point>
      <extrude>1</extrude>
      <tesselate>0</tesselate>
      <altitudeMode>relativeToGround</altitudeMode>
      <coordinates>9.25903, 47.4423,20</coordinates>
    </Point>
  </Placemark><Placemark>
    <name>Mörschwil, Riederen</name>
    <Style><LineStyle><width>2</width></LineStyle></Style>
    <Point>
      <extrude>1</extrude>
      <tesselate>0</tesselate>
      <altitudeMode>relativeToGround</altitudeMode>
      <coordinates>9.43072, 47.4588,20</coordinates>
    </Point>
  </Placemark><Placemark>
    <name>Abtwil SG, St. Josefen</name>
    <Style><LineStyle><width>2</width></LineStyle></Style>
    <Point>
      <extrude>1</extrude>
      <tesselate>0</tesselate>
      <altitudeMode>relativeToGround</altitudeMode>
      <coordinates>9.33139, 47.4232,20</coordinates>
    </Point>
  </Placemark><Placemark>
    <name>Abtwil SG, Säntispark</name>
    <Style><LineStyle><width>2</width></LineStyle></Style>
    <Point>
      <extrude>1</extrude>
      <tesselate>0</tesselate>
      <altitudeMode>relativeToGround</altitudeMode>
      <coordinates>9.31502, 47.4175,20</coordinates>
    </Point>
  </Placemark><Placemark>
    <name>Abtwil SG, Zentrumspark</name>
    <Style><LineStyle><width>2</width></LineStyle></Style>
    <Point>
      <extrude>1</extrude>
      <tesselate>0</tesselate>
      <altitudeMode>relativeToGround</altitudeMode>
      <coordinates>9.31735, 47.4227,20</coordinates>
    </Point>
  </Placemark><Placemark>
    <name>Engelburg, Abzw. Spisegg</name>
    <Style><LineStyle><width>2</width></LineStyle></Style>
    <Point>
      <extrude>1</extrude>
      <tesselate>0</tesselate>
      <altitudeMode>relativeToGround</altitudeMode>
      <coordinates>9.34132, 47.4257,20</coordinates>
    </Point>
  </Placemark><Placemark>
    <name>Herisau, Rietwis</name>
    <Style><LineStyle><width>2</width></LineStyle></Style>
    <Point>
      <extrude>1</extrude>
      <tesselate>0</tesselate>
      <altitudeMode>relativeToGround</altitudeMode>
      <coordinates>9.26153, 47.3991,20</coordinates>
    </Point>
  </Placemark><Placemark>
    <name>Herisau, Bahnhof</name>
    <Style><LineStyle><width>2</width></LineStyle></Style>
    <Point>
      <extrude>1</extrude>
      <tesselate>0</tesselate>
      <altitudeMode>relativeToGround</altitudeMode>
      <coordinates>9.27712, 47.3903,20</coordinates>
    </Point>
  </Placemark><Placemark>
    <name>Flawil, Badstrasse</name>
    <Style><LineStyle><width>2</width></LineStyle></Style>
    <Point>
      <extrude>1</extrude>
      <tesselate>0</tesselate>
      <altitudeMode>relativeToGround</altitudeMode>
      <coordinates>9.18475, 47.4115,20</coordinates>
    </Point>
  </Placemark><Placemark>
    <name>Flawil, Bärenplatz</name>
    <Style><LineStyle><width>2</width></LineStyle></Style>
    <Point>
      <extrude>1</extrude>
      <tesselate>0</tesselate>
      <altitudeMode>relativeToGround</altitudeMode>
      <coordinates>9.18778, 47.413,20</coordinates>
    </Point>
  </Placemark><Placemark>
    <name>Flawil, Oberstrasse</name>
    <Style><LineStyle><width>2</width></LineStyle></Style>
    <Point>
      <extrude>1</extrude>
      <tesselate>0</tesselate>
      <altitudeMode>relativeToGround</altitudeMode>
      <coordinates>9.17685, 47.413,20</coordinates>
    </Point>
  </Placemark><Placemark>
    <name>Flawil, Alterssiedlung</name>
    <Style><LineStyle><width>2</width></LineStyle></Style>
    <Point>
      <extrude>1</extrude>
      <tesselate>0</tesselate>
      <altitudeMode>relativeToGround</altitudeMode>
      <coordinates>9.18021, 47.4145,20</coordinates>
    </Point>
  </Placemark><Placemark>
    <name>Flawil, Rütistrasse</name>
    <Style><LineStyle><width>2</width></LineStyle></Style>
    <Point>
      <extrude>1</extrude>
      <tesselate>0</tesselate>
      <altitudeMode>relativeToGround</altitudeMode>
      <coordinates>9.1707, 47.4175,20</coordinates>
    </Point>
  </Placemark><Placemark>
    <name>Flawil, Unterstrasse</name>
    <Style><LineStyle><width>2</width></LineStyle></Style>
    <Point>
      <extrude>1</extrude>
      <tesselate>0</tesselate>
      <altitudeMode>relativeToGround</altitudeMode>
      <coordinates>9.17493, 47.415,20</coordinates>
    </Point>
  </Placemark><Placemark>
    <name>Flawil, Lören</name>
    <Style><LineStyle><width>2</width></LineStyle></Style>
    <Point>
      <extrude>1</extrude>
      <tesselate>0</tesselate>
      <altitudeMode>relativeToGround</altitudeMode>
      <coordinates>9.18003, 47.419,20</coordinates>
    </Point>
  </Placemark><Placemark>
    <name>Flawil, Herrensberg</name>
    <Style><LineStyle><width>2</width></LineStyle></Style>
    <Point>
      <extrude>1</extrude>
      <tesselate>0</tesselate>
      <altitudeMode>relativeToGround</altitudeMode>
      <coordinates>9.17537, 47.4186,20</coordinates>
    </Point>
  </Placemark><Placemark>
    <name>Engelburg, Chapf</name>
    <Style><LineStyle><width>2</width></LineStyle></Style>
    <Point>
      <extrude>1</extrude>
      <tesselate>0</tesselate>
      <altitudeMode>relativeToGround</altitudeMode>
      <coordinates>9.35231, 47.4457,20</coordinates>
    </Point>
  </Placemark><Placemark>
    <name>Waldstatt, Dorf</name>
    <Style><LineStyle><width>2</width></LineStyle></Style>
    <Point>
      <extrude>1</extrude>
      <tesselate>0</tesselate>
      <altitudeMode>relativeToGround</altitudeMode>
      <coordinates>9.28492, 47.3573,20</coordinates>
    </Point>
  </Placemark><Placemark>
    <name>St. Gallen, Marktplatz Bohl</name>
    <Style><LineStyle><width>2</width></LineStyle></Style>
    <Point>
      <extrude>1</extrude>
      <tesselate>0</tesselate>
      <altitudeMode>relativeToGround</altitudeMode>
      <coordinates>9.37648, 47.4264,20</coordinates>
    </Point>
  </Placemark><Placemark>
    <name>Arnegg</name>
    <Style><LineStyle><width>2</width></LineStyle></Style>
    <Point>
      <extrude>1</extrude>
      <tesselate>0</tesselate>
      <altitudeMode>relativeToGround</altitudeMode>
      <coordinates>9.252, 47.442,20</coordinates>
    </Point>
  </Placemark><Placemark>
    <name>Gossau SG</name>
    <Style><LineStyle><width>2</width></LineStyle></Style>
    <Point>
      <extrude>1</extrude>
      <tesselate>0</tesselate>
      <altitudeMode>relativeToGround</altitudeMode>
      <coordinates>9.25303, 47.4118,20</coordinates>
    </Point>
  </Placemark><Placemark>
    <name>Bühler</name>
    <Style><LineStyle><width>2</width></LineStyle></Style>
    <Point>
      <extrude>1</extrude>
      <tesselate>0</tesselate>
      <altitudeMode>relativeToGround</altitudeMode>
      <coordinates>9.42113, 47.373,20</coordinates>
    </Point>
  </Placemark><Placemark>
    <name>Andwil SG, Post</name>
    <Style><LineStyle><width>2</width></LineStyle></Style>
    <Point>
      <extrude>1</extrude>
      <tesselate>0</tesselate>
      <altitudeMode>relativeToGround</altitudeMode>
      <coordinates>9.27052, 47.4389,20</coordinates>
    </Point>
  </Placemark><Placemark>
    <name>Andwil SG, St. Margrethen</name>
    <Style><LineStyle><width>2</width></LineStyle></Style>
    <Point>
      <extrude>1</extrude>
      <tesselate>0</tesselate>
      <altitudeMode>relativeToGround</altitudeMode>
      <coordinates>9.27075, 47.4266,20</coordinates>
    </Point>
  </Placemark><Placemark>
    <name>Gossau SG, Gerbhof</name>
    <Style><LineStyle><width>2</width></LineStyle></Style>
    <Point>
      <extrude>1</extrude>
      <tesselate>0</tesselate>
      <altitudeMode>relativeToGround</altitudeMode>
      <coordinates>9.25185, 47.4165,20</coordinates>
    </Point>
  </Placemark><Placemark>
    <name>Gossau SG, Migros-Markt</name>
    <Style><LineStyle><width>2</width></LineStyle></Style>
    <Point>
      <extrude>1</extrude>
      <tesselate>0</tesselate>
      <altitudeMode>relativeToGround</altitudeMode>
      <coordinates>9.2565, 47.4169,20</coordinates>
    </Point>
  </Placemark><Placemark>
    <name>Andwil SG, Othmarsegg</name>
    <Style><LineStyle><width>2</width></LineStyle></Style>
    <Point>
      <extrude>1</extrude>
      <tesselate>0</tesselate>
      <altitudeMode>relativeToGround</altitudeMode>
      <coordinates>9.27271, 47.4353,20</coordinates>
    </Point>
  </Placemark><Placemark>
    <name>Andwil SG, Grünau</name>
    <Style><LineStyle><width>2</width></LineStyle></Style>
    <Point>
      <extrude>1</extrude>
      <tesselate>0</tesselate>
      <altitudeMode>relativeToGround</altitudeMode>
      <coordinates>9.26458, 47.4397,20</coordinates>
    </Point>
  </Placemark><Placemark>
    <name>Arnegg, Weideggstrasse</name>
    <Style><LineStyle><width>2</width></LineStyle></Style>
    <Point>
      <extrude>1</extrude>
      <tesselate>0</tesselate>
      <altitudeMode>relativeToGround</altitudeMode>
      <coordinates>9.25576, 47.4437,20</coordinates>
    </Point>
  </Placemark><Placemark>
    <name>Schönengrund, Wohnheim</name>
    <Style><LineStyle><width>2</width></LineStyle></Style>
    <Point>
      <extrude>1</extrude>
      <tesselate>0</tesselate>
      <altitudeMode>relativeToGround</altitudeMode>
      <coordinates>9.23244, 47.332,20</coordinates>
    </Point>
  </Placemark><Placemark>
    <name>Schwellbrunn, Rotschwendi</name>
    <Style><LineStyle><width>2</width></LineStyle></Style>
    <Point>
      <extrude>1</extrude>
      <tesselate>0</tesselate>
      <altitudeMode>relativeToGround</altitudeMode>
      <coordinates>9.25637, 47.3452,20</coordinates>
    </Point>
  </Placemark><Placemark>
    <name>Brunnadern, Spreitenbach</name>
    <Style><LineStyle><width>2</width></LineStyle></Style>
    <Point>
      <extrude>1</extrude>
      <tesselate>0</tesselate>
      <altitudeMode>relativeToGround</altitudeMode>
      <coordinates>9.14495, 47.3273,20</coordinates>
    </Point>
  </Placemark><Placemark>
    <name>Schönengrund, Postgarage</name>
    <Style><LineStyle><width>2</width></LineStyle></Style>
    <Point>
      <extrude>1</extrude>
      <tesselate>0</tesselate>
      <altitudeMode>relativeToGround</altitudeMode>
      <coordinates>9.22138, 47.3279,20</coordinates>
    </Point>
  </Placemark><Placemark>
    <name>Strahlholz</name>
    <Style><LineStyle><width>2</width></LineStyle></Style>
    <Point>
      <extrude>1</extrude>
      <tesselate>0</tesselate>
      <altitudeMode>relativeToGround</altitudeMode>
      <coordinates>9.43197, 47.3665,20</coordinates>
    </Point>
  </Placemark><Placemark>
    <name>Gontenbad</name>
    <Style><LineStyle><width>2</width></LineStyle></Style>
    <Point>
      <extrude>1</extrude>
      <tesselate>0</tesselate>
      <altitudeMode>relativeToGround</altitudeMode>
      <coordinates>9.37273, 47.3318,20</coordinates>
    </Point>
  </Placemark><Placemark>
    <name>St. Gallen Marktplatz</name>
    <Style><LineStyle><width>2</width></LineStyle></Style>
    <Point>
      <extrude>1</extrude>
      <tesselate>0</tesselate>
      <altitudeMode>relativeToGround</altitudeMode>
      <coordinates>9.37638, 47.4264,20</coordinates>
    </Point>
  </Placemark></Document>
</kml>
