<kml>
<Document>

<Region>
<LatLonAltBox>
<north>47.525181</north><south>47.458938</south><east>9.294959</east><west>9.142688</west>
<minAltitude>0.000000</minAltitude><maxAltitude>0.000000</maxAltitude>
</LatLonAltBox>
<minLodPixels>2048</minLodPixels><maxLodPixels>1000000000</maxLodPixels>
<minFadeExtent>0</minFadeExtent><maxFadeExtent>0</maxFadeExtent>
</Region>
<Placemark>
    <name>Waldkirch, Gemeindehaus</name>
    <Style><LineStyle><width>2</width></LineStyle></Style>
    <Point>
      <extrude>1</extrude>
      <tesselate>0</tesselate>
      <altitudeMode>relativeToGround</altitudeMode>
      <coordinates>9.2875, 47.4699,20</coordinates>
    </Point>
  </Placemark><Placemark>
    <name>Buhwil, Oberdorf</name>
    <Style><LineStyle><width>2</width></LineStyle></Style>
    <Point>
      <extrude>1</extrude>
      <tesselate>0</tesselate>
      <altitudeMode>relativeToGround</altitudeMode>
      <coordinates>9.15029, 47.5247,20</coordinates>
    </Point>
  </Placemark><Placemark>
    <name>Zuckenriet, Post</name>
    <Style><LineStyle><width>2</width></LineStyle></Style>
    <Point>
      <extrude>1</extrude>
      <tesselate>0</tesselate>
      <altitudeMode>relativeToGround</altitudeMode>
      <coordinates>9.16192, 47.484,20</coordinates>
    </Point>
  </Placemark><Placemark>
    <name>Bischofszell, Fabrikstrasse</name>
    <Style><LineStyle><width>2</width></LineStyle></Style>
    <Point>
      <extrude>1</extrude>
      <tesselate>0</tesselate>
      <altitudeMode>relativeToGround</altitudeMode>
      <coordinates>9.2393, 47.4961,20</coordinates>
    </Point>
  </Placemark><Placemark>
    <name>Niederbüren, Nellen</name>
    <Style><LineStyle><width>2</width></LineStyle></Style>
    <Point>
      <extrude>1</extrude>
      <tesselate>0</tesselate>
      <altitudeMode>relativeToGround</altitudeMode>
      <coordinates>9.19405, 47.4624,20</coordinates>
    </Point>
  </Placemark><Placemark>
    <name>Zuckenriet, Sproochbrugg</name>
    <Style><LineStyle><width>2</width></LineStyle></Style>
    <Point>
      <extrude>1</extrude>
      <tesselate>0</tesselate>
      <altitudeMode>relativeToGround</altitudeMode>
      <coordinates>9.16173, 47.4784,20</coordinates>
    </Point>
  </Placemark><Placemark>
    <name>Sitterdorf, Post</name>
    <Style><LineStyle><width>2</width></LineStyle></Style>
    <Point>
      <extrude>1</extrude>
      <tesselate>0</tesselate>
      <altitudeMode>relativeToGround</altitudeMode>
      <coordinates>9.24649, 47.5028,20</coordinates>
    </Point>
  </Placemark><Placemark>
    <name>Neukirch an der Thur, Post</name>
    <Style><LineStyle><width>2</width></LineStyle></Style>
    <Point>
      <extrude>1</extrude>
      <tesselate>0</tesselate>
      <altitudeMode>relativeToGround</altitudeMode>
      <coordinates>9.17308, 47.5111,20</coordinates>
    </Point>
  </Placemark><Placemark>
    <name>Niederbüren, Aluwag</name>
    <Style><LineStyle><width>2</width></LineStyle></Style>
    <Point>
      <extrude>1</extrude>
      <tesselate>0</tesselate>
      <altitudeMode>relativeToGround</altitudeMode>
      <coordinates>9.19675, 47.4637,20</coordinates>
    </Point>
  </Placemark><Placemark>
    <name>Bischofszell, Waldschenke</name>
    <Style><LineStyle><width>2</width></LineStyle></Style>
    <Point>
      <extrude>1</extrude>
      <tesselate>0</tesselate>
      <altitudeMode>relativeToGround</altitudeMode>
      <coordinates>9.23259, 47.4841,20</coordinates>
    </Point>
  </Placemark><Placemark>
    <name>Kradolf, Dorf</name>
    <Style><LineStyle><width>2</width></LineStyle></Style>
    <Point>
      <extrude>1</extrude>
      <tesselate>0</tesselate>
      <altitudeMode>relativeToGround</altitudeMode>
      <coordinates>9.20115, 47.5246,20</coordinates>
    </Point>
  </Placemark><Placemark>
    <name>Niederhelfenschwil, Post</name>
    <Style><LineStyle><width>2</width></LineStyle></Style>
    <Point>
      <extrude>1</extrude>
      <tesselate>0</tesselate>
      <altitudeMode>relativeToGround</altitudeMode>
      <coordinates>9.18651, 47.4753,20</coordinates>
    </Point>
  </Placemark><Placemark>
    <name>Waldkirch, Friedegg</name>
    <Style><LineStyle><width>2</width></LineStyle></Style>
    <Point>
      <extrude>1</extrude>
      <tesselate>0</tesselate>
      <altitudeMode>relativeToGround</altitudeMode>
      <coordinates>9.28108, 47.4664,20</coordinates>
    </Point>
  </Placemark><Placemark>
    <name>Waldkirch, Werkhof</name>
    <Style><LineStyle><width>2</width></LineStyle></Style>
    <Point>
      <extrude>1</extrude>
      <tesselate>0</tesselate>
      <altitudeMode>relativeToGround</altitudeMode>
      <coordinates>9.29284, 47.4708,20</coordinates>
    </Point>
  </Placemark><Placemark>
    <name>Niederbüren, Post</name>
    <Style><LineStyle><width>2</width></LineStyle></Style>
    <Point>
      <extrude>1</extrude>
      <tesselate>0</tesselate>
      <altitudeMode>relativeToGround</altitudeMode>
      <coordinates>9.20414, 47.4667,20</coordinates>
    </Point>
  </Placemark><Placemark>
    <name>Schönenberg TG, Dorf</name>
    <Style><LineStyle><width>2</width></LineStyle></Style>
    <Point>
      <extrude>1</extrude>
      <tesselate>0</tesselate>
      <altitudeMode>relativeToGround</altitudeMode>
      <coordinates>9.19851, 47.5212,20</coordinates>
    </Point>
  </Placemark><Placemark>
    <name>Hauptwil, Dorfplatz</name>
    <Style><LineStyle><width>2</width></LineStyle></Style>
    <Point>
      <extrude>1</extrude>
      <tesselate>0</tesselate>
      <altitudeMode>relativeToGround</altitudeMode>
      <coordinates>9.251, 47.4793,20</coordinates>
    </Point>
  </Placemark><Placemark>
    <name>Lenggenwil, Post</name>
    <Style><LineStyle><width>2</width></LineStyle></Style>
    <Point>
      <extrude>1</extrude>
      <tesselate>0</tesselate>
      <altitudeMode>relativeToGround</altitudeMode>
      <coordinates>9.15069, 47.4754,20</coordinates>
    </Point>
  </Placemark><Placemark>
    <name>Wilen (Gottshaus)</name>
    <Style><LineStyle><width>2</width></LineStyle></Style>
    <Point>
      <extrude>1</extrude>
      <tesselate>0</tesselate>
      <altitudeMode>relativeToGround</altitudeMode>
      <coordinates>9.28202, 47.4934,20</coordinates>
    </Point>
  </Placemark><Placemark>
    <name>Eberswil, Abzw. Lütschwil</name>
    <Style><LineStyle><width>2</width></LineStyle></Style>
    <Point>
      <extrude>1</extrude>
      <tesselate>0</tesselate>
      <altitudeMode>relativeToGround</altitudeMode>
      <coordinates>9.26238, 47.5014,20</coordinates>
    </Point>
  </Placemark><Placemark>
    <name>Waldkirch, Fillisweid</name>
    <Style><LineStyle><width>2</width></LineStyle></Style>
    <Point>
      <extrude>1</extrude>
      <tesselate>0</tesselate>
      <altitudeMode>relativeToGround</altitudeMode>
      <coordinates>9.28123, 47.461,20</coordinates>
    </Point>
  </Placemark><Placemark>
    <name>Bischofszell, Obertor</name>
    <Style><LineStyle><width>2</width></LineStyle></Style>
    <Point>
      <extrude>1</extrude>
      <tesselate>0</tesselate>
      <altitudeMode>relativeToGround</altitudeMode>
      <coordinates>9.24387, 47.494,20</coordinates>
    </Point>
  </Placemark><Placemark>
    <name>Waldkirch, Post</name>
    <Style><LineStyle><width>2</width></LineStyle></Style>
    <Point>
      <extrude>1</extrude>
      <tesselate>0</tesselate>
      <altitudeMode>relativeToGround</altitudeMode>
      <coordinates>9.28412, 47.468,20</coordinates>
    </Point>
  </Placemark><Placemark>
    <name>Oberbüren, Kloster Glattburg</name>
    <Style><LineStyle><width>2</width></LineStyle></Style>
    <Point>
      <extrude>1</extrude>
      <tesselate>0</tesselate>
      <altitudeMode>relativeToGround</altitudeMode>
      <coordinates>9.15521, 47.4612,20</coordinates>
    </Point>
  </Placemark><Placemark>
    <name>Oberbüren, Staubhusen</name>
    <Style><LineStyle><width>2</width></LineStyle></Style>
    <Point>
      <extrude>1</extrude>
      <tesselate>0</tesselate>
      <altitudeMode>relativeToGround</altitudeMode>
      <coordinates>9.157, 47.4652,20</coordinates>
    </Point>
  </Placemark><Placemark>
    <name>Bischofszell, Sattelbogen</name>
    <Style><LineStyle><width>2</width></LineStyle></Style>
    <Point>
      <extrude>1</extrude>
      <tesselate>0</tesselate>
      <altitudeMode>relativeToGround</altitudeMode>
      <coordinates>9.24728, 47.4967,20</coordinates>
    </Point>
  </Placemark></Document>
</kml>
