<kml>
<Document>

<Region>
<LatLonAltBox>
<north>47.525181</north><south>47.458938</south><east>9.142688</east><west>8.990416</west>
<minAltitude>0.000000</minAltitude><maxAltitude>0.000000</maxAltitude>
</LatLonAltBox>
<minLodPixels>2048</minLodPixels><maxLodPixels>1000000000</maxLodPixels>
<minFadeExtent>0</minFadeExtent><maxFadeExtent>0</maxFadeExtent>
</Region>
<Placemark>
    <name>Wil SG, Bahnhof-Süd</name>
    <Style><LineStyle><width>2</width></LineStyle></Style>
    <Point>
      <extrude>1</extrude>
      <tesselate>0</tesselate>
      <altitudeMode>relativeToGround</altitudeMode>
      <coordinates>9.04161, 47.4613,20</coordinates>
    </Point>
  </Placemark><Placemark>
    <name>Tobel-Affeltrangen, Bahnhof</name>
    <Style><LineStyle><width>2</width></LineStyle></Style>
    <Point>
      <extrude>1</extrude>
      <tesselate>0</tesselate>
      <altitudeMode>relativeToGround</altitudeMode>
      <coordinates>9.03331, 47.5214,20</coordinates>
    </Point>
  </Placemark><Placemark>
    <name>Lommis, Post</name>
    <Style><LineStyle><width>2</width></LineStyle></Style>
    <Point>
      <extrude>1</extrude>
      <tesselate>0</tesselate>
      <altitudeMode>relativeToGround</altitudeMode>
      <coordinates>8.99337, 47.5177,20</coordinates>
    </Point>
  </Placemark><Placemark>
    <name>Züberwangen, Post</name>
    <Style><LineStyle><width>2</width></LineStyle></Style>
    <Point>
      <extrude>1</extrude>
      <tesselate>0</tesselate>
      <altitudeMode>relativeToGround</altitudeMode>
      <coordinates>9.08605, 47.466,20</coordinates>
    </Point>
  </Placemark><Placemark>
    <name>Zuzwil SG, Post</name>
    <Style><LineStyle><width>2</width></LineStyle></Style>
    <Point>
      <extrude>1</extrude>
      <tesselate>0</tesselate>
      <altitudeMode>relativeToGround</altitudeMode>
      <coordinates>9.10884, 47.4736,20</coordinates>
    </Point>
  </Placemark><Placemark>
    <name>Sirnach, Bahnhof</name>
    <Style><LineStyle><width>2</width></LineStyle></Style>
    <Point>
      <extrude>1</extrude>
      <tesselate>0</tesselate>
      <altitudeMode>relativeToGround</altitudeMode>
      <coordinates>9.00004, 47.4625,20</coordinates>
    </Point>
  </Placemark><Placemark>
    <name>Sirnach</name>
    <Style><LineStyle><width>2</width></LineStyle></Style>
    <Point>
      <extrude>1</extrude>
      <tesselate>0</tesselate>
      <altitudeMode>relativeToGround</altitudeMode>
      <coordinates>9.00046, 47.462,20</coordinates>
    </Point>
  </Placemark><Placemark>
    <name>Lommis, Krattenbach</name>
    <Style><LineStyle><width>2</width></LineStyle></Style>
    <Point>
      <extrude>1</extrude>
      <tesselate>0</tesselate>
      <altitudeMode>relativeToGround</altitudeMode>
      <coordinates>8.99802, 47.518,20</coordinates>
    </Point>
  </Placemark><Placemark>
    <name>Henau, Felsegg</name>
    <Style><LineStyle><width>2</width></LineStyle></Style>
    <Point>
      <extrude>1</extrude>
      <tesselate>0</tesselate>
      <altitudeMode>relativeToGround</altitudeMode>
      <coordinates>9.12, 47.4594,20</coordinates>
    </Point>
  </Placemark><Placemark>
    <name>Züberwangen, Schulhaus</name>
    <Style><LineStyle><width>2</width></LineStyle></Style>
    <Point>
      <extrude>1</extrude>
      <tesselate>0</tesselate>
      <altitudeMode>relativeToGround</altitudeMode>
      <coordinates>9.09268, 47.4661,20</coordinates>
    </Point>
  </Placemark><Placemark>
    <name>Züberwangen, Weieren</name>
    <Style><LineStyle><width>2</width></LineStyle></Style>
    <Point>
      <extrude>1</extrude>
      <tesselate>0</tesselate>
      <altitudeMode>relativeToGround</altitudeMode>
      <coordinates>9.10224, 47.4642,20</coordinates>
    </Point>
  </Placemark><Placemark>
    <name>Zuzwil SG, Grünegg</name>
    <Style><LineStyle><width>2</width></LineStyle></Style>
    <Point>
      <extrude>1</extrude>
      <tesselate>0</tesselate>
      <altitudeMode>relativeToGround</altitudeMode>
      <coordinates>9.10639, 47.4695,20</coordinates>
    </Point>
  </Placemark><Placemark>
    <name>Zuzwil SG, Gemeindehaus</name>
    <Style><LineStyle><width>2</width></LineStyle></Style>
    <Point>
      <extrude>1</extrude>
      <tesselate>0</tesselate>
      <altitudeMode>relativeToGround</altitudeMode>
      <coordinates>9.11186, 47.4749,20</coordinates>
    </Point>
  </Placemark><Placemark>
    <name>Wil SG, Pflegeheim</name>
    <Style><LineStyle><width>2</width></LineStyle></Style>
    <Point>
      <extrude>1</extrude>
      <tesselate>0</tesselate>
      <altitudeMode>relativeToGround</altitudeMode>
      <coordinates>9.05982, 47.4653,20</coordinates>
    </Point>
  </Placemark><Placemark>
    <name>Wil SG, Friedberg</name>
    <Style><LineStyle><width>2</width></LineStyle></Style>
    <Point>
      <extrude>1</extrude>
      <tesselate>0</tesselate>
      <altitudeMode>relativeToGround</altitudeMode>
      <coordinates>9.0638, 47.4652,20</coordinates>
    </Point>
  </Placemark><Placemark>
    <name>Züberwangen, Kirchstrasse</name>
    <Style><LineStyle><width>2</width></LineStyle></Style>
    <Point>
      <extrude>1</extrude>
      <tesselate>0</tesselate>
      <altitudeMode>relativeToGround</altitudeMode>
      <coordinates>9.08375, 47.4667,20</coordinates>
    </Point>
  </Placemark><Placemark>
    <name>Lenggenwil, Wiesental</name>
    <Style><LineStyle><width>2</width></LineStyle></Style>
    <Point>
      <extrude>1</extrude>
      <tesselate>0</tesselate>
      <altitudeMode>relativeToGround</altitudeMode>
      <coordinates>9.13656, 47.4693,20</coordinates>
    </Point>
  </Placemark><Placemark>
    <name>Schönholzerswilen, Post</name>
    <Style><LineStyle><width>2</width></LineStyle></Style>
    <Point>
      <extrude>1</extrude>
      <tesselate>0</tesselate>
      <altitudeMode>relativeToGround</altitudeMode>
      <coordinates>9.14071, 47.516,20</coordinates>
    </Point>
  </Placemark><Placemark>
    <name>Lanterswil, Dorf</name>
    <Style><LineStyle><width>2</width></LineStyle></Style>
    <Point>
      <extrude>1</extrude>
      <tesselate>0</tesselate>
      <altitudeMode>relativeToGround</altitudeMode>
      <coordinates>9.09677, 47.5207,20</coordinates>
    </Point>
  </Placemark><Placemark>
    <name>Tobel-Affeltrangen</name>
    <Style><LineStyle><width>2</width></LineStyle></Style>
    <Point>
      <extrude>1</extrude>
      <tesselate>0</tesselate>
      <altitudeMode>relativeToGround</altitudeMode>
      <coordinates>9.03368, 47.5213,20</coordinates>
    </Point>
  </Placemark><Placemark>
    <name>Bettwiesen</name>
    <Style><LineStyle><width>2</width></LineStyle></Style>
    <Point>
      <extrude>1</extrude>
      <tesselate>0</tesselate>
      <altitudeMode>relativeToGround</altitudeMode>
      <coordinates>9.02076, 47.4986,20</coordinates>
    </Point>
  </Placemark><Placemark>
    <name>Bronschhofen</name>
    <Style><LineStyle><width>2</width></LineStyle></Style>
    <Point>
      <extrude>1</extrude>
      <tesselate>0</tesselate>
      <altitudeMode>relativeToGround</altitudeMode>
      <coordinates>9.03466, 47.4755,20</coordinates>
    </Point>
  </Placemark><Placemark>
    <name>Bronschhofen AMP</name>
    <Style><LineStyle><width>2</width></LineStyle></Style>
    <Point>
      <extrude>1</extrude>
      <tesselate>0</tesselate>
      <altitudeMode>relativeToGround</altitudeMode>
      <coordinates>9.0309, 47.4813,20</coordinates>
    </Point>
  </Placemark><Placemark>
    <name>Wil SG, Viehmarkt</name>
    <Style><LineStyle><width>2</width></LineStyle></Style>
    <Point>
      <extrude>1</extrude>
      <tesselate>0</tesselate>
      <altitudeMode>relativeToGround</altitudeMode>
      <coordinates>9.05156, 47.466,20</coordinates>
    </Point>
  </Placemark><Placemark>
    <name>Rüdenwil, Dorf</name>
    <Style><LineStyle><width>2</width></LineStyle></Style>
    <Point>
      <extrude>1</extrude>
      <tesselate>0</tesselate>
      <altitudeMode>relativeToGround</altitudeMode>
      <coordinates>9.13579, 47.4908,20</coordinates>
    </Point>
  </Placemark><Placemark>
    <name>Hosenruck, Post</name>
    <Style><LineStyle><width>2</width></LineStyle></Style>
    <Point>
      <extrude>1</extrude>
      <tesselate>0</tesselate>
      <altitudeMode>relativeToGround</altitudeMode>
      <coordinates>9.12034, 47.4912,20</coordinates>
    </Point>
  </Placemark><Placemark>
    <name>Bronschhofen, Himmelrich</name>
    <Style><LineStyle><width>2</width></LineStyle></Style>
    <Point>
      <extrude>1</extrude>
      <tesselate>0</tesselate>
      <altitudeMode>relativeToGround</altitudeMode>
      <coordinates>9.0345, 47.4834,20</coordinates>
    </Point>
  </Placemark><Placemark>
    <name>Laupen SG</name>
    <Style><LineStyle><width>2</width></LineStyle></Style>
    <Point>
      <extrude>1</extrude>
      <tesselate>0</tesselate>
      <altitudeMode>relativeToGround</altitudeMode>
      <coordinates>9.12351, 47.4657,20</coordinates>
    </Point>
  </Placemark><Placemark>
    <name>Stehrenberg, Post</name>
    <Style><LineStyle><width>2</width></LineStyle></Style>
    <Point>
      <extrude>1</extrude>
      <tesselate>0</tesselate>
      <altitudeMode>relativeToGround</altitudeMode>
      <coordinates>9.0878, 47.5227,20</coordinates>
    </Point>
  </Placemark><Placemark>
    <name>Lenggenwil, Taa</name>
    <Style><LineStyle><width>2</width></LineStyle></Style>
    <Point>
      <extrude>1</extrude>
      <tesselate>0</tesselate>
      <altitudeMode>relativeToGround</altitudeMode>
      <coordinates>9.13162, 47.4703,20</coordinates>
    </Point>
  </Placemark><Placemark>
    <name>Wil SG, Schwanen</name>
    <Style><LineStyle><width>2</width></LineStyle></Style>
    <Point>
      <extrude>1</extrude>
      <tesselate>0</tesselate>
      <altitudeMode>relativeToGround</altitudeMode>
      <coordinates>9.04323, 47.465,20</coordinates>
    </Point>
  </Placemark><Placemark>
    <name>Tägerschen</name>
    <Style><LineStyle><width>2</width></LineStyle></Style>
    <Point>
      <extrude>1</extrude>
      <tesselate>0</tesselate>
      <altitudeMode>relativeToGround</altitudeMode>
      <coordinates>9.02478, 47.5094,20</coordinates>
    </Point>
  </Placemark><Placemark>
    <name>Wil SG, Bleiche</name>
    <Style><LineStyle><width>2</width></LineStyle></Style>
    <Point>
      <extrude>1</extrude>
      <tesselate>0</tesselate>
      <altitudeMode>relativeToGround</altitudeMode>
      <coordinates>9.04558, 47.4659,20</coordinates>
    </Point>
  </Placemark><Placemark>
    <name>Bronschhofen, Gemeindehaus</name>
    <Style><LineStyle><width>2</width></LineStyle></Style>
    <Point>
      <extrude>1</extrude>
      <tesselate>0</tesselate>
      <altitudeMode>relativeToGround</altitudeMode>
      <coordinates>9.03464, 47.4771,20</coordinates>
    </Point>
  </Placemark><Placemark>
    <name>Wil</name>
    <Style><LineStyle><width>2</width></LineStyle></Style>
    <Point>
      <extrude>1</extrude>
      <tesselate>0</tesselate>
      <altitudeMode>relativeToGround</altitudeMode>
      <coordinates>9.04098, 47.4624,20</coordinates>
    </Point>
  </Placemark><Placemark>
    <name>Wil SG, Bahnhof</name>
    <Style><LineStyle><width>2</width></LineStyle></Style>
    <Point>
      <extrude>1</extrude>
      <tesselate>0</tesselate>
      <altitudeMode>relativeToGround</altitudeMode>
      <coordinates>9.04151, 47.4628,20</coordinates>
    </Point>
  </Placemark><Placemark>
    <name>Wil SG, Rose</name>
    <Style><LineStyle><width>2</width></LineStyle></Style>
    <Point>
      <extrude>1</extrude>
      <tesselate>0</tesselate>
      <altitudeMode>relativeToGround</altitudeMode>
      <coordinates>9.0469, 47.4657,20</coordinates>
    </Point>
  </Placemark><Placemark>
    <name>Braunau, Post</name>
    <Style><LineStyle><width>2</width></LineStyle></Style>
    <Point>
      <extrude>1</extrude>
      <tesselate>0</tesselate>
      <altitudeMode>relativeToGround</altitudeMode>
      <coordinates>9.07093, 47.5029,20</coordinates>
    </Point>
  </Placemark><Placemark>
    <name>Schönholzerswilen, Kirche</name>
    <Style><LineStyle><width>2</width></LineStyle></Style>
    <Point>
      <extrude>1</extrude>
      <tesselate>0</tesselate>
      <altitudeMode>relativeToGround</altitudeMode>
      <coordinates>9.13865, 47.5179,20</coordinates>
    </Point>
  </Placemark><Placemark>
    <name>Bronschhofen, Maugwil</name>
    <Style><LineStyle><width>2</width></LineStyle></Style>
    <Point>
      <extrude>1</extrude>
      <tesselate>0</tesselate>
      <altitudeMode>relativeToGround</altitudeMode>
      <coordinates>9.04832, 47.4924,20</coordinates>
    </Point>
  </Placemark><Placemark>
    <name>Zuzwil SG, Industrie</name>
    <Style><LineStyle><width>2</width></LineStyle></Style>
    <Point>
      <extrude>1</extrude>
      <tesselate>0</tesselate>
      <altitudeMode>relativeToGround</altitudeMode>
      <coordinates>9.11175, 47.4713,20</coordinates>
    </Point>
  </Placemark></Document>
</kml>
