<kml>
<Document>

<Region>
<LatLonAltBox>
<north>47.591425</north><south>47.458938</south><east>9.751773</east><west>9.447230</west>
<minAltitude>0.000000</minAltitude><maxAltitude>0.000000</maxAltitude>
</LatLonAltBox>
<minLodPixels>2048</minLodPixels><maxLodPixels>1000000000</maxLodPixels>
<minFadeExtent>0</minFadeExtent><maxFadeExtent>0</maxFadeExtent>
</Region>
<NetworkLink>
<name>011201</name>

<Region>
<LatLonAltBox>
<north>47.591425</north><south>47.525181</south><east>9.751773</east><west>9.599501</west>
<minAltitude>0.000000</minAltitude><maxAltitude>0.000000</maxAltitude>
</LatLonAltBox>
<minLodPixels>256</minLodPixels><maxLodPixels>1000000000</maxLodPixels>
<minFadeExtent>0</minFadeExtent><maxFadeExtent>0</maxFadeExtent>
</Region>
<Link>
<href>011201.kml</href><viewRefreshMode>onRegion</viewRefreshMode></Link>
</NetworkLink>
<NetworkLink>
<name>011202</name>

<Region>
<LatLonAltBox>
<north>47.525181</north><south>47.458938</south><east>9.599501</east><west>9.447230</west>
<minAltitude>0.000000</minAltitude><maxAltitude>0.000000</maxAltitude>
</LatLonAltBox>
<minLodPixels>256</minLodPixels><maxLodPixels>1000000000</maxLodPixels>
<minFadeExtent>0</minFadeExtent><maxFadeExtent>0</maxFadeExtent>
</Region>
<Link>
<href>011202.kml</href><viewRefreshMode>onRegion</viewRefreshMode></Link>
</NetworkLink>
<Placemark>
    <name>Wasserburg (Bodensee)</name>
    <Style><LineStyle><width>2</width></LineStyle></Style>
    <Point>
      <extrude>1</extrude>
      <tesselate>0</tesselate>
      <altitudeMode>relativeToGround</altitudeMode>
      <coordinates>9.62978, 47.5649,20</coordinates>
    </Point>
  </Placemark><Placemark>
    <name>Rorschach, Spital</name>
    <Style><LineStyle><width>2</width></LineStyle></Style>
    <Point>
      <extrude>1</extrude>
      <tesselate>0</tesselate>
      <altitudeMode>relativeToGround</altitudeMode>
      <coordinates>9.49369, 47.475,20</coordinates>
    </Point>
  </Placemark><Placemark>
    <name>Rorschach, Fuchsschwanz</name>
    <Style><LineStyle><width>2</width></LineStyle></Style>
    <Point>
      <extrude>1</extrude>
      <tesselate>0</tesselate>
      <altitudeMode>relativeToGround</altitudeMode>
      <coordinates>9.49142, 47.4762,20</coordinates>
    </Point>
  </Placemark><Placemark>
    <name>Rorschach, Pflegeheim</name>
    <Style><LineStyle><width>2</width></LineStyle></Style>
    <Point>
      <extrude>1</extrude>
      <tesselate>0</tesselate>
      <altitudeMode>relativeToGround</altitudeMode>
      <coordinates>9.48763, 47.4726,20</coordinates>
    </Point>
  </Placemark><Placemark>
    <name>Rorschach,Müller-Friedbergstr.</name>
    <Style><LineStyle><width>2</width></LineStyle></Style>
    <Point>
      <extrude>1</extrude>
      <tesselate>0</tesselate>
      <altitudeMode>relativeToGround</altitudeMode>
      <coordinates>9.49795, 47.4736,20</coordinates>
    </Point>
  </Placemark><Placemark>
    <name>Rorschacherberg, Rosenegg</name>
    <Style><LineStyle><width>2</width></LineStyle></Style>
    <Point>
      <extrude>1</extrude>
      <tesselate>0</tesselate>
      <altitudeMode>relativeToGround</altitudeMode>
      <coordinates>9.48649, 47.4688,20</coordinates>
    </Point>
  </Placemark><Placemark>
    <name>Rorschach, Zelgstrasse</name>
    <Style><LineStyle><width>2</width></LineStyle></Style>
    <Point>
      <extrude>1</extrude>
      <tesselate>0</tesselate>
      <altitudeMode>relativeToGround</altitudeMode>
      <coordinates>9.48722, 47.4706,20</coordinates>
    </Point>
  </Placemark><Placemark>
    <name>Rorschacherberg, Post</name>
    <Style><LineStyle><width>2</width></LineStyle></Style>
    <Point>
      <extrude>1</extrude>
      <tesselate>0</tesselate>
      <altitudeMode>relativeToGround</altitudeMode>
      <coordinates>9.49381, 47.4694,20</coordinates>
    </Point>
  </Placemark><Placemark>
    <name>Rorschacherberg, Bleichi</name>
    <Style><LineStyle><width>2</width></LineStyle></Style>
    <Point>
      <extrude>1</extrude>
      <tesselate>0</tesselate>
      <altitudeMode>relativeToGround</altitudeMode>
      <coordinates>9.48914, 47.4688,20</coordinates>
    </Point>
  </Placemark><Placemark>
    <name>Rorschacherberg, Schäfli</name>
    <Style><LineStyle><width>2</width></LineStyle></Style>
    <Point>
      <extrude>1</extrude>
      <tesselate>0</tesselate>
      <altitudeMode>relativeToGround</altitudeMode>
      <coordinates>9.48535, 47.465,20</coordinates>
    </Point>
  </Placemark><Placemark>
    <name>Rorschacherberg, Z-Friedhof</name>
    <Style><LineStyle><width>2</width></LineStyle></Style>
    <Point>
      <extrude>1</extrude>
      <tesselate>0</tesselate>
      <altitudeMode>relativeToGround</altitudeMode>
      <coordinates>9.49916, 47.4706,20</coordinates>
    </Point>
  </Placemark><Placemark>
    <name>Bregenz Hafen</name>
    <Style><LineStyle><width>2</width></LineStyle></Style>
    <Point>
      <extrude>1</extrude>
      <tesselate>0</tesselate>
      <altitudeMode>relativeToGround</altitudeMode>
      <coordinates>9.73526, 47.5067,20</coordinates>
    </Point>
  </Placemark><Placemark>
    <name>Staad SG, Speck</name>
    <Style><LineStyle><width>2</width></LineStyle></Style>
    <Point>
      <extrude>1</extrude>
      <tesselate>0</tesselate>
      <altitudeMode>relativeToGround</altitudeMode>
      <coordinates>9.54076, 47.4823,20</coordinates>
    </Point>
  </Placemark><Placemark>
    <name>Nonnenhorn</name>
    <Style><LineStyle><width>2</width></LineStyle></Style>
    <Point>
      <extrude>1</extrude>
      <tesselate>0</tesselate>
      <altitudeMode>relativeToGround</altitudeMode>
      <coordinates>9.60534, 47.5745,20</coordinates>
    </Point>
  </Placemark><Placemark>
    <name>Seebleiche</name>
    <Style><LineStyle><width>2</width></LineStyle></Style>
    <Point>
      <extrude>1</extrude>
      <tesselate>0</tesselate>
      <altitudeMode>relativeToGround</altitudeMode>
      <coordinates>9.51635, 47.4775,20</coordinates>
    </Point>
  </Placemark><Placemark>
    <name>Rorschacherberg, Bachwies</name>
    <Style><LineStyle><width>2</width></LineStyle></Style>
    <Point>
      <extrude>1</extrude>
      <tesselate>0</tesselate>
      <altitudeMode>relativeToGround</altitudeMode>
      <coordinates>9.51103, 47.4772,20</coordinates>
    </Point>
  </Placemark><Placemark>
    <name>Untereggen, Vogelherd</name>
    <Style><LineStyle><width>2</width></LineStyle></Style>
    <Point>
      <extrude>1</extrude>
      <tesselate>0</tesselate>
      <altitudeMode>relativeToGround</altitudeMode>
      <coordinates>9.45693, 47.4592,20</coordinates>
    </Point>
  </Placemark><Placemark>
    <name>Goldach, Sternen</name>
    <Style><LineStyle><width>2</width></LineStyle></Style>
    <Point>
      <extrude>1</extrude>
      <tesselate>0</tesselate>
      <altitudeMode>relativeToGround</altitudeMode>
      <coordinates>9.4729, 47.4779,20</coordinates>
    </Point>
  </Placemark><Placemark>
    <name>Goldach, Raiffeisenbank</name>
    <Style><LineStyle><width>2</width></LineStyle></Style>
    <Point>
      <extrude>1</extrude>
      <tesselate>0</tesselate>
      <altitudeMode>relativeToGround</altitudeMode>
      <coordinates>9.46953, 47.4763,20</coordinates>
    </Point>
  </Placemark><Placemark>
    <name>Goldach, Untereggerstrasse</name>
    <Style><LineStyle><width>2</width></LineStyle></Style>
    <Point>
      <extrude>1</extrude>
      <tesselate>0</tesselate>
      <altitudeMode>relativeToGround</altitudeMode>
      <coordinates>9.46171, 47.4715,20</coordinates>
    </Point>
  </Placemark><Placemark>
    <name>Goldach, Sonnental</name>
    <Style><LineStyle><width>2</width></LineStyle></Style>
    <Point>
      <extrude>1</extrude>
      <tesselate>0</tesselate>
      <altitudeMode>relativeToGround</altitudeMode>
      <coordinates>9.45892, 47.4677,20</coordinates>
    </Point>
  </Placemark><Placemark>
    <name>Goldach, Stelzenreben</name>
    <Style><LineStyle><width>2</width></LineStyle></Style>
    <Point>
      <extrude>1</extrude>
      <tesselate>0</tesselate>
      <altitudeMode>relativeToGround</altitudeMode>
      <coordinates>9.47558, 47.4785,20</coordinates>
    </Point>
  </Placemark><Placemark>
    <name>Goldach, Rotenstein</name>
    <Style><LineStyle><width>2</width></LineStyle></Style>
    <Point>
      <extrude>1</extrude>
      <tesselate>0</tesselate>
      <altitudeMode>relativeToGround</altitudeMode>
      <coordinates>9.47557, 47.4783,20</coordinates>
    </Point>
  </Placemark><Placemark>
    <name>Rorschacherberg,Sonnenhof Nord</name>
    <Style><LineStyle><width>2</width></LineStyle></Style>
    <Point>
      <extrude>1</extrude>
      <tesselate>0</tesselate>
      <altitudeMode>relativeToGround</altitudeMode>
      <coordinates>9.50418, 47.4717,20</coordinates>
    </Point>
  </Placemark><Placemark>
    <name>Lutzenberg, Post</name>
    <Style><LineStyle><width>2</width></LineStyle></Style>
    <Point>
      <extrude>1</extrude>
      <tesselate>0</tesselate>
      <altitudeMode>relativeToGround</altitudeMode>
      <coordinates>9.57039, 47.4599,20</coordinates>
    </Point>
  </Placemark><Placemark>
    <name>Rheineck, Schwimmbad</name>
    <Style><LineStyle><width>2</width></LineStyle></Style>
    <Point>
      <extrude>1</extrude>
      <tesselate>0</tesselate>
      <altitudeMode>relativeToGround</altitudeMode>
      <coordinates>9.58411, 47.4711,20</coordinates>
    </Point>
  </Placemark><Placemark>
    <name>Altenrhein, Dorf</name>
    <Style><LineStyle><width>2</width></LineStyle></Style>
    <Point>
      <extrude>1</extrude>
      <tesselate>0</tesselate>
      <altitudeMode>relativeToGround</altitudeMode>
      <coordinates>9.55502, 47.4903,20</coordinates>
    </Point>
  </Placemark><Placemark>
    <name>Altenrhein, Am Rhein</name>
    <Style><LineStyle><width>2</width></LineStyle></Style>
    <Point>
      <extrude>1</extrude>
      <tesselate>0</tesselate>
      <altitudeMode>relativeToGround</altitudeMode>
      <coordinates>9.55998, 47.49,20</coordinates>
    </Point>
  </Placemark><Placemark>
    <name>Altenrhein, Hegi</name>
    <Style><LineStyle><width>2</width></LineStyle></Style>
    <Point>
      <extrude>1</extrude>
      <tesselate>0</tesselate>
      <altitudeMode>relativeToGround</altitudeMode>
      <coordinates>9.5703, 47.4824,20</coordinates>
    </Point>
  </Placemark><Placemark>
    <name>Thal, Buriet</name>
    <Style><LineStyle><width>2</width></LineStyle></Style>
    <Point>
      <extrude>1</extrude>
      <tesselate>0</tesselate>
      <altitudeMode>relativeToGround</altitudeMode>
      <coordinates>9.57735, 47.4762,20</coordinates>
    </Point>
  </Placemark><Placemark>
    <name>Schwendi bei Heiden</name>
    <Style><LineStyle><width>2</width></LineStyle></Style>
    <Point>
      <extrude>1</extrude>
      <tesselate>0</tesselate>
      <altitudeMode>relativeToGround</altitudeMode>
      <coordinates>9.53074, 47.4594,20</coordinates>
    </Point>
  </Placemark><Placemark>
    <name>Wartensee</name>
    <Style><LineStyle><width>2</width></LineStyle></Style>
    <Point>
      <extrude>1</extrude>
      <tesselate>0</tesselate>
      <altitudeMode>relativeToGround</altitudeMode>
      <coordinates>9.53358, 47.4718,20</coordinates>
    </Point>
  </Placemark><Placemark>
    <name>Wienacht-Tobel</name>
    <Style><LineStyle><width>2</width></LineStyle></Style>
    <Point>
      <extrude>1</extrude>
      <tesselate>0</tesselate>
      <altitudeMode>relativeToGround</altitudeMode>
      <coordinates>9.54063, 47.4662,20</coordinates>
    </Point>
  </Placemark><Placemark>
    <name>Staad SG, Bahnhof</name>
    <Style><LineStyle><width>2</width></LineStyle></Style>
    <Point>
      <extrude>1</extrude>
      <tesselate>0</tesselate>
      <altitudeMode>relativeToGround</altitudeMode>
      <coordinates>9.53708, 47.4814,20</coordinates>
    </Point>
  </Placemark><Placemark>
    <name>Tübach, Schulstrasse</name>
    <Style><LineStyle><width>2</width></LineStyle></Style>
    <Point>
      <extrude>1</extrude>
      <tesselate>0</tesselate>
      <altitudeMode>relativeToGround</altitudeMode>
      <coordinates>9.45426, 47.4849,20</coordinates>
    </Point>
  </Placemark><Placemark>
    <name>Tübach, Waldegg</name>
    <Style><LineStyle><width>2</width></LineStyle></Style>
    <Point>
      <extrude>1</extrude>
      <tesselate>0</tesselate>
      <altitudeMode>relativeToGround</altitudeMode>
      <coordinates>9.45123, 47.4751,20</coordinates>
    </Point>
  </Placemark><Placemark>
    <name>Sandbüchel</name>
    <Style><LineStyle><width>2</width></LineStyle></Style>
    <Point>
      <extrude>1</extrude>
      <tesselate>0</tesselate>
      <altitudeMode>relativeToGround</altitudeMode>
      <coordinates>9.52175, 47.4754,20</coordinates>
    </Point>
  </Placemark><Placemark>
    <name>Staad</name>
    <Style><LineStyle><width>2</width></LineStyle></Style>
    <Point>
      <extrude>1</extrude>
      <tesselate>0</tesselate>
      <altitudeMode>relativeToGround</altitudeMode>
      <coordinates>9.53444, 47.4805,20</coordinates>
    </Point>
  </Placemark><Placemark>
    <name>Rheineck</name>
    <Style><LineStyle><width>2</width></LineStyle></Style>
    <Point>
      <extrude>1</extrude>
      <tesselate>0</tesselate>
      <altitudeMode>relativeToGround</altitudeMode>
      <coordinates>9.5909, 47.4669,20</coordinates>
    </Point>
  </Placemark><Placemark>
    <name>Rorschach</name>
    <Style><LineStyle><width>2</width></LineStyle></Style>
    <Point>
      <extrude>1</extrude>
      <tesselate>0</tesselate>
      <altitudeMode>relativeToGround</altitudeMode>
      <coordinates>9.50513, 47.478,20</coordinates>
    </Point>
  </Placemark><Placemark>
    <name>Lutzenberg, Altersheim</name>
    <Style><LineStyle><width>2</width></LineStyle></Style>
    <Point>
      <extrude>1</extrude>
      <tesselate>0</tesselate>
      <altitudeMode>relativeToGround</altitudeMode>
      <coordinates>9.58102, 47.4604,20</coordinates>
    </Point>
  </Placemark><Placemark>
    <name>Lutzenberg, Friedegg</name>
    <Style><LineStyle><width>2</width></LineStyle></Style>
    <Point>
      <extrude>1</extrude>
      <tesselate>0</tesselate>
      <altitudeMode>relativeToGround</altitudeMode>
      <coordinates>9.58074, 47.4617,20</coordinates>
    </Point>
  </Placemark><Placemark>
    <name>Rheineck, Altensteig</name>
    <Style><LineStyle><width>2</width></LineStyle></Style>
    <Point>
      <extrude>1</extrude>
      <tesselate>0</tesselate>
      <altitudeMode>relativeToGround</altitudeMode>
      <coordinates>9.58678, 47.4634,20</coordinates>
    </Point>
  </Placemark><Placemark>
    <name>Rheineck, Bahnhof</name>
    <Style><LineStyle><width>2</width></LineStyle></Style>
    <Point>
      <extrude>1</extrude>
      <tesselate>0</tesselate>
      <altitudeMode>relativeToGround</altitudeMode>
      <coordinates>9.59088, 47.4663,20</coordinates>
    </Point>
  </Placemark><Placemark>
    <name>Rorschacherberg, Jägerstübli</name>
    <Style><LineStyle><width>2</width></LineStyle></Style>
    <Point>
      <extrude>1</extrude>
      <tesselate>0</tesselate>
      <altitudeMode>relativeToGround</altitudeMode>
      <coordinates>9.5103, 47.4671,20</coordinates>
    </Point>
  </Placemark><Placemark>
    <name>Rorschach, Bodan</name>
    <Style><LineStyle><width>2</width></LineStyle></Style>
    <Point>
      <extrude>1</extrude>
      <tesselate>0</tesselate>
      <altitudeMode>relativeToGround</altitudeMode>
      <coordinates>9.4892, 47.4789,20</coordinates>
    </Point>
  </Placemark><Placemark>
    <name>Rorschach, Kirchstrasse</name>
    <Style><LineStyle><width>2</width></LineStyle></Style>
    <Point>
      <extrude>1</extrude>
      <tesselate>0</tesselate>
      <altitudeMode>relativeToGround</altitudeMode>
      <coordinates>9.48849, 47.4776,20</coordinates>
    </Point>
  </Placemark><Placemark>
    <name>Rorschacherberg, Rosenacker</name>
    <Style><LineStyle><width>2</width></LineStyle></Style>
    <Point>
      <extrude>1</extrude>
      <tesselate>0</tesselate>
      <altitudeMode>relativeToGround</altitudeMode>
      <coordinates>9.48285, 47.4691,20</coordinates>
    </Point>
  </Placemark><Placemark>
    <name>Goldach, Appenzeller Strasse</name>
    <Style><LineStyle><width>2</width></LineStyle></Style>
    <Point>
      <extrude>1</extrude>
      <tesselate>0</tesselate>
      <altitudeMode>relativeToGround</altitudeMode>
      <coordinates>9.4776, 47.4706,20</coordinates>
    </Point>
  </Placemark></Document>
</kml>
