<kml>
<Document>

<Region>
<LatLonAltBox>
<north>47.525181</north><south>47.458938</south><east>9.599501</east><west>9.447230</west>
<minAltitude>0.000000</minAltitude><maxAltitude>0.000000</maxAltitude>
</LatLonAltBox>
<minLodPixels>2048</minLodPixels><maxLodPixels>1000000000</maxLodPixels>
<minFadeExtent>0</minFadeExtent><maxFadeExtent>0</maxFadeExtent>
</Region>
<Placemark>
    <name>Staad SG, Risegg</name>
    <Style><LineStyle><width>2</width></LineStyle></Style>
    <Point>
      <extrude>1</extrude>
      <tesselate>0</tesselate>
      <altitudeMode>relativeToGround</altitudeMode>
      <coordinates>9.54026, 47.478,20</coordinates>
    </Point>
  </Placemark><Placemark>
    <name>Staad SG, Schönenbach</name>
    <Style><LineStyle><width>2</width></LineStyle></Style>
    <Point>
      <extrude>1</extrude>
      <tesselate>0</tesselate>
      <altitudeMode>relativeToGround</altitudeMode>
      <coordinates>9.53429, 47.4781,20</coordinates>
    </Point>
  </Placemark><Placemark>
    <name>Rorschacherberg, Wilen</name>
    <Style><LineStyle><width>2</width></LineStyle></Style>
    <Point>
      <extrude>1</extrude>
      <tesselate>0</tesselate>
      <altitudeMode>relativeToGround</altitudeMode>
      <coordinates>9.52728, 47.4769,20</coordinates>
    </Point>
  </Placemark><Placemark>
    <name>Rorschacherberg, Burg</name>
    <Style><LineStyle><width>2</width></LineStyle></Style>
    <Point>
      <extrude>1</extrude>
      <tesselate>0</tesselate>
      <altitudeMode>relativeToGround</altitudeMode>
      <coordinates>9.5112, 47.4731,20</coordinates>
    </Point>
  </Placemark><Placemark>
    <name>Tübach, Sonne</name>
    <Style><LineStyle><width>2</width></LineStyle></Style>
    <Point>
      <extrude>1</extrude>
      <tesselate>0</tesselate>
      <altitudeMode>relativeToGround</altitudeMode>
      <coordinates>9.45169, 47.4872,20</coordinates>
    </Point>
  </Placemark><Placemark>
    <name>Goldach, Rest. Bahnhof</name>
    <Style><LineStyle><width>2</width></LineStyle></Style>
    <Point>
      <extrude>1</extrude>
      <tesselate>0</tesselate>
      <altitudeMode>relativeToGround</altitudeMode>
      <coordinates>9.46709, 47.4735,20</coordinates>
    </Point>
  </Placemark><Placemark>
    <name>Thal, Linde</name>
    <Style><LineStyle><width>2</width></LineStyle></Style>
    <Point>
      <extrude>1</extrude>
      <tesselate>0</tesselate>
      <altitudeMode>relativeToGround</altitudeMode>
      <coordinates>9.56049, 47.4695,20</coordinates>
    </Point>
  </Placemark><Placemark>
    <name>Staad SG, Nagelstein</name>
    <Style><LineStyle><width>2</width></LineStyle></Style>
    <Point>
      <extrude>1</extrude>
      <tesselate>0</tesselate>
      <altitudeMode>relativeToGround</altitudeMode>
      <coordinates>9.55161, 47.4715,20</coordinates>
    </Point>
  </Placemark><Placemark>
    <name>Thal, Löwen</name>
    <Style><LineStyle><width>2</width></LineStyle></Style>
    <Point>
      <extrude>1</extrude>
      <tesselate>0</tesselate>
      <altitudeMode>relativeToGround</altitudeMode>
      <coordinates>9.57228, 47.4657,20</coordinates>
    </Point>
  </Placemark><Placemark>
    <name>Thal, Anker</name>
    <Style><LineStyle><width>2</width></LineStyle></Style>
    <Point>
      <extrude>1</extrude>
      <tesselate>0</tesselate>
      <altitudeMode>relativeToGround</altitudeMode>
      <coordinates>9.56924, 47.4644,20</coordinates>
    </Point>
  </Placemark><Placemark>
    <name>Rheineck, National</name>
    <Style><LineStyle><width>2</width></LineStyle></Style>
    <Point>
      <extrude>1</extrude>
      <tesselate>0</tesselate>
      <altitudeMode>relativeToGround</altitudeMode>
      <coordinates>9.58593, 47.467,20</coordinates>
    </Point>
  </Placemark><Placemark>
    <name>Rheineck, Asylstrasse</name>
    <Style><LineStyle><width>2</width></LineStyle></Style>
    <Point>
      <extrude>1</extrude>
      <tesselate>0</tesselate>
      <altitudeMode>relativeToGround</altitudeMode>
      <coordinates>9.57995, 47.4667,20</coordinates>
    </Point>
  </Placemark><Placemark>
    <name>Rorschacherberg, Hüttenmoos</name>
    <Style><LineStyle><width>2</width></LineStyle></Style>
    <Point>
      <extrude>1</extrude>
      <tesselate>0</tesselate>
      <altitudeMode>relativeToGround</altitudeMode>
      <coordinates>9.50564, 47.4665,20</coordinates>
    </Point>
  </Placemark><Placemark>
    <name>Rorschacherberg, Steig</name>
    <Style><LineStyle><width>2</width></LineStyle></Style>
    <Point>
      <extrude>1</extrude>
      <tesselate>0</tesselate>
      <altitudeMode>relativeToGround</altitudeMode>
      <coordinates>9.50907, 47.4693,20</coordinates>
    </Point>
  </Placemark><Placemark>
    <name>Rorschacherberg, St. Annaschl.</name>
    <Style><LineStyle><width>2</width></LineStyle></Style>
    <Point>
      <extrude>1</extrude>
      <tesselate>0</tesselate>
      <altitudeMode>relativeToGround</altitudeMode>
      <coordinates>9.49493, 47.4642,20</coordinates>
    </Point>
  </Placemark><Placemark>
    <name>Rorschacherberg, Jugendherb.</name>
    <Style><LineStyle><width>2</width></LineStyle></Style>
    <Point>
      <extrude>1</extrude>
      <tesselate>0</tesselate>
      <altitudeMode>relativeToGround</altitudeMode>
      <coordinates>9.49964, 47.4657,20</coordinates>
    </Point>
  </Placemark><Placemark>
    <name>Goldach</name>
    <Style><LineStyle><width>2</width></LineStyle></Style>
    <Point>
      <extrude>1</extrude>
      <tesselate>0</tesselate>
      <altitudeMode>relativeToGround</altitudeMode>
      <coordinates>9.46699, 47.4738,20</coordinates>
    </Point>
  </Placemark><Placemark>
    <name>Rorschacherberg, Wilenrain</name>
    <Style><LineStyle><width>2</width></LineStyle></Style>
    <Point>
      <extrude>1</extrude>
      <tesselate>0</tesselate>
      <altitudeMode>relativeToGround</altitudeMode>
      <coordinates>9.52424, 47.4756,20</coordinates>
    </Point>
  </Placemark><Placemark>
    <name>Rorschacherberg, Seehalde</name>
    <Style><LineStyle><width>2</width></LineStyle></Style>
    <Point>
      <extrude>1</extrude>
      <tesselate>0</tesselate>
      <altitudeMode>relativeToGround</altitudeMode>
      <coordinates>9.5203, 47.4766,20</coordinates>
    </Point>
  </Placemark><Placemark>
    <name>Goldach, Rathaus</name>
    <Style><LineStyle><width>2</width></LineStyle></Style>
    <Point>
      <extrude>1</extrude>
      <tesselate>0</tesselate>
      <altitudeMode>relativeToGround</altitudeMode>
      <coordinates>9.46585, 47.4757,20</coordinates>
    </Point>
  </Placemark><Placemark>
    <name>Rorschach, Hauptbahnhof</name>
    <Style><LineStyle><width>2</width></LineStyle></Style>
    <Point>
      <extrude>1</extrude>
      <tesselate>0</tesselate>
      <altitudeMode>relativeToGround</altitudeMode>
      <coordinates>9.5051, 47.4782,20</coordinates>
    </Point>
  </Placemark></Document>
</kml>
