<kml>
<Document>

<Region>
<LatLonAltBox>
<north>47.326450</north><south>47.193962</south><east>8.533603</east><west>8.229060</west>
<minAltitude>0.000000</minAltitude><maxAltitude>0.000000</maxAltitude>
</LatLonAltBox>
<minLodPixels>2048</minLodPixels><maxLodPixels>1000000000</maxLodPixels>
<minFadeExtent>0</minFadeExtent><maxFadeExtent>0</maxFadeExtent>
</Region>
<NetworkLink>
<name>012000</name>

<Region>
<LatLonAltBox>
<north>47.326450</north><south>47.260206</south><east>8.381331</east><west>8.229060</west>
<minAltitude>0.000000</minAltitude><maxAltitude>0.000000</maxAltitude>
</LatLonAltBox>
<minLodPixels>256</minLodPixels><maxLodPixels>1000000000</maxLodPixels>
<minFadeExtent>0</minFadeExtent><maxFadeExtent>0</maxFadeExtent>
</Region>
<Link>
<href>012000.kml</href><viewRefreshMode>onRegion</viewRefreshMode></Link>
</NetworkLink>
<NetworkLink>
<name>012001</name>

<Region>
<LatLonAltBox>
<north>47.326450</north><south>47.260206</south><east>8.533603</east><west>8.381331</west>
<minAltitude>0.000000</minAltitude><maxAltitude>0.000000</maxAltitude>
</LatLonAltBox>
<minLodPixels>256</minLodPixels><maxLodPixels>1000000000</maxLodPixels>
<minFadeExtent>0</minFadeExtent><maxFadeExtent>0</maxFadeExtent>
</Region>
<Link>
<href>012001.kml</href><viewRefreshMode>onRegion</viewRefreshMode></Link>
</NetworkLink>
<NetworkLink>
<name>012002</name>

<Region>
<LatLonAltBox>
<north>47.260206</north><south>47.193962</south><east>8.381331</east><west>8.229060</west>
<minAltitude>0.000000</minAltitude><maxAltitude>0.000000</maxAltitude>
</LatLonAltBox>
<minLodPixels>256</minLodPixels><maxLodPixels>1000000000</maxLodPixels>
<minFadeExtent>0</minFadeExtent><maxFadeExtent>0</maxFadeExtent>
</Region>
<Link>
<href>012002.kml</href><viewRefreshMode>onRegion</viewRefreshMode></Link>
</NetworkLink>
<NetworkLink>
<name>012003</name>

<Region>
<LatLonAltBox>
<north>47.260206</north><south>47.193962</south><east>8.533603</east><west>8.381331</west>
<minAltitude>0.000000</minAltitude><maxAltitude>0.000000</maxAltitude>
</LatLonAltBox>
<minLodPixels>256</minLodPixels><maxLodPixels>1000000000</maxLodPixels>
<minFadeExtent>0</minFadeExtent><maxFadeExtent>0</maxFadeExtent>
</Region>
<Link>
<href>012003.kml</href><viewRefreshMode>onRegion</viewRefreshMode></Link>
</NetworkLink>
<Placemark>
    <name>Oberalikon</name>
    <Style><LineStyle><width>2</width></LineStyle></Style>
    <Point>
      <extrude>1</extrude>
      <tesselate>0</tesselate>
      <altitudeMode>relativeToGround</altitudeMode>
      <coordinates>8.35849, 47.1993,20</coordinates>
    </Point>
  </Placemark><Placemark>
    <name>Muri AG, Egg</name>
    <Style><LineStyle><width>2</width></LineStyle></Style>
    <Point>
      <extrude>1</extrude>
      <tesselate>0</tesselate>
      <altitudeMode>relativeToGround</altitudeMode>
      <coordinates>8.34328, 47.2754,20</coordinates>
    </Point>
  </Placemark><Placemark>
    <name>Auw, Altersheim</name>
    <Style><LineStyle><width>2</width></LineStyle></Style>
    <Point>
      <extrude>1</extrude>
      <tesselate>0</tesselate>
      <altitudeMode>relativeToGround</altitudeMode>
      <coordinates>8.3658, 47.2098,20</coordinates>
    </Point>
  </Placemark><Placemark>
    <name>Auw, Mitteldorf</name>
    <Style><LineStyle><width>2</width></LineStyle></Style>
    <Point>
      <extrude>1</extrude>
      <tesselate>0</tesselate>
      <altitudeMode>relativeToGround</altitudeMode>
      <coordinates>8.36529, 47.2109,20</coordinates>
    </Point>
  </Placemark><Placemark>
    <name>Baar, Bachtalerhöhe</name>
    <Style><LineStyle><width>2</width></LineStyle></Style>
    <Point>
      <extrude>1</extrude>
      <tesselate>0</tesselate>
      <altitudeMode>relativeToGround</altitudeMode>
      <coordinates>8.51043, 47.2099,20</coordinates>
    </Point>
  </Placemark><Placemark>
    <name>Kappel am Albis, Weid</name>
    <Style><LineStyle><width>2</width></LineStyle></Style>
    <Point>
      <extrude>1</extrude>
      <tesselate>0</tesselate>
      <altitudeMode>relativeToGround</altitudeMode>
      <coordinates>8.50272, 47.217,20</coordinates>
    </Point>
  </Placemark><Placemark>
    <name>Uerzlikon</name>
    <Style><LineStyle><width>2</width></LineStyle></Style>
    <Point>
      <extrude>1</extrude>
      <tesselate>0</tesselate>
      <altitudeMode>relativeToGround</altitudeMode>
      <coordinates>8.50028, 47.2222,20</coordinates>
    </Point>
  </Placemark><Placemark>
    <name>Kappel am Albis, Allenwinden</name>
    <Style><LineStyle><width>2</width></LineStyle></Style>
    <Point>
      <extrude>1</extrude>
      <tesselate>0</tesselate>
      <altitudeMode>relativeToGround</altitudeMode>
      <coordinates>8.53224, 47.2261,20</coordinates>
    </Point>
  </Placemark><Placemark>
    <name>Mettmenstetten, Bahnhof</name>
    <Style><LineStyle><width>2</width></LineStyle></Style>
    <Point>
      <extrude>1</extrude>
      <tesselate>0</tesselate>
      <altitudeMode>relativeToGround</altitudeMode>
      <coordinates>8.45761, 47.2439,20</coordinates>
    </Point>
  </Placemark><Placemark>
    <name>Knonau, Uttenberg</name>
    <Style><LineStyle><width>2</width></LineStyle></Style>
    <Point>
      <extrude>1</extrude>
      <tesselate>0</tesselate>
      <altitudeMode>relativeToGround</altitudeMode>
      <coordinates>8.44907, 47.2344,20</coordinates>
    </Point>
  </Placemark><Placemark>
    <name>Baar, Waldmannhalle</name>
    <Style><LineStyle><width>2</width></LineStyle></Style>
    <Point>
      <extrude>1</extrude>
      <tesselate>0</tesselate>
      <altitudeMode>relativeToGround</altitudeMode>
      <coordinates>8.52148, 47.199,20</coordinates>
    </Point>
  </Placemark><Placemark>
    <name>Blickensdorf, H. Waldmann-Str</name>
    <Style><LineStyle><width>2</width></LineStyle></Style>
    <Point>
      <extrude>1</extrude>
      <tesselate>0</tesselate>
      <altitudeMode>relativeToGround</altitudeMode>
      <coordinates>8.51625, 47.2013,20</coordinates>
    </Point>
  </Placemark><Placemark>
    <name>Muri AG, Luzernstrasse</name>
    <Style><LineStyle><width>2</width></LineStyle></Style>
    <Point>
      <extrude>1</extrude>
      <tesselate>0</tesselate>
      <altitudeMode>relativeToGround</altitudeMode>
      <coordinates>8.34255, 47.2714,20</coordinates>
    </Point>
  </Placemark><Placemark>
    <name>Beinwil (Freiamt), Ab.Winters.</name>
    <Style><LineStyle><width>2</width></LineStyle></Style>
    <Point>
      <extrude>1</extrude>
      <tesselate>0</tesselate>
      <altitudeMode>relativeToGround</altitudeMode>
      <coordinates>8.34123, 47.2322,20</coordinates>
    </Point>
  </Placemark><Placemark>
    <name>Muri AG, Marktstrasse</name>
    <Style><LineStyle><width>2</width></LineStyle></Style>
    <Point>
      <extrude>1</extrude>
      <tesselate>0</tesselate>
      <altitudeMode>relativeToGround</altitudeMode>
      <coordinates>8.33667, 47.275,20</coordinates>
    </Point>
  </Placemark><Placemark>
    <name>Benzenschwil, Bahnhof</name>
    <Style><LineStyle><width>2</width></LineStyle></Style>
    <Point>
      <extrude>1</extrude>
      <tesselate>0</tesselate>
      <altitudeMode>relativeToGround</altitudeMode>
      <coordinates>8.36329, 47.2478,20</coordinates>
    </Point>
  </Placemark><Placemark>
    <name>Beinwil (Freiamt), Unterdorf</name>
    <Style><LineStyle><width>2</width></LineStyle></Style>
    <Point>
      <extrude>1</extrude>
      <tesselate>0</tesselate>
      <altitudeMode>relativeToGround</altitudeMode>
      <coordinates>8.3465, 47.2313,20</coordinates>
    </Point>
  </Placemark><Placemark>
    <name>Uezwil, Waage</name>
    <Style><LineStyle><width>2</width></LineStyle></Style>
    <Point>
      <extrude>1</extrude>
      <tesselate>0</tesselate>
      <altitudeMode>relativeToGround</altitudeMode>
      <coordinates>8.2742, 47.3164,20</coordinates>
    </Point>
  </Placemark><Placemark>
    <name>Muri AG, Industriegebiet</name>
    <Style><LineStyle><width>2</width></LineStyle></Style>
    <Point>
      <extrude>1</extrude>
      <tesselate>0</tesselate>
      <altitudeMode>relativeToGround</altitudeMode>
      <coordinates>8.35101, 47.2637,20</coordinates>
    </Point>
  </Placemark><Placemark>
    <name>Büttikon AG, Oberdorf</name>
    <Style><LineStyle><width>2</width></LineStyle></Style>
    <Point>
      <extrude>1</extrude>
      <tesselate>0</tesselate>
      <altitudeMode>relativeToGround</altitudeMode>
      <coordinates>8.26839, 47.3254,20</coordinates>
    </Point>
  </Placemark><Placemark>
    <name>Uezwil, im Letten</name>
    <Style><LineStyle><width>2</width></LineStyle></Style>
    <Point>
      <extrude>1</extrude>
      <tesselate>0</tesselate>
      <altitudeMode>relativeToGround</altitudeMode>
      <coordinates>8.27259, 47.3187,20</coordinates>
    </Point>
  </Placemark><Placemark>
    <name>Oberlunkhofen, Post</name>
    <Style><LineStyle><width>2</width></LineStyle></Style>
    <Point>
      <extrude>1</extrude>
      <tesselate>0</tesselate>
      <altitudeMode>relativeToGround</altitudeMode>
      <coordinates>8.38889, 47.313,20</coordinates>
    </Point>
  </Placemark><Placemark>
    <name>Affoltern a. A., Kronenplatz</name>
    <Style><LineStyle><width>2</width></LineStyle></Style>
    <Point>
      <extrude>1</extrude>
      <tesselate>0</tesselate>
      <altitudeMode>relativeToGround</altitudeMode>
      <coordinates>8.4535, 47.2811,20</coordinates>
    </Point>
  </Placemark><Placemark>
    <name>Hausen am Albis, Tüfenbach</name>
    <Style><LineStyle><width>2</width></LineStyle></Style>
    <Point>
      <extrude>1</extrude>
      <tesselate>0</tesselate>
      <altitudeMode>relativeToGround</altitudeMode>
      <coordinates>8.522, 47.2591,20</coordinates>
    </Point>
  </Placemark><Placemark>
    <name>Hausen am Albis, Riedmatt</name>
    <Style><LineStyle><width>2</width></LineStyle></Style>
    <Point>
      <extrude>1</extrude>
      <tesselate>0</tesselate>
      <altitudeMode>relativeToGround</altitudeMode>
      <coordinates>8.51724, 47.263,20</coordinates>
    </Point>
  </Placemark><Placemark>
    <name>Oberalbis, Passhöhe</name>
    <Style><LineStyle><width>2</width></LineStyle></Style>
    <Point>
      <extrude>1</extrude>
      <tesselate>0</tesselate>
      <altitudeMode>relativeToGround</altitudeMode>
      <coordinates>8.52069, 47.2761,20</coordinates>
    </Point>
  </Placemark><Placemark>
    <name>Rumentikon</name>
    <Style><LineStyle><width>2</width></LineStyle></Style>
    <Point>
      <extrude>1</extrude>
      <tesselate>0</tesselate>
      <altitudeMode>relativeToGround</altitudeMode>
      <coordinates>8.43785, 47.2085,20</coordinates>
    </Point>
  </Placemark><Placemark>
    <name>Cham, Langacker</name>
    <Style><LineStyle><width>2</width></LineStyle></Style>
    <Point>
      <extrude>1</extrude>
      <tesselate>0</tesselate>
      <altitudeMode>relativeToGround</altitudeMode>
      <coordinates>8.45215, 47.1967,20</coordinates>
    </Point>
  </Placemark><Placemark>
    <name>Cham, Pfad</name>
    <Style><LineStyle><width>2</width></LineStyle></Style>
    <Point>
      <extrude>1</extrude>
      <tesselate>0</tesselate>
      <altitudeMode>relativeToGround</altitudeMode>
      <coordinates>8.45378, 47.1995,20</coordinates>
    </Point>
  </Placemark><Placemark>
    <name>Stallikon, Wolfenhof</name>
    <Style><LineStyle><width>2</width></LineStyle></Style>
    <Point>
      <extrude>1</extrude>
      <tesselate>0</tesselate>
      <altitudeMode>relativeToGround</altitudeMode>
      <coordinates>8.48548, 47.2945,20</coordinates>
    </Point>
  </Placemark><Placemark>
    <name>Merenschwand, Unterrüti</name>
    <Style><LineStyle><width>2</width></LineStyle></Style>
    <Point>
      <extrude>1</extrude>
      <tesselate>0</tesselate>
      <altitudeMode>relativeToGround</altitudeMode>
      <coordinates>8.36372, 47.2725,20</coordinates>
    </Point>
  </Placemark><Placemark>
    <name>Rifferswil, Post</name>
    <Style><LineStyle><width>2</width></LineStyle></Style>
    <Point>
      <extrude>1</extrude>
      <tesselate>0</tesselate>
      <altitudeMode>relativeToGround</altitudeMode>
      <coordinates>8.49701, 47.2424,20</coordinates>
    </Point>
  </Placemark><Placemark>
    <name>Knonau, Kirche</name>
    <Style><LineStyle><width>2</width></LineStyle></Style>
    <Point>
      <extrude>1</extrude>
      <tesselate>0</tesselate>
      <altitudeMode>relativeToGround</altitudeMode>
      <coordinates>8.46072, 47.224,20</coordinates>
    </Point>
  </Placemark><Placemark>
    <name>Muri AG, Bahnhof</name>
    <Style><LineStyle><width>2</width></LineStyle></Style>
    <Point>
      <extrude>1</extrude>
      <tesselate>0</tesselate>
      <altitudeMode>relativeToGround</altitudeMode>
      <coordinates>8.33999, 47.2763,20</coordinates>
    </Point>
  </Placemark><Placemark>
    <name>Bünzen, Freienhof</name>
    <Style><LineStyle><width>2</width></LineStyle></Style>
    <Point>
      <extrude>1</extrude>
      <tesselate>0</tesselate>
      <altitudeMode>relativeToGround</altitudeMode>
      <coordinates>8.32503, 47.3106,20</coordinates>
    </Point>
  </Placemark><Placemark>
    <name>Besenbüren, Post</name>
    <Style><LineStyle><width>2</width></LineStyle></Style>
    <Point>
      <extrude>1</extrude>
      <tesselate>0</tesselate>
      <altitudeMode>relativeToGround</altitudeMode>
      <coordinates>8.3439, 47.3118,20</coordinates>
    </Point>
  </Placemark><Placemark>
    <name>Sins, Freudenberg</name>
    <Style><LineStyle><width>2</width></LineStyle></Style>
    <Point>
      <extrude>1</extrude>
      <tesselate>0</tesselate>
      <altitudeMode>relativeToGround</altitudeMode>
      <coordinates>8.3862, 47.199,20</coordinates>
    </Point>
  </Placemark><Placemark>
    <name>Rottenschwil, Rebberg</name>
    <Style><LineStyle><width>2</width></LineStyle></Style>
    <Point>
      <extrude>1</extrude>
      <tesselate>0</tesselate>
      <altitudeMode>relativeToGround</altitudeMode>
      <coordinates>8.36008, 47.3108,20</coordinates>
    </Point>
  </Placemark><Placemark>
    <name>Sins, Bahnhof</name>
    <Style><LineStyle><width>2</width></LineStyle></Style>
    <Point>
      <extrude>1</extrude>
      <tesselate>0</tesselate>
      <altitudeMode>relativeToGround</altitudeMode>
      <coordinates>8.40064, 47.1944,20</coordinates>
    </Point>
  </Placemark><Placemark>
    <name>Bonstetten, Lätten</name>
    <Style><LineStyle><width>2</width></LineStyle></Style>
    <Point>
      <extrude>1</extrude>
      <tesselate>0</tesselate>
      <altitudeMode>relativeToGround</altitudeMode>
      <coordinates>8.45579, 47.3189,20</coordinates>
    </Point>
  </Placemark><Placemark>
    <name>Muri AG, Kreisel</name>
    <Style><LineStyle><width>2</width></LineStyle></Style>
    <Point>
      <extrude>1</extrude>
      <tesselate>0</tesselate>
      <altitudeMode>relativeToGround</altitudeMode>
      <coordinates>8.3416, 47.2736,20</coordinates>
    </Point>
  </Placemark><Placemark>
    <name>Islisberg</name>
    <Style><LineStyle><width>2</width></LineStyle></Style>
    <Point>
      <extrude>1</extrude>
      <tesselate>0</tesselate>
      <altitudeMode>relativeToGround</altitudeMode>
      <coordinates>8.43903, 47.323,20</coordinates>
    </Point>
  </Placemark><Placemark>
    <name>Stallikon, Aegerten</name>
    <Style><LineStyle><width>2</width></LineStyle></Style>
    <Point>
      <extrude>1</extrude>
      <tesselate>0</tesselate>
      <altitudeMode>relativeToGround</altitudeMode>
      <coordinates>8.49061, 47.3202,20</coordinates>
    </Point>
  </Placemark><Placemark>
    <name>Jonen, Post</name>
    <Style><LineStyle><width>2</width></LineStyle></Style>
    <Point>
      <extrude>1</extrude>
      <tesselate>0</tesselate>
      <altitudeMode>relativeToGround</altitudeMode>
      <coordinates>8.39576, 47.2958,20</coordinates>
    </Point>
  </Placemark><Placemark>
    <name>Oberlunkhofen, Dorfplatz</name>
    <Style><LineStyle><width>2</width></LineStyle></Style>
    <Point>
      <extrude>1</extrude>
      <tesselate>0</tesselate>
      <altitudeMode>relativeToGround</altitudeMode>
      <coordinates>8.39047, 47.3114,20</coordinates>
    </Point>
  </Placemark><Placemark>
    <name>Oberlunkhofen, Oberdorf</name>
    <Style><LineStyle><width>2</width></LineStyle></Style>
    <Point>
      <extrude>1</extrude>
      <tesselate>0</tesselate>
      <altitudeMode>relativeToGround</altitudeMode>
      <coordinates>8.39276, 47.3123,20</coordinates>
    </Point>
  </Placemark><Placemark>
    <name>Oberlunkhofen, Waldegg</name>
    <Style><LineStyle><width>2</width></LineStyle></Style>
    <Point>
      <extrude>1</extrude>
      <tesselate>0</tesselate>
      <altitudeMode>relativeToGround</altitudeMode>
      <coordinates>8.39881, 47.3134,20</coordinates>
    </Point>
  </Placemark><Placemark>
    <name>Altwis</name>
    <Style><LineStyle><width>2</width></LineStyle></Style>
    <Point>
      <extrude>1</extrude>
      <tesselate>0</tesselate>
      <altitudeMode>relativeToGround</altitudeMode>
      <coordinates>8.25216, 47.237,20</coordinates>
    </Point>
  </Placemark><Placemark>
    <name>Hitzkirch, Schulhaus</name>
    <Style><LineStyle><width>2</width></LineStyle></Style>
    <Point>
      <extrude>1</extrude>
      <tesselate>0</tesselate>
      <altitudeMode>relativeToGround</altitudeMode>
      <coordinates>8.26097, 47.2259,20</coordinates>
    </Point>
  </Placemark></Document>
</kml>
