<kml>
<Document>

<Region>
<LatLonAltBox>
<north>47.127719</north><south>47.061475</south><east>8.685874</east><west>8.533603</west>
<minAltitude>0.000000</minAltitude><maxAltitude>0.000000</maxAltitude>
</LatLonAltBox>
<minLodPixels>2048</minLodPixels><maxLodPixels>1000000000</maxLodPixels>
<minFadeExtent>0</minFadeExtent><maxFadeExtent>0</maxFadeExtent>
</Region>
<Placemark>
    <name>Rothenthurm</name>
    <Style><LineStyle><width>2</width></LineStyle></Style>
    <Point>
      <extrude>1</extrude>
      <tesselate>0</tesselate>
      <altitudeMode>relativeToGround</altitudeMode>
      <coordinates>8.67466, 47.1058,20</coordinates>
    </Point>
  </Placemark><Placemark>
    <name>Sattel-Aegeri</name>
    <Style><LineStyle><width>2</width></LineStyle></Style>
    <Point>
      <extrude>1</extrude>
      <tesselate>0</tesselate>
      <altitudeMode>relativeToGround</altitudeMode>
      <coordinates>8.62723, 47.0799,20</coordinates>
    </Point>
  </Placemark><Placemark>
    <name>Sattel, Gondelbahn</name>
    <Style><LineStyle><width>2</width></LineStyle></Style>
    <Point>
      <extrude>1</extrude>
      <tesselate>0</tesselate>
      <altitudeMode>relativeToGround</altitudeMode>
      <coordinates>8.6348, 47.0785,20</coordinates>
    </Point>
  </Placemark><Placemark>
    <name>Rothenthurm, Bahnhof</name>
    <Style><LineStyle><width>2</width></LineStyle></Style>
    <Point>
      <extrude>1</extrude>
      <tesselate>0</tesselate>
      <altitudeMode>relativeToGround</altitudeMode>
      <coordinates>8.67306, 47.1046,20</coordinates>
    </Point>
  </Placemark><Placemark>
    <name>Morgarten, Hotel</name>
    <Style><LineStyle><width>2</width></LineStyle></Style>
    <Point>
      <extrude>1</extrude>
      <tesselate>0</tesselate>
      <altitudeMode>relativeToGround</altitudeMode>
      <coordinates>8.64013, 47.1049,20</coordinates>
    </Point>
  </Placemark></Document>
</kml>
