<kml>
<Document>

<Region>
<LatLonAltBox>
<north>47.326450</north><south>47.293328</south><east>8.838145</east><west>8.762009</west>
<minAltitude>0.000000</minAltitude><maxAltitude>0.000000</maxAltitude>
</LatLonAltBox>
<minLodPixels>2048</minLodPixels><maxLodPixels>1000000000</maxLodPixels>
<minFadeExtent>0</minFadeExtent><maxFadeExtent>0</maxFadeExtent>
</Region>
<Placemark>
    <name>Wetzikon ZH, Alpenblick</name>
    <Style><LineStyle><width>2</width></LineStyle></Style>
    <Point>
      <extrude>1</extrude>
      <tesselate>0</tesselate>
      <altitudeMode>relativeToGround</altitudeMode>
      <coordinates>8.79432, 47.3144,20</coordinates>
    </Point>
  </Placemark><Placemark>
    <name>Grüt (Gossau ZH), Lindenhof</name>
    <Style><LineStyle><width>2</width></LineStyle></Style>
    <Point>
      <extrude>1</extrude>
      <tesselate>0</tesselate>
      <altitudeMode>relativeToGround</altitudeMode>
      <coordinates>8.78582, 47.3116,20</coordinates>
    </Point>
  </Placemark><Placemark>
    <name>Ettenhausen, Emmetschloo</name>
    <Style><LineStyle><width>2</width></LineStyle></Style>
    <Point>
      <extrude>1</extrude>
      <tesselate>0</tesselate>
      <altitudeMode>relativeToGround</altitudeMode>
      <coordinates>8.83238, 47.3256,20</coordinates>
    </Point>
  </Placemark><Placemark>
    <name>Wetzikon ZH, Stadion</name>
    <Style><LineStyle><width>2</width></LineStyle></Style>
    <Point>
      <extrude>1</extrude>
      <tesselate>0</tesselate>
      <altitudeMode>relativeToGround</altitudeMode>
      <coordinates>8.79921, 47.3143,20</coordinates>
    </Point>
  </Placemark><Placemark>
    <name>Wetzikon ZH, Medikon</name>
    <Style><LineStyle><width>2</width></LineStyle></Style>
    <Point>
      <extrude>1</extrude>
      <tesselate>0</tesselate>
      <altitudeMode>relativeToGround</altitudeMode>
      <coordinates>8.78608, 47.3246,20</coordinates>
    </Point>
  </Placemark><Placemark>
    <name>Grüt (Gossau ZH)</name>
    <Style><LineStyle><width>2</width></LineStyle></Style>
    <Point>
      <extrude>1</extrude>
      <tesselate>0</tesselate>
      <altitudeMode>relativeToGround</altitudeMode>
      <coordinates>8.78213, 47.3111,20</coordinates>
    </Point>
  </Placemark><Placemark>
    <name>Gossau ZH, Ernst-Brugger-Platz</name>
    <Style><LineStyle><width>2</width></LineStyle></Style>
    <Point>
      <extrude>1</extrude>
      <tesselate>0</tesselate>
      <altitudeMode>relativeToGround</altitudeMode>
      <coordinates>8.76304, 47.3016,20</coordinates>
    </Point>
  </Placemark><Placemark>
    <name>Ottikon (Gossau ZH)</name>
    <Style><LineStyle><width>2</width></LineStyle></Style>
    <Point>
      <extrude>1</extrude>
      <tesselate>0</tesselate>
      <altitudeMode>relativeToGround</altitudeMode>
      <coordinates>8.77892, 47.2959,20</coordinates>
    </Point>
  </Placemark><Placemark>
    <name>Hinwil, Jumbo</name>
    <Style><LineStyle><width>2</width></LineStyle></Style>
    <Point>
      <extrude>1</extrude>
      <tesselate>0</tesselate>
      <altitudeMode>relativeToGround</altitudeMode>
      <coordinates>8.81759, 47.3068,20</coordinates>
    </Point>
  </Placemark><Placemark>
    <name>Hinwil, Brunnenbachstrasse</name>
    <Style><LineStyle><width>2</width></LineStyle></Style>
    <Point>
      <extrude>1</extrude>
      <tesselate>0</tesselate>
      <altitudeMode>relativeToGround</altitudeMode>
      <coordinates>8.82, 47.3055,20</coordinates>
    </Point>
  </Placemark><Placemark>
    <name>Hinwil, Bossikon</name>
    <Style><LineStyle><width>2</width></LineStyle></Style>
    <Point>
      <extrude>1</extrude>
      <tesselate>0</tesselate>
      <altitudeMode>relativeToGround</altitudeMode>
      <coordinates>8.81347, 47.309,20</coordinates>
    </Point>
  </Placemark></Document>
</kml>
