<kml>
<Document>

<Region>
<LatLonAltBox>
<north>47.326450</north><south>47.260206</south><east>8.533603</east><west>8.381331</west>
<minAltitude>0.000000</minAltitude><maxAltitude>0.000000</maxAltitude>
</LatLonAltBox>
<minLodPixels>2048</minLodPixels><maxLodPixels>1000000000</maxLodPixels>
<minFadeExtent>0</minFadeExtent><maxFadeExtent>0</maxFadeExtent>
</Region>
<Placemark>
    <name>Unteralbis</name>
    <Style><LineStyle><width>2</width></LineStyle></Style>
    <Point>
      <extrude>1</extrude>
      <tesselate>0</tesselate>
      <altitudeMode>relativeToGround</altitudeMode>
      <coordinates>8.52789, 47.2858,20</coordinates>
    </Point>
  </Placemark><Placemark>
    <name>Rickenbach AG, Zürichstrasse</name>
    <Style><LineStyle><width>2</width></LineStyle></Style>
    <Point>
      <extrude>1</extrude>
      <tesselate>0</tesselate>
      <altitudeMode>relativeToGround</altitudeMode>
      <coordinates>8.39328, 47.2629,20</coordinates>
    </Point>
  </Placemark><Placemark>
    <name>Affoltern a. A., Bezirksspital</name>
    <Style><LineStyle><width>2</width></LineStyle></Style>
    <Point>
      <extrude>1</extrude>
      <tesselate>0</tesselate>
      <altitudeMode>relativeToGround</altitudeMode>
      <coordinates>8.45739, 47.2812,20</coordinates>
    </Point>
  </Placemark><Placemark>
    <name>Affoltern a. A., Stigeli</name>
    <Style><LineStyle><width>2</width></LineStyle></Style>
    <Point>
      <extrude>1</extrude>
      <tesselate>0</tesselate>
      <altitudeMode>relativeToGround</altitudeMode>
      <coordinates>8.45911, 47.2785,20</coordinates>
    </Point>
  </Placemark><Placemark>
    <name>Affoltern a. A., Lilienberg</name>
    <Style><LineStyle><width>2</width></LineStyle></Style>
    <Point>
      <extrude>1</extrude>
      <tesselate>0</tesselate>
      <altitudeMode>relativeToGround</altitudeMode>
      <coordinates>8.46593, 47.2786,20</coordinates>
    </Point>
  </Placemark><Placemark>
    <name>Sihlau</name>
    <Style><LineStyle><width>2</width></LineStyle></Style>
    <Point>
      <extrude>1</extrude>
      <tesselate>0</tesselate>
      <altitudeMode>relativeToGround</altitudeMode>
      <coordinates>8.52525, 47.3032,20</coordinates>
    </Point>
  </Placemark><Placemark>
    <name>Adliswil</name>
    <Style><LineStyle><width>2</width></LineStyle></Style>
    <Point>
      <extrude>1</extrude>
      <tesselate>0</tesselate>
      <altitudeMode>relativeToGround</altitudeMode>
      <coordinates>8.52416, 47.3123,20</coordinates>
    </Point>
  </Placemark><Placemark>
    <name>Sood-Oberleimbach</name>
    <Style><LineStyle><width>2</width></LineStyle></Style>
    <Point>
      <extrude>1</extrude>
      <tesselate>0</tesselate>
      <altitudeMode>relativeToGround</altitudeMode>
      <coordinates>8.52144, 47.3196,20</coordinates>
    </Point>
  </Placemark><Placemark>
    <name>Aeugst am Albis, Müliberg</name>
    <Style><LineStyle><width>2</width></LineStyle></Style>
    <Point>
      <extrude>1</extrude>
      <tesselate>0</tesselate>
      <altitudeMode>relativeToGround</altitudeMode>
      <coordinates>8.47847, 47.2814,20</coordinates>
    </Point>
  </Placemark><Placemark>
    <name>Aeugst am Albis, Höchweg</name>
    <Style><LineStyle><width>2</width></LineStyle></Style>
    <Point>
      <extrude>1</extrude>
      <tesselate>0</tesselate>
      <altitudeMode>relativeToGround</altitudeMode>
      <coordinates>8.48096, 47.2707,20</coordinates>
    </Point>
  </Placemark><Placemark>
    <name>Stallikon, Tägerst</name>
    <Style><LineStyle><width>2</width></LineStyle></Style>
    <Point>
      <extrude>1</extrude>
      <tesselate>0</tesselate>
      <altitudeMode>relativeToGround</altitudeMode>
      <coordinates>8.48742, 47.2988,20</coordinates>
    </Point>
  </Placemark><Placemark>
    <name>Aeugstertal, Landhus</name>
    <Style><LineStyle><width>2</width></LineStyle></Style>
    <Point>
      <extrude>1</extrude>
      <tesselate>0</tesselate>
      <altitudeMode>relativeToGround</altitudeMode>
      <coordinates>8.50078, 47.2797,20</coordinates>
    </Point>
  </Placemark><Placemark>
    <name>Stallikon, Aumüli</name>
    <Style><LineStyle><width>2</width></LineStyle></Style>
    <Point>
      <extrude>1</extrude>
      <tesselate>0</tesselate>
      <altitudeMode>relativeToGround</altitudeMode>
      <coordinates>8.48591, 47.3021,20</coordinates>
    </Point>
  </Placemark><Placemark>
    <name>Ottenbach, Ulmenhof</name>
    <Style><LineStyle><width>2</width></LineStyle></Style>
    <Point>
      <extrude>1</extrude>
      <tesselate>0</tesselate>
      <altitudeMode>relativeToGround</altitudeMode>
      <coordinates>8.40758, 47.2776,20</coordinates>
    </Point>
  </Placemark><Placemark>
    <name>Ottenbach, Hinterdorf</name>
    <Style><LineStyle><width>2</width></LineStyle></Style>
    <Point>
      <extrude>1</extrude>
      <tesselate>0</tesselate>
      <altitudeMode>relativeToGround</altitudeMode>
      <coordinates>8.40286, 47.2833,20</coordinates>
    </Point>
  </Placemark><Placemark>
    <name>Obfelden, Bickwil</name>
    <Style><LineStyle><width>2</width></LineStyle></Style>
    <Point>
      <extrude>1</extrude>
      <tesselate>0</tesselate>
      <altitudeMode>relativeToGround</altitudeMode>
      <coordinates>8.42311, 47.2698,20</coordinates>
    </Point>
  </Placemark><Placemark>
    <name>Jonen, Käppeli</name>
    <Style><LineStyle><width>2</width></LineStyle></Style>
    <Point>
      <extrude>1</extrude>
      <tesselate>0</tesselate>
      <altitudeMode>relativeToGround</altitudeMode>
      <coordinates>8.39394, 47.3,20</coordinates>
    </Point>
  </Placemark><Placemark>
    <name>Oberlunkhofen, Kellerämterst.</name>
    <Style><LineStyle><width>2</width></LineStyle></Style>
    <Point>
      <extrude>1</extrude>
      <tesselate>0</tesselate>
      <altitudeMode>relativeToGround</altitudeMode>
      <coordinates>8.38727, 47.3149,20</coordinates>
    </Point>
  </Placemark><Placemark>
    <name>Merenschwand, Allmend Gut</name>
    <Style><LineStyle><width>2</width></LineStyle></Style>
    <Point>
      <extrude>1</extrude>
      <tesselate>0</tesselate>
      <altitudeMode>relativeToGround</altitudeMode>
      <coordinates>8.38797, 47.2616,20</coordinates>
    </Point>
  </Placemark><Placemark>
    <name>Rickenbach b. Ottenbach</name>
    <Style><LineStyle><width>2</width></LineStyle></Style>
    <Point>
      <extrude>1</extrude>
      <tesselate>0</tesselate>
      <altitudeMode>relativeToGround</altitudeMode>
      <coordinates>8.40485, 47.2691,20</coordinates>
    </Point>
  </Placemark><Placemark>
    <name>Obfelden, Hirschen</name>
    <Style><LineStyle><width>2</width></LineStyle></Style>
    <Point>
      <extrude>1</extrude>
      <tesselate>0</tesselate>
      <altitudeMode>relativeToGround</altitudeMode>
      <coordinates>8.43324, 47.2692,20</coordinates>
    </Point>
  </Placemark><Placemark>
    <name>Zwillikon, Fehrenbach</name>
    <Style><LineStyle><width>2</width></LineStyle></Style>
    <Point>
      <extrude>1</extrude>
      <tesselate>0</tesselate>
      <altitudeMode>relativeToGround</altitudeMode>
      <coordinates>8.44075, 47.2866,20</coordinates>
    </Point>
  </Placemark><Placemark>
    <name>Obfelden, Unterlunnern</name>
    <Style><LineStyle><width>2</width></LineStyle></Style>
    <Point>
      <extrude>1</extrude>
      <tesselate>0</tesselate>
      <altitudeMode>relativeToGround</altitudeMode>
      <coordinates>8.40981, 47.2634,20</coordinates>
    </Point>
  </Placemark><Placemark>
    <name>Aeugst am Albis, Dorf</name>
    <Style><LineStyle><width>2</width></LineStyle></Style>
    <Point>
      <extrude>1</extrude>
      <tesselate>0</tesselate>
      <altitudeMode>relativeToGround</altitudeMode>
      <coordinates>8.48535, 47.2678,20</coordinates>
    </Point>
  </Placemark><Placemark>
    <name>Obfelden, alte Post</name>
    <Style><LineStyle><width>2</width></LineStyle></Style>
    <Point>
      <extrude>1</extrude>
      <tesselate>0</tesselate>
      <altitudeMode>relativeToGround</altitudeMode>
      <coordinates>8.42033, 47.2621,20</coordinates>
    </Point>
  </Placemark><Placemark>
    <name>Ottenbach, Post</name>
    <Style><LineStyle><width>2</width></LineStyle></Style>
    <Point>
      <extrude>1</extrude>
      <tesselate>0</tesselate>
      <altitudeMode>relativeToGround</altitudeMode>
      <coordinates>8.40522, 47.2814,20</coordinates>
    </Point>
  </Placemark><Placemark>
    <name>Stallikon, Gamlikon</name>
    <Style><LineStyle><width>2</width></LineStyle></Style>
    <Point>
      <extrude>1</extrude>
      <tesselate>0</tesselate>
      <altitudeMode>relativeToGround</altitudeMode>
      <coordinates>8.49326, 47.3112,20</coordinates>
    </Point>
  </Placemark><Placemark>
    <name>Hausen am Albis, Türlersee</name>
    <Style><LineStyle><width>2</width></LineStyle></Style>
    <Point>
      <extrude>1</extrude>
      <tesselate>0</tesselate>
      <altitudeMode>relativeToGround</altitudeMode>
      <coordinates>8.5126, 47.2675,20</coordinates>
    </Point>
  </Placemark><Placemark>
    <name>Aeugstertal, Kloster</name>
    <Style><LineStyle><width>2</width></LineStyle></Style>
    <Point>
      <extrude>1</extrude>
      <tesselate>0</tesselate>
      <altitudeMode>relativeToGround</altitudeMode>
      <coordinates>8.48677, 47.2844,20</coordinates>
    </Point>
  </Placemark><Placemark>
    <name>Bonstetten, Lärchenhof</name>
    <Style><LineStyle><width>2</width></LineStyle></Style>
    <Point>
      <extrude>1</extrude>
      <tesselate>0</tesselate>
      <altitudeMode>relativeToGround</altitudeMode>
      <coordinates>8.47241, 47.3244,20</coordinates>
    </Point>
  </Placemark><Placemark>
    <name>Jonen, Weingasse</name>
    <Style><LineStyle><width>2</width></LineStyle></Style>
    <Point>
      <extrude>1</extrude>
      <tesselate>0</tesselate>
      <altitudeMode>relativeToGround</altitudeMode>
      <coordinates>8.39812, 47.2934,20</coordinates>
    </Point>
  </Placemark><Placemark>
    <name>Adliswil LAF</name>
    <Style><LineStyle><width>2</width></LineStyle></Style>
    <Point>
      <extrude>1</extrude>
      <tesselate>0</tesselate>
      <altitudeMode>relativeToGround</altitudeMode>
      <coordinates>8.52005, 47.3132,20</coordinates>
    </Point>
  </Placemark><Placemark>
    <name>Langnau am Albis, Hinter Albis</name>
    <Style><LineStyle><width>2</width></LineStyle></Style>
    <Point>
      <extrude>1</extrude>
      <tesselate>0</tesselate>
      <altitudeMode>relativeToGround</altitudeMode>
      <coordinates>8.51781, 47.2748,20</coordinates>
    </Point>
  </Placemark><Placemark>
    <name>Langnau am Albis, Mittel Albis</name>
    <Style><LineStyle><width>2</width></LineStyle></Style>
    <Point>
      <extrude>1</extrude>
      <tesselate>0</tesselate>
      <altitudeMode>relativeToGround</altitudeMode>
      <coordinates>8.52777, 47.2758,20</coordinates>
    </Point>
  </Placemark><Placemark>
    <name>Bonstetten-Wettswil</name>
    <Style><LineStyle><width>2</width></LineStyle></Style>
    <Point>
      <extrude>1</extrude>
      <tesselate>0</tesselate>
      <altitudeMode>relativeToGround</altitudeMode>
      <coordinates>8.46817, 47.3259,20</coordinates>
    </Point>
  </Placemark><Placemark>
    <name>Hedingen</name>
    <Style><LineStyle><width>2</width></LineStyle></Style>
    <Point>
      <extrude>1</extrude>
      <tesselate>0</tesselate>
      <altitudeMode>relativeToGround</altitudeMode>
      <coordinates>8.44595, 47.2988,20</coordinates>
    </Point>
  </Placemark><Placemark>
    <name>Affoltern am Albis</name>
    <Style><LineStyle><width>2</width></LineStyle></Style>
    <Point>
      <extrude>1</extrude>
      <tesselate>0</tesselate>
      <altitudeMode>relativeToGround</altitudeMode>
      <coordinates>8.44658, 47.2761,20</coordinates>
    </Point>
  </Placemark><Placemark>
    <name>Affoltern a. A., Bahnhof</name>
    <Style><LineStyle><width>2</width></LineStyle></Style>
    <Point>
      <extrude>1</extrude>
      <tesselate>0</tesselate>
      <altitudeMode>relativeToGround</altitudeMode>
      <coordinates>8.4466, 47.2758,20</coordinates>
    </Point>
  </Placemark><Placemark>
    <name>Aeugst am Albis, Wängi</name>
    <Style><LineStyle><width>2</width></LineStyle></Style>
    <Point>
      <extrude>1</extrude>
      <tesselate>0</tesselate>
      <altitudeMode>relativeToGround</altitudeMode>
      <coordinates>8.47608, 47.2605,20</coordinates>
    </Point>
  </Placemark><Placemark>
    <name>Affoltern a. A., Sternen</name>
    <Style><LineStyle><width>2</width></LineStyle></Style>
    <Point>
      <extrude>1</extrude>
      <tesselate>0</tesselate>
      <altitudeMode>relativeToGround</altitudeMode>
      <coordinates>8.45459, 47.2771,20</coordinates>
    </Point>
  </Placemark><Placemark>
    <name>Bonstetten, Bruggenmatt</name>
    <Style><LineStyle><width>2</width></LineStyle></Style>
    <Point>
      <extrude>1</extrude>
      <tesselate>0</tesselate>
      <altitudeMode>relativeToGround</altitudeMode>
      <coordinates>8.47446, 47.326,20</coordinates>
    </Point>
  </Placemark><Placemark>
    <name>Bonstetten, Eiacher</name>
    <Style><LineStyle><width>2</width></LineStyle></Style>
    <Point>
      <extrude>1</extrude>
      <tesselate>0</tesselate>
      <altitudeMode>relativeToGround</altitudeMode>
      <coordinates>8.46432, 47.3151,20</coordinates>
    </Point>
  </Placemark><Placemark>
    <name>Bonstetten, Rüti</name>
    <Style><LineStyle><width>2</width></LineStyle></Style>
    <Point>
      <extrude>1</extrude>
      <tesselate>0</tesselate>
      <altitudeMode>relativeToGround</altitudeMode>
      <coordinates>8.47584, 47.316,20</coordinates>
    </Point>
  </Placemark><Placemark>
    <name>Bonstetten, Sunnenberg</name>
    <Style><LineStyle><width>2</width></LineStyle></Style>
    <Point>
      <extrude>1</extrude>
      <tesselate>0</tesselate>
      <altitudeMode>relativeToGround</altitudeMode>
      <coordinates>8.47339, 47.3125,20</coordinates>
    </Point>
  </Placemark><Placemark>
    <name>Langnau am Albis,Oberrenggstr.</name>
    <Style><LineStyle><width>2</width></LineStyle></Style>
    <Point>
      <extrude>1</extrude>
      <tesselate>0</tesselate>
      <altitudeMode>relativeToGround</altitudeMode>
      <coordinates>8.52873, 47.284,20</coordinates>
    </Point>
  </Placemark><Placemark>
    <name>Felsenegg</name>
    <Style><LineStyle><width>2</width></LineStyle></Style>
    <Point>
      <extrude>1</extrude>
      <tesselate>0</tesselate>
      <altitudeMode>relativeToGround</altitudeMode>
      <coordinates>8.50742, 47.3101,20</coordinates>
    </Point>
  </Placemark></Document>
</kml>
