<kml>
<Document>

<Region>
<LatLonAltBox>
<north>47.326450</north><south>47.293328</south><east>8.762009</east><west>8.685874</west>
<minAltitude>0.000000</minAltitude><maxAltitude>0.000000</maxAltitude>
</LatLonAltBox>
<minLodPixels>2048</minLodPixels><maxLodPixels>1000000000</maxLodPixels>
<minFadeExtent>0</minFadeExtent><maxFadeExtent>0</maxFadeExtent>
</Region>
<Placemark>
    <name>Egg</name>
    <Style><LineStyle><width>2</width></LineStyle></Style>
    <Point>
      <extrude>1</extrude>
      <tesselate>0</tesselate>
      <altitudeMode>relativeToGround</altitudeMode>
      <coordinates>8.68961, 47.3015,20</coordinates>
    </Point>
  </Placemark><Placemark>
    <name>Langwies ZH</name>
    <Style><LineStyle><width>2</width></LineStyle></Style>
    <Point>
      <extrude>1</extrude>
      <tesselate>0</tesselate>
      <altitudeMode>relativeToGround</altitudeMode>
      <coordinates>8.69439, 47.2961,20</coordinates>
    </Point>
  </Placemark><Placemark>
    <name>Gossau ZH, Rigistrasse</name>
    <Style><LineStyle><width>2</width></LineStyle></Style>
    <Point>
      <extrude>1</extrude>
      <tesselate>0</tesselate>
      <altitudeMode>relativeToGround</altitudeMode>
      <coordinates>8.75891, 47.3114,20</coordinates>
    </Point>
  </Placemark><Placemark>
    <name>Mönchaltorf, Langenmatt</name>
    <Style><LineStyle><width>2</width></LineStyle></Style>
    <Point>
      <extrude>1</extrude>
      <tesselate>0</tesselate>
      <altitudeMode>relativeToGround</altitudeMode>
      <coordinates>8.72089, 47.3155,20</coordinates>
    </Point>
  </Placemark><Placemark>
    <name>Bertschikon (Gossau ZH)</name>
    <Style><LineStyle><width>2</width></LineStyle></Style>
    <Point>
      <extrude>1</extrude>
      <tesselate>0</tesselate>
      <altitudeMode>relativeToGround</altitudeMode>
      <coordinates>8.75757, 47.3206,20</coordinates>
    </Point>
  </Placemark><Placemark>
    <name>Mönchaltorf, Traube</name>
    <Style><LineStyle><width>2</width></LineStyle></Style>
    <Point>
      <extrude>1</extrude>
      <tesselate>0</tesselate>
      <altitudeMode>relativeToGround</altitudeMode>
      <coordinates>8.72151, 47.3086,20</coordinates>
    </Point>
  </Placemark><Placemark>
    <name>Mönchaltorf, Mönchhof</name>
    <Style><LineStyle><width>2</width></LineStyle></Style>
    <Point>
      <extrude>1</extrude>
      <tesselate>0</tesselate>
      <altitudeMode>relativeToGround</altitudeMode>
      <coordinates>8.72146, 47.3115,20</coordinates>
    </Point>
  </Placemark></Document>
</kml>
