<kml>
<Document>

<Region>
<LatLonAltBox>
<north>47.127719</north><south>47.061475</south><east>8.381331</east><west>8.229060</west>
<minAltitude>0.000000</minAltitude><maxAltitude>0.000000</maxAltitude>
</LatLonAltBox>
<minLodPixels>2048</minLodPixels><maxLodPixels>1000000000</maxLodPixels>
<minFadeExtent>0</minFadeExtent><maxFadeExtent>0</maxFadeExtent>
</Region>
<Placemark>
    <name>Emmenbrücke, Emmen Center</name>
    <Style><LineStyle><width>2</width></LineStyle></Style>
    <Point>
      <extrude>1</extrude>
      <tesselate>0</tesselate>
      <altitudeMode>relativeToGround</altitudeMode>
      <coordinates>8.28655, 47.0739,20</coordinates>
    </Point>
  </Placemark><Placemark>
    <name>Emmen, Kasernenstrasse</name>
    <Style><LineStyle><width>2</width></LineStyle></Style>
    <Point>
      <extrude>1</extrude>
      <tesselate>0</tesselate>
      <altitudeMode>relativeToGround</altitudeMode>
      <coordinates>8.29069, 47.0856,20</coordinates>
    </Point>
  </Placemark><Placemark>
    <name>Sandblatten</name>
    <Style><LineStyle><width>2</width></LineStyle></Style>
    <Point>
      <extrude>1</extrude>
      <tesselate>0</tesselate>
      <altitudeMode>relativeToGround</altitudeMode>
      <coordinates>8.24257, 47.1264,20</coordinates>
    </Point>
  </Placemark><Placemark>
    <name>Waldibrücke</name>
    <Style><LineStyle><width>2</width></LineStyle></Style>
    <Point>
      <extrude>1</extrude>
      <tesselate>0</tesselate>
      <altitudeMode>relativeToGround</altitudeMode>
      <coordinates>8.31969, 47.1079,20</coordinates>
    </Point>
  </Placemark><Placemark>
    <name>Rothenburg Dorf</name>
    <Style><LineStyle><width>2</width></LineStyle></Style>
    <Point>
      <extrude>1</extrude>
      <tesselate>0</tesselate>
      <altitudeMode>relativeToGround</altitudeMode>
      <coordinates>8.27318, 47.0909,20</coordinates>
    </Point>
  </Placemark><Placemark>
    <name>Emmenbrücke, Sprengi</name>
    <Style><LineStyle><width>2</width></LineStyle></Style>
    <Point>
      <extrude>1</extrude>
      <tesselate>0</tesselate>
      <altitudeMode>relativeToGround</altitudeMode>
      <coordinates>8.27185, 47.081,20</coordinates>
    </Point>
  </Placemark><Placemark>
    <name>Emmenbrücke, Sonnenplatz</name>
    <Style><LineStyle><width>2</width></LineStyle></Style>
    <Point>
      <extrude>1</extrude>
      <tesselate>0</tesselate>
      <altitudeMode>relativeToGround</altitudeMode>
      <coordinates>8.27572, 47.076,20</coordinates>
    </Point>
  </Placemark><Placemark>
    <name>Rothenburg Dorf, Bahnhof</name>
    <Style><LineStyle><width>2</width></LineStyle></Style>
    <Point>
      <extrude>1</extrude>
      <tesselate>0</tesselate>
      <altitudeMode>relativeToGround</altitudeMode>
      <coordinates>8.27365, 47.0911,20</coordinates>
    </Point>
  </Placemark><Placemark>
    <name>Emmenbrücke, Seetalplatz</name>
    <Style><LineStyle><width>2</width></LineStyle></Style>
    <Point>
      <extrude>1</extrude>
      <tesselate>0</tesselate>
      <altitudeMode>relativeToGround</altitudeMode>
      <coordinates>8.28018, 47.069,20</coordinates>
    </Point>
  </Placemark><Placemark>
    <name>Bertiswil</name>
    <Style><LineStyle><width>2</width></LineStyle></Style>
    <Point>
      <extrude>1</extrude>
      <tesselate>0</tesselate>
      <altitudeMode>relativeToGround</altitudeMode>
      <coordinates>8.26327, 47.101,20</coordinates>
    </Point>
  </Placemark><Placemark>
    <name>Ebikon, Schlössli</name>
    <Style><LineStyle><width>2</width></LineStyle></Style>
    <Point>
      <extrude>1</extrude>
      <tesselate>0</tesselate>
      <altitudeMode>relativeToGround</altitudeMode>
      <coordinates>8.33621, 47.0708,20</coordinates>
    </Point>
  </Placemark><Placemark>
    <name>Ebikon, Bühl</name>
    <Style><LineStyle><width>2</width></LineStyle></Style>
    <Point>
      <extrude>1</extrude>
      <tesselate>0</tesselate>
      <altitudeMode>relativeToGround</altitudeMode>
      <coordinates>8.3428, 47.0712,20</coordinates>
    </Point>
  </Placemark><Placemark>
    <name>Adligenswil, Stuben</name>
    <Style><LineStyle><width>2</width></LineStyle></Style>
    <Point>
      <extrude>1</extrude>
      <tesselate>0</tesselate>
      <altitudeMode>relativeToGround</altitudeMode>
      <coordinates>8.34973, 47.0725,20</coordinates>
    </Point>
  </Placemark><Placemark>
    <name>Adligenswil, Widspüel</name>
    <Style><LineStyle><width>2</width></LineStyle></Style>
    <Point>
      <extrude>1</extrude>
      <tesselate>0</tesselate>
      <altitudeMode>relativeToGround</altitudeMode>
      <coordinates>8.35995, 47.0735,20</coordinates>
    </Point>
  </Placemark><Placemark>
    <name>Adligenswil, Blatte</name>
    <Style><LineStyle><width>2</width></LineStyle></Style>
    <Point>
      <extrude>1</extrude>
      <tesselate>0</tesselate>
      <altitudeMode>relativeToGround</altitudeMode>
      <coordinates>8.36812, 47.0701,20</coordinates>
    </Point>
  </Placemark><Placemark>
    <name>Adligenswil, Sagi</name>
    <Style><LineStyle><width>2</width></LineStyle></Style>
    <Point>
      <extrude>1</extrude>
      <tesselate>0</tesselate>
      <altitudeMode>relativeToGround</altitudeMode>
      <coordinates>8.37802, 47.0712,20</coordinates>
    </Point>
  </Placemark><Placemark>
    <name>Buchrain, Tschann</name>
    <Style><LineStyle><width>2</width></LineStyle></Style>
    <Point>
      <extrude>1</extrude>
      <tesselate>0</tesselate>
      <altitudeMode>relativeToGround</altitudeMode>
      <coordinates>8.34616, 47.095,20</coordinates>
    </Point>
  </Placemark><Placemark>
    <name>Dierikon, Migros</name>
    <Style><LineStyle><width>2</width></LineStyle></Style>
    <Point>
      <extrude>1</extrude>
      <tesselate>0</tesselate>
      <altitudeMode>relativeToGround</altitudeMode>
      <coordinates>8.36328, 47.0949,20</coordinates>
    </Point>
  </Placemark><Placemark>
    <name>Dierikon, Dorf</name>
    <Style><LineStyle><width>2</width></LineStyle></Style>
    <Point>
      <extrude>1</extrude>
      <tesselate>0</tesselate>
      <altitudeMode>relativeToGround</altitudeMode>
      <coordinates>8.36726, 47.0964,20</coordinates>
    </Point>
  </Placemark><Placemark>
    <name>Perlen, Post</name>
    <Style><LineStyle><width>2</width></LineStyle></Style>
    <Point>
      <extrude>1</extrude>
      <tesselate>0</tesselate>
      <altitudeMode>relativeToGround</altitudeMode>
      <coordinates>8.3649, 47.112,20</coordinates>
    </Point>
  </Placemark><Placemark>
    <name>Ebikon, Schindler</name>
    <Style><LineStyle><width>2</width></LineStyle></Style>
    <Point>
      <extrude>1</extrude>
      <tesselate>0</tesselate>
      <altitudeMode>relativeToGround</altitudeMode>
      <coordinates>8.35131, 47.0878,20</coordinates>
    </Point>
  </Placemark><Placemark>
    <name>Inwil, Post</name>
    <Style><LineStyle><width>2</width></LineStyle></Style>
    <Point>
      <extrude>1</extrude>
      <tesselate>0</tesselate>
      <altitudeMode>relativeToGround</altitudeMode>
      <coordinates>8.34927, 47.1229,20</coordinates>
    </Point>
  </Placemark><Placemark>
    <name>Inwil, Pannerhof</name>
    <Style><LineStyle><width>2</width></LineStyle></Style>
    <Point>
      <extrude>1</extrude>
      <tesselate>0</tesselate>
      <altitudeMode>relativeToGround</altitudeMode>
      <coordinates>8.34629, 47.122,20</coordinates>
    </Point>
  </Placemark><Placemark>
    <name>Ebikon</name>
    <Style><LineStyle><width>2</width></LineStyle></Style>
    <Point>
      <extrude>1</extrude>
      <tesselate>0</tesselate>
      <altitudeMode>relativeToGround</altitudeMode>
      <coordinates>8.34235, 47.0843,20</coordinates>
    </Point>
  </Placemark><Placemark>
    <name>Eichenring</name>
    <Style><LineStyle><width>2</width></LineStyle></Style>
    <Point>
      <extrude>1</extrude>
      <tesselate>0</tesselate>
      <altitudeMode>relativeToGround</altitudeMode>
      <coordinates>8.26055, 47.0957,20</coordinates>
    </Point>
  </Placemark><Placemark>
    <name>Emmenbrücke, Emmenbaum</name>
    <Style><LineStyle><width>2</width></LineStyle></Style>
    <Point>
      <extrude>1</extrude>
      <tesselate>0</tesselate>
      <altitudeMode>relativeToGround</altitudeMode>
      <coordinates>8.27991, 47.0703,20</coordinates>
    </Point>
  </Placemark><Placemark>
    <name>Adligenswil, Chliäbnet</name>
    <Style><LineStyle><width>2</width></LineStyle></Style>
    <Point>
      <extrude>1</extrude>
      <tesselate>0</tesselate>
      <altitudeMode>relativeToGround</altitudeMode>
      <coordinates>8.38102, 47.0736,20</coordinates>
    </Point>
  </Placemark><Placemark>
    <name>Rothenburg</name>
    <Style><LineStyle><width>2</width></LineStyle></Style>
    <Point>
      <extrude>1</extrude>
      <tesselate>0</tesselate>
      <altitudeMode>relativeToGround</altitudeMode>
      <coordinates>8.24755, 47.0892,20</coordinates>
    </Point>
  </Placemark><Placemark>
    <name>Emmenbrücke</name>
    <Style><LineStyle><width>2</width></LineStyle></Style>
    <Point>
      <extrude>1</extrude>
      <tesselate>0</tesselate>
      <altitudeMode>relativeToGround</altitudeMode>
      <coordinates>8.28255, 47.0706,20</coordinates>
    </Point>
  </Placemark><Placemark>
    <name>Emmenbrücke Gersag</name>
    <Style><LineStyle><width>2</width></LineStyle></Style>
    <Point>
      <extrude>1</extrude>
      <tesselate>0</tesselate>
      <altitudeMode>relativeToGround</altitudeMode>
      <coordinates>8.2768, 47.0783,20</coordinates>
    </Point>
  </Placemark><Placemark>
    <name>Emmenbrücke, Holzhof</name>
    <Style><LineStyle><width>2</width></LineStyle></Style>
    <Point>
      <extrude>1</extrude>
      <tesselate>0</tesselate>
      <altitudeMode>relativeToGround</altitudeMode>
      <coordinates>8.23408, 47.0866,20</coordinates>
    </Point>
  </Placemark><Placemark>
    <name>Emmenbrücke, Strassenkreuz</name>
    <Style><LineStyle><width>2</width></LineStyle></Style>
    <Point>
      <extrude>1</extrude>
      <tesselate>0</tesselate>
      <altitudeMode>relativeToGround</altitudeMode>
      <coordinates>8.24588, 47.0832,20</coordinates>
    </Point>
  </Placemark><Placemark>
    <name>Emmenbrücke, Lohrensäge</name>
    <Style><LineStyle><width>2</width></LineStyle></Style>
    <Point>
      <extrude>1</extrude>
      <tesselate>0</tesselate>
      <altitudeMode>relativeToGround</altitudeMode>
      <coordinates>8.25277, 47.082,20</coordinates>
    </Point>
  </Placemark><Placemark>
    <name>Emmenbrücke, Riffig</name>
    <Style><LineStyle><width>2</width></LineStyle></Style>
    <Point>
      <extrude>1</extrude>
      <tesselate>0</tesselate>
      <altitudeMode>relativeToGround</altitudeMode>
      <coordinates>8.26691, 47.0806,20</coordinates>
    </Point>
  </Placemark><Placemark>
    <name>Längenbold</name>
    <Style><LineStyle><width>2</width></LineStyle></Style>
    <Point>
      <extrude>1</extrude>
      <tesselate>0</tesselate>
      <altitudeMode>relativeToGround</altitudeMode>
      <coordinates>8.3738, 47.1049,20</coordinates>
    </Point>
  </Placemark></Document>
</kml>
