<kml>
<Document>

<Region>
<LatLonAltBox>
<north>47.193962</north><south>47.127719</south><east>8.990416</east><west>8.838145</west>
<minAltitude>0.000000</minAltitude><maxAltitude>0.000000</maxAltitude>
</LatLonAltBox>
<minLodPixels>2048</minLodPixels><maxLodPixels>1000000000</maxLodPixels>
<minFadeExtent>0</minFadeExtent><maxFadeExtent>0</maxFadeExtent>
</Region>
<Placemark>
    <name>Tuggen, Holeneich</name>
    <Style><LineStyle><width>2</width></LineStyle></Style>
    <Point>
      <extrude>1</extrude>
      <tesselate>0</tesselate>
      <altitudeMode>relativeToGround</altitudeMode>
      <coordinates>8.9179, 47.1916,20</coordinates>
    </Point>
  </Placemark><Placemark>
    <name>Siebnen-Wangen, Bahnhof</name>
    <Style><LineStyle><width>2</width></LineStyle></Style>
    <Point>
      <extrude>1</extrude>
      <tesselate>0</tesselate>
      <altitudeMode>relativeToGround</altitudeMode>
      <coordinates>8.90083, 47.1826,20</coordinates>
    </Point>
  </Placemark><Placemark>
    <name>Siebnen, Mühle</name>
    <Style><LineStyle><width>2</width></LineStyle></Style>
    <Point>
      <extrude>1</extrude>
      <tesselate>0</tesselate>
      <altitudeMode>relativeToGround</altitudeMode>
      <coordinates>8.8992, 47.1712,20</coordinates>
    </Point>
  </Placemark><Placemark>
    <name>Reichenburg, Bahnhof</name>
    <Style><LineStyle><width>2</width></LineStyle></Style>
    <Point>
      <extrude>1</extrude>
      <tesselate>0</tesselate>
      <altitudeMode>relativeToGround</altitudeMode>
      <coordinates>8.98201, 47.1724,20</coordinates>
    </Point>
  </Placemark><Placemark>
    <name>Reichenburg, Allmeind</name>
    <Style><LineStyle><width>2</width></LineStyle></Style>
    <Point>
      <extrude>1</extrude>
      <tesselate>0</tesselate>
      <altitudeMode>relativeToGround</altitudeMode>
      <coordinates>8.98393, 47.1701,20</coordinates>
    </Point>
  </Placemark><Placemark>
    <name>Reichenburg, Kreuzwies</name>
    <Style><LineStyle><width>2</width></LineStyle></Style>
    <Point>
      <extrude>1</extrude>
      <tesselate>0</tesselate>
      <altitudeMode>relativeToGround</altitudeMode>
      <coordinates>8.97991, 47.1679,20</coordinates>
    </Point>
  </Placemark><Placemark>
    <name>Reichenburg, Dorf</name>
    <Style><LineStyle><width>2</width></LineStyle></Style>
    <Point>
      <extrude>1</extrude>
      <tesselate>0</tesselate>
      <altitudeMode>relativeToGround</altitudeMode>
      <coordinates>8.97567, 47.1695,20</coordinates>
    </Point>
  </Placemark><Placemark>
    <name>Reichenburg, Altersheim</name>
    <Style><LineStyle><width>2</width></LineStyle></Style>
    <Point>
      <extrude>1</extrude>
      <tesselate>0</tesselate>
      <altitudeMode>relativeToGround</altitudeMode>
      <coordinates>8.97405, 47.1707,20</coordinates>
    </Point>
  </Placemark><Placemark>
    <name>Tuggen, Mühlenen</name>
    <Style><LineStyle><width>2</width></LineStyle></Style>
    <Point>
      <extrude>1</extrude>
      <tesselate>0</tesselate>
      <altitudeMode>relativeToGround</altitudeMode>
      <coordinates>8.94371, 47.1849,20</coordinates>
    </Point>
  </Placemark><Placemark>
    <name>Lachen SZ, Fröschenzopf</name>
    <Style><LineStyle><width>2</width></LineStyle></Style>
    <Point>
      <extrude>1</extrude>
      <tesselate>0</tesselate>
      <altitudeMode>relativeToGround</altitudeMode>
      <coordinates>8.85523, 47.1924,20</coordinates>
    </Point>
  </Placemark><Placemark>
    <name>Schübelbach, Oberhöfli</name>
    <Style><LineStyle><width>2</width></LineStyle></Style>
    <Point>
      <extrude>1</extrude>
      <tesselate>0</tesselate>
      <altitudeMode>relativeToGround</altitudeMode>
      <coordinates>8.91978, 47.1759,20</coordinates>
    </Point>
  </Placemark><Placemark>
    <name>Siebnen, Bettnau</name>
    <Style><LineStyle><width>2</width></LineStyle></Style>
    <Point>
      <extrude>1</extrude>
      <tesselate>0</tesselate>
      <altitudeMode>relativeToGround</altitudeMode>
      <coordinates>8.91021, 47.176,20</coordinates>
    </Point>
  </Placemark><Placemark>
    <name>Siebnen, Neudörfli</name>
    <Style><LineStyle><width>2</width></LineStyle></Style>
    <Point>
      <extrude>1</extrude>
      <tesselate>0</tesselate>
      <altitudeMode>relativeToGround</altitudeMode>
      <coordinates>8.90427, 47.1759,20</coordinates>
    </Point>
  </Placemark><Placemark>
    <name>Siebnen, Schorenstrasse</name>
    <Style><LineStyle><width>2</width></LineStyle></Style>
    <Point>
      <extrude>1</extrude>
      <tesselate>0</tesselate>
      <altitudeMode>relativeToGround</altitudeMode>
      <coordinates>8.89501, 47.1751,20</coordinates>
    </Point>
  </Placemark><Placemark>
    <name>Galgenen, Diga</name>
    <Style><LineStyle><width>2</width></LineStyle></Style>
    <Point>
      <extrude>1</extrude>
      <tesselate>0</tesselate>
      <altitudeMode>relativeToGround</altitudeMode>
      <coordinates>8.86725, 47.1853,20</coordinates>
    </Point>
  </Placemark><Placemark>
    <name>Lachen SZ, Spital</name>
    <Style><LineStyle><width>2</width></LineStyle></Style>
    <Point>
      <extrude>1</extrude>
      <tesselate>0</tesselate>
      <altitudeMode>relativeToGround</altitudeMode>
      <coordinates>8.85843, 47.1883,20</coordinates>
    </Point>
  </Placemark><Placemark>
    <name>Schübelbach, Gramatt</name>
    <Style><LineStyle><width>2</width></LineStyle></Style>
    <Point>
      <extrude>1</extrude>
      <tesselate>0</tesselate>
      <altitudeMode>relativeToGround</altitudeMode>
      <coordinates>8.93457, 47.1743,20</coordinates>
    </Point>
  </Placemark><Placemark>
    <name>Schübelbach, West</name>
    <Style><LineStyle><width>2</width></LineStyle></Style>
    <Point>
      <extrude>1</extrude>
      <tesselate>0</tesselate>
      <altitudeMode>relativeToGround</altitudeMode>
      <coordinates>8.92373, 47.1756,20</coordinates>
    </Point>
  </Placemark><Placemark>
    <name>Vorderthal, Gfell</name>
    <Style><LineStyle><width>2</width></LineStyle></Style>
    <Point>
      <extrude>1</extrude>
      <tesselate>0</tesselate>
      <altitudeMode>relativeToGround</altitudeMode>
      <coordinates>8.89677, 47.1546,20</coordinates>
    </Point>
  </Placemark><Placemark>
    <name>Galgenen, Engel</name>
    <Style><LineStyle><width>2</width></LineStyle></Style>
    <Point>
      <extrude>1</extrude>
      <tesselate>0</tesselate>
      <altitudeMode>relativeToGround</altitudeMode>
      <coordinates>8.87411, 47.1825,20</coordinates>
    </Point>
  </Placemark><Placemark>
    <name>Siebnen, Stegweg</name>
    <Style><LineStyle><width>2</width></LineStyle></Style>
    <Point>
      <extrude>1</extrude>
      <tesselate>0</tesselate>
      <altitudeMode>relativeToGround</altitudeMode>
      <coordinates>8.88947, 47.1774,20</coordinates>
    </Point>
  </Placemark><Placemark>
    <name>Vorderthal, Flühbödeli</name>
    <Style><LineStyle><width>2</width></LineStyle></Style>
    <Point>
      <extrude>1</extrude>
      <tesselate>0</tesselate>
      <altitudeMode>relativeToGround</altitudeMode>
      <coordinates>8.89619, 47.1456,20</coordinates>
    </Point>
  </Placemark></Document>
</kml>
