<kml>
<Document>

<Region>
<LatLonAltBox>
<north>47.127719</north><south>47.061475</south><east>9.447230</east><west>9.294959</west>
<minAltitude>0.000000</minAltitude><maxAltitude>0.000000</maxAltitude>
</LatLonAltBox>
<minLodPixels>2048</minLodPixels><maxLodPixels>1000000000</maxLodPixels>
<minFadeExtent>0</minFadeExtent><maxFadeExtent>0</maxFadeExtent>
</Region>
<Placemark>
    <name>Walenstadt, Post</name>
    <Style><LineStyle><width>2</width></LineStyle></Style>
    <Point>
      <extrude>1</extrude>
      <tesselate>0</tesselate>
      <altitudeMode>relativeToGround</altitudeMode>
      <coordinates>9.31408, 47.1229,20</coordinates>
    </Point>
  </Placemark><Placemark>
    <name>Flumserberg Saxli, Stegen</name>
    <Style><LineStyle><width>2</width></LineStyle></Style>
    <Point>
      <extrude>1</extrude>
      <tesselate>0</tesselate>
      <altitudeMode>relativeToGround</altitudeMode>
      <coordinates>9.34582, 47.0794,20</coordinates>
    </Point>
  </Placemark><Placemark>
    <name>Flumserberg Saxli, Hof</name>
    <Style><LineStyle><width>2</width></LineStyle></Style>
    <Point>
      <extrude>1</extrude>
      <tesselate>0</tesselate>
      <altitudeMode>relativeToGround</altitudeMode>
      <coordinates>9.33985, 47.0784,20</coordinates>
    </Point>
  </Placemark><Placemark>
    <name>Berschis, Lindenplatz</name>
    <Style><LineStyle><width>2</width></LineStyle></Style>
    <Point>
      <extrude>1</extrude>
      <tesselate>0</tesselate>
      <altitudeMode>relativeToGround</altitudeMode>
      <coordinates>9.34642, 47.1057,20</coordinates>
    </Point>
  </Placemark><Placemark>
    <name>Flums, Oberstufenzentrum</name>
    <Style><LineStyle><width>2</width></LineStyle></Style>
    <Point>
      <extrude>1</extrude>
      <tesselate>0</tesselate>
      <altitudeMode>relativeToGround</altitudeMode>
      <coordinates>9.34461, 47.0918,20</coordinates>
    </Point>
  </Placemark></Document>
</kml>
