<kml>
<Document>

<Region>
<LatLonAltBox>
<north>47.061475</north><south>46.796500</south><east>8.838145</east><west>8.229060</west>
<minAltitude>0.000000</minAltitude><maxAltitude>0.000000</maxAltitude>
</LatLonAltBox>
<minLodPixels>2048</minLodPixels><maxLodPixels>1000000000</maxLodPixels>
<minFadeExtent>0</minFadeExtent><maxFadeExtent>0</maxFadeExtent>
</Region>
<NetworkLink>
<name>01220</name>

<Region>
<LatLonAltBox>
<north>47.061475</north><south>46.928988</south><east>8.533603</east><west>8.229060</west>
<minAltitude>0.000000</minAltitude><maxAltitude>0.000000</maxAltitude>
</LatLonAltBox>
<minLodPixels>256</minLodPixels><maxLodPixels>1000000000</maxLodPixels>
<minFadeExtent>0</minFadeExtent><maxFadeExtent>0</maxFadeExtent>
</Region>
<Link>
<href>01220.kml</href><viewRefreshMode>onRegion</viewRefreshMode></Link>
</NetworkLink>
<NetworkLink>
<name>01221</name>

<Region>
<LatLonAltBox>
<north>47.061475</north><south>46.928988</south><east>8.838145</east><west>8.533603</west>
<minAltitude>0.000000</minAltitude><maxAltitude>0.000000</maxAltitude>
</LatLonAltBox>
<minLodPixels>256</minLodPixels><maxLodPixels>1000000000</maxLodPixels>
<minFadeExtent>0</minFadeExtent><maxFadeExtent>0</maxFadeExtent>
</Region>
<Link>
<href>01221.kml</href><viewRefreshMode>onRegion</viewRefreshMode></Link>
</NetworkLink>
<NetworkLink>
<name>01222</name>

<Region>
<LatLonAltBox>
<north>46.928988</north><south>46.796500</south><east>8.533603</east><west>8.229060</west>
<minAltitude>0.000000</minAltitude><maxAltitude>0.000000</maxAltitude>
</LatLonAltBox>
<minLodPixels>256</minLodPixels><maxLodPixels>1000000000</maxLodPixels>
<minFadeExtent>0</minFadeExtent><maxFadeExtent>0</maxFadeExtent>
</Region>
<Link>
<href>01222.kml</href><viewRefreshMode>onRegion</viewRefreshMode></Link>
</NetworkLink>
<NetworkLink>
<name>01223</name>

<Region>
<LatLonAltBox>
<north>46.928988</north><south>46.796500</south><east>8.838145</east><west>8.533603</west>
<minAltitude>0.000000</minAltitude><maxAltitude>0.000000</maxAltitude>
</LatLonAltBox>
<minLodPixels>256</minLodPixels><maxLodPixels>1000000000</maxLodPixels>
<minFadeExtent>0</minFadeExtent><maxFadeExtent>0</maxFadeExtent>
</Region>
<Link>
<href>01223.kml</href><viewRefreshMode>onRegion</viewRefreshMode></Link>
</NetworkLink>
<Placemark>
    <name>Greppen, Oberhaus</name>
    <Style><LineStyle><width>2</width></LineStyle></Style>
    <Point>
      <extrude>1</extrude>
      <tesselate>0</tesselate>
      <altitudeMode>relativeToGround</altitudeMode>
      <coordinates>8.42975, 47.0565,20</coordinates>
    </Point>
  </Placemark><Placemark>
    <name>Attinghausen, Seilbahn</name>
    <Style><LineStyle><width>2</width></LineStyle></Style>
    <Point>
      <extrude>1</extrude>
      <tesselate>0</tesselate>
      <altitudeMode>relativeToGround</altitudeMode>
      <coordinates>8.62814, 46.8612,20</coordinates>
    </Point>
  </Placemark><Placemark>
    <name>Spiringen, Witerschwanden</name>
    <Style><LineStyle><width>2</width></LineStyle></Style>
    <Point>
      <extrude>1</extrude>
      <tesselate>0</tesselate>
      <altitudeMode>relativeToGround</altitudeMode>
      <coordinates>8.71178, 46.8763,20</coordinates>
    </Point>
  </Placemark><Placemark>
    <name>Niederrickenbach Dorf</name>
    <Style><LineStyle><width>2</width></LineStyle></Style>
    <Point>
      <extrude>1</extrude>
      <tesselate>0</tesselate>
      <altitudeMode>relativeToGround</altitudeMode>
      <coordinates>8.42697, 46.9297,20</coordinates>
    </Point>
  </Placemark><Placemark>
    <name>Klewenalp</name>
    <Style><LineStyle><width>2</width></LineStyle></Style>
    <Point>
      <extrude>1</extrude>
      <tesselate>0</tesselate>
      <altitudeMode>relativeToGround</altitudeMode>
      <coordinates>8.47297, 46.9404,20</coordinates>
    </Point>
  </Placemark><Placemark>
    <name>Stockhütte</name>
    <Style><LineStyle><width>2</width></LineStyle></Style>
    <Point>
      <extrude>1</extrude>
      <tesselate>0</tesselate>
      <altitudeMode>relativeToGround</altitudeMode>
      <coordinates>8.5052, 46.9452,20</coordinates>
    </Point>
  </Placemark><Placemark>
    <name>Luzern Bahnhofquai</name>
    <Style><LineStyle><width>2</width></LineStyle></Style>
    <Point>
      <extrude>1</extrude>
      <tesselate>0</tesselate>
      <altitudeMode>relativeToGround</altitudeMode>
      <coordinates>8.31016, 47.0512,20</coordinates>
    </Point>
  </Placemark><Placemark>
    <name>Bürgenstock</name>
    <Style><LineStyle><width>2</width></LineStyle></Style>
    <Point>
      <extrude>1</extrude>
      <tesselate>0</tesselate>
      <altitudeMode>relativeToGround</altitudeMode>
      <coordinates>8.37887, 46.9972,20</coordinates>
    </Point>
  </Placemark><Placemark>
    <name>Kehrsiten-Bürgenstock BB</name>
    <Style><LineStyle><width>2</width></LineStyle></Style>
    <Point>
      <extrude>1</extrude>
      <tesselate>0</tesselate>
      <altitudeMode>relativeToGround</altitudeMode>
      <coordinates>8.38238, 47.0029,20</coordinates>
    </Point>
  </Placemark><Placemark>
    <name>Beckenried, Hungacher</name>
    <Style><LineStyle><width>2</width></LineStyle></Style>
    <Point>
      <extrude>1</extrude>
      <tesselate>0</tesselate>
      <altitudeMode>relativeToGround</altitudeMode>
      <coordinates>8.4653, 46.971,20</coordinates>
    </Point>
  </Placemark><Placemark>
    <name>Flüeli-Ranft, St. Dorothea</name>
    <Style><LineStyle><width>2</width></LineStyle></Style>
    <Point>
      <extrude>1</extrude>
      <tesselate>0</tesselate>
      <altitudeMode>relativeToGround</altitudeMode>
      <coordinates>8.26864, 46.8739,20</coordinates>
    </Point>
  </Placemark><Placemark>
    <name>Flüeli-Ranft, Z'Mos</name>
    <Style><LineStyle><width>2</width></LineStyle></Style>
    <Point>
      <extrude>1</extrude>
      <tesselate>0</tesselate>
      <altitudeMode>relativeToGround</altitudeMode>
      <coordinates>8.26506, 46.8752,20</coordinates>
    </Point>
  </Placemark><Placemark>
    <name>Sachseln, Dorf</name>
    <Style><LineStyle><width>2</width></LineStyle></Style>
    <Point>
      <extrude>1</extrude>
      <tesselate>0</tesselate>
      <altitudeMode>relativeToGround</altitudeMode>
      <coordinates>8.23905, 46.8687,20</coordinates>
    </Point>
  </Placemark><Placemark>
    <name>Flüeli-Ranft, Kehrwäldli</name>
    <Style><LineStyle><width>2</width></LineStyle></Style>
    <Point>
      <extrude>1</extrude>
      <tesselate>0</tesselate>
      <altitudeMode>relativeToGround</altitudeMode>
      <coordinates>8.25621, 46.8755,20</coordinates>
    </Point>
  </Placemark><Placemark>
    <name>Flüeli-Ranft, Chilchweg</name>
    <Style><LineStyle><width>2</width></LineStyle></Style>
    <Point>
      <extrude>1</extrude>
      <tesselate>0</tesselate>
      <altitudeMode>relativeToGround</altitudeMode>
      <coordinates>8.24858, 46.8702,20</coordinates>
    </Point>
  </Placemark><Placemark>
    <name>Sachseln, Felsenheim</name>
    <Style><LineStyle><width>2</width></LineStyle></Style>
    <Point>
      <extrude>1</extrude>
      <tesselate>0</tesselate>
      <altitudeMode>relativeToGround</altitudeMode>
      <coordinates>8.24528, 46.8682,20</coordinates>
    </Point>
  </Placemark><Placemark>
    <name>Sachseln, Steinen</name>
    <Style><LineStyle><width>2</width></LineStyle></Style>
    <Point>
      <extrude>1</extrude>
      <tesselate>0</tesselate>
      <altitudeMode>relativeToGround</altitudeMode>
      <coordinates>8.23867, 46.8651,20</coordinates>
    </Point>
  </Placemark><Placemark>
    <name>Kerns, Foribach</name>
    <Style><LineStyle><width>2</width></LineStyle></Style>
    <Point>
      <extrude>1</extrude>
      <tesselate>0</tesselate>
      <altitudeMode>relativeToGround</altitudeMode>
      <coordinates>8.2595, 46.898,20</coordinates>
    </Point>
  </Placemark><Placemark>
    <name>Oberrickenbach, alte Post</name>
    <Style><LineStyle><width>2</width></LineStyle></Style>
    <Point>
      <extrude>1</extrude>
      <tesselate>0</tesselate>
      <altitudeMode>relativeToGround</altitudeMode>
      <coordinates>8.41779, 46.888,20</coordinates>
    </Point>
  </Placemark><Placemark>
    <name>Buochs, Motel Postillion</name>
    <Style><LineStyle><width>2</width></LineStyle></Style>
    <Point>
      <extrude>1</extrude>
      <tesselate>0</tesselate>
      <altitudeMode>relativeToGround</altitudeMode>
      <coordinates>8.44102, 46.9728,20</coordinates>
    </Point>
  </Placemark><Placemark>
    <name>Beckenried, Nidwaldnerhof</name>
    <Style><LineStyle><width>2</width></LineStyle></Style>
    <Point>
      <extrude>1</extrude>
      <tesselate>0</tesselate>
      <altitudeMode>relativeToGround</altitudeMode>
      <coordinates>8.47119, 46.9694,20</coordinates>
    </Point>
  </Placemark><Placemark>
    <name>Ennetmoos, Riedmatthof</name>
    <Style><LineStyle><width>2</width></LineStyle></Style>
    <Point>
      <extrude>1</extrude>
      <tesselate>0</tesselate>
      <altitudeMode>relativeToGround</altitudeMode>
      <coordinates>8.33128, 46.9526,20</coordinates>
    </Point>
  </Placemark><Placemark>
    <name>Weglosen LWS</name>
    <Style><LineStyle><width>2</width></LineStyle></Style>
    <Point>
      <extrude>1</extrude>
      <tesselate>0</tesselate>
      <altitudeMode>relativeToGround</altitudeMode>
      <coordinates>8.80896, 47.0201,20</coordinates>
    </Point>
  </Placemark><Placemark>
    <name>Holzegg</name>
    <Style><LineStyle><width>2</width></LineStyle></Style>
    <Point>
      <extrude>1</extrude>
      <tesselate>0</tesselate>
      <altitudeMode>relativeToGround</altitudeMode>
      <coordinates>8.69839, 47.0288,20</coordinates>
    </Point>
  </Placemark><Placemark>
    <name>Brunni SZ LBH</name>
    <Style><LineStyle><width>2</width></LineStyle></Style>
    <Point>
      <extrude>1</extrude>
      <tesselate>0</tesselate>
      <altitudeMode>relativeToGround</altitudeMode>
      <coordinates>8.70309, 47.042,20</coordinates>
    </Point>
  </Placemark><Placemark>
    <name>Kehrsiten, Hostatt</name>
    <Style><LineStyle><width>2</width></LineStyle></Style>
    <Point>
      <extrude>1</extrude>
      <tesselate>0</tesselate>
      <altitudeMode>relativeToGround</altitudeMode>
      <coordinates>8.37089, 47.0022,20</coordinates>
    </Point>
  </Placemark><Placemark>
    <name>Kriens, Alpenstrasse</name>
    <Style><LineStyle><width>2</width></LineStyle></Style>
    <Point>
      <extrude>1</extrude>
      <tesselate>0</tesselate>
      <altitudeMode>relativeToGround</altitudeMode>
      <coordinates>8.28923, 47.0352,20</coordinates>
    </Point>
  </Placemark><Placemark>
    <name>Kerns, Post</name>
    <Style><LineStyle><width>2</width></LineStyle></Style>
    <Point>
      <extrude>1</extrude>
      <tesselate>0</tesselate>
      <altitudeMode>relativeToGround</altitudeMode>
      <coordinates>8.27464, 46.901,20</coordinates>
    </Point>
  </Placemark><Placemark>
    <name>Engelberg KlEF</name>
    <Style><LineStyle><width>2</width></LineStyle></Style>
    <Point>
      <extrude>1</extrude>
      <tesselate>0</tesselate>
      <altitudeMode>relativeToGround</altitudeMode>
      <coordinates>8.44923, 46.8017,20</coordinates>
    </Point>
  </Placemark><Placemark>
    <name>Bürgenstock, Hotels</name>
    <Style><LineStyle><width>2</width></LineStyle></Style>
    <Point>
      <extrude>1</extrude>
      <tesselate>0</tesselate>
      <altitudeMode>relativeToGround</altitudeMode>
      <coordinates>8.38625, 46.9971,20</coordinates>
    </Point>
  </Placemark><Placemark>
    <name>Gersau, Gschwänd Seilbahn</name>
    <Style><LineStyle><width>2</width></LineStyle></Style>
    <Point>
      <extrude>1</extrude>
      <tesselate>0</tesselate>
      <altitudeMode>relativeToGround</altitudeMode>
      <coordinates>8.54074, 47.0128,20</coordinates>
    </Point>
  </Placemark><Placemark>
    <name>Gersau Gschwänd</name>
    <Style><LineStyle><width>2</width></LineStyle></Style>
    <Point>
      <extrude>1</extrude>
      <tesselate>0</tesselate>
      <altitudeMode>relativeToGround</altitudeMode>
      <coordinates>8.54318, 47.0144,20</coordinates>
    </Point>
  </Placemark><Placemark>
    <name>Burggeist (Rigi Scheidegg)</name>
    <Style><LineStyle><width>2</width></LineStyle></Style>
    <Point>
      <extrude>1</extrude>
      <tesselate>0</tesselate>
      <altitudeMode>relativeToGround</altitudeMode>
      <coordinates>8.52487, 47.0252,20</coordinates>
    </Point>
  </Placemark><Placemark>
    <name>Brügg (Bürglen UR) KlBBK</name>
    <Style><LineStyle><width>2</width></LineStyle></Style>
    <Point>
      <extrude>1</extrude>
      <tesselate>0</tesselate>
      <altitudeMode>relativeToGround</altitudeMode>
      <coordinates>8.68206, 46.8772,20</coordinates>
    </Point>
  </Placemark><Placemark>
    <name>Eggberge</name>
    <Style><LineStyle><width>2</width></LineStyle></Style>
    <Point>
      <extrude>1</extrude>
      <tesselate>0</tesselate>
      <altitudeMode>relativeToGround</altitudeMode>
      <coordinates>8.64463, 46.9016,20</coordinates>
    </Point>
  </Placemark><Placemark>
    <name>Biel (Kinzig)</name>
    <Style><LineStyle><width>2</width></LineStyle></Style>
    <Point>
      <extrude>1</extrude>
      <tesselate>0</tesselate>
      <altitudeMode>relativeToGround</altitudeMode>
      <coordinates>8.70887, 46.8954,20</coordinates>
    </Point>
  </Placemark><Placemark>
    <name>Haldi</name>
    <Style><LineStyle><width>2</width></LineStyle></Style>
    <Point>
      <extrude>1</extrude>
      <tesselate>0</tesselate>
      <altitudeMode>relativeToGround</altitudeMode>
      <coordinates>8.67033, 46.8643,20</coordinates>
    </Point>
  </Placemark><Placemark>
    <name>Schattdorf LSH</name>
    <Style><LineStyle><width>2</width></LineStyle></Style>
    <Point>
      <extrude>1</extrude>
      <tesselate>0</tesselate>
      <altitudeMode>relativeToGround</altitudeMode>
      <coordinates>8.65565, 46.8654,20</coordinates>
    </Point>
  </Placemark><Placemark>
    <name>Schwarzenbach (Bisistal)</name>
    <Style><LineStyle><width>2</width></LineStyle></Style>
    <Point>
      <extrude>1</extrude>
      <tesselate>0</tesselate>
      <altitudeMode>relativeToGround</altitudeMode>
      <coordinates>8.83343, 46.9381,20</coordinates>
    </Point>
  </Placemark><Placemark>
    <name>Alpthal, Stei</name>
    <Style><LineStyle><width>2</width></LineStyle></Style>
    <Point>
      <extrude>1</extrude>
      <tesselate>0</tesselate>
      <altitudeMode>relativeToGround</altitudeMode>
      <coordinates>8.71011, 47.0556,20</coordinates>
    </Point>
  </Placemark><Placemark>
    <name>Oberdorf NW, Wilrank</name>
    <Style><LineStyle><width>2</width></LineStyle></Style>
    <Point>
      <extrude>1</extrude>
      <tesselate>0</tesselate>
      <altitudeMode>relativeToGround</altitudeMode>
      <coordinates>8.377, 46.9567,20</coordinates>
    </Point>
  </Placemark><Placemark>
    <name>Oberdorf NW, Kaserne</name>
    <Style><LineStyle><width>2</width></LineStyle></Style>
    <Point>
      <extrude>1</extrude>
      <tesselate>0</tesselate>
      <altitudeMode>relativeToGround</altitudeMode>
      <coordinates>8.38689, 46.9584,20</coordinates>
    </Point>
  </Placemark><Placemark>
    <name>Büren NW, Mühleplatz</name>
    <Style><LineStyle><width>2</width></LineStyle></Style>
    <Point>
      <extrude>1</extrude>
      <tesselate>0</tesselate>
      <altitudeMode>relativeToGround</altitudeMode>
      <coordinates>8.39705, 46.9388,20</coordinates>
    </Point>
  </Placemark><Placemark>
    <name>Sarnen, Bitzighofen</name>
    <Style><LineStyle><width>2</width></LineStyle></Style>
    <Point>
      <extrude>1</extrude>
      <tesselate>0</tesselate>
      <altitudeMode>relativeToGround</altitudeMode>
      <coordinates>8.24742, 46.9021,20</coordinates>
    </Point>
  </Placemark><Placemark>
    <name>Steinerberg, Dorf</name>
    <Style><LineStyle><width>2</width></LineStyle></Style>
    <Point>
      <extrude>1</extrude>
      <tesselate>0</tesselate>
      <altitudeMode>relativeToGround</altitudeMode>
      <coordinates>8.58637, 47.0551,20</coordinates>
    </Point>
  </Placemark><Placemark>
    <name>Meggen SGV</name>
    <Style><LineStyle><width>2</width></LineStyle></Style>
    <Point>
      <extrude>1</extrude>
      <tesselate>0</tesselate>
      <altitudeMode>relativeToGround</altitudeMode>
      <coordinates>8.37939, 47.0446,20</coordinates>
    </Point>
  </Placemark><Placemark>
    <name>Hermitage</name>
    <Style><LineStyle><width>2</width></LineStyle></Style>
    <Point>
      <extrude>1</extrude>
      <tesselate>0</tesselate>
      <altitudeMode>relativeToGround</altitudeMode>
      <coordinates>8.34971, 47.0425,20</coordinates>
    </Point>
  </Placemark><Placemark>
    <name>Kehrsiten Dorf</name>
    <Style><LineStyle><width>2</width></LineStyle></Style>
    <Point>
      <extrude>1</extrude>
      <tesselate>0</tesselate>
      <altitudeMode>relativeToGround</altitudeMode>
      <coordinates>8.36584, 47.0004,20</coordinates>
    </Point>
  </Placemark><Placemark>
    <name>Hergiswil SGV</name>
    <Style><LineStyle><width>2</width></LineStyle></Style>
    <Point>
      <extrude>1</extrude>
      <tesselate>0</tesselate>
      <altitudeMode>relativeToGround</altitudeMode>
      <coordinates>8.3125, 46.9846,20</coordinates>
    </Point>
  </Placemark></Document>
</kml>
