<kml>
<Document>

<Region>
<LatLonAltBox>
<north>47.061475</north><south>46.995231</south><east>8.533603</east><west>8.381331</west>
<minAltitude>0.000000</minAltitude><maxAltitude>0.000000</maxAltitude>
</LatLonAltBox>
<minLodPixels>2048</minLodPixels><maxLodPixels>1000000000</maxLodPixels>
<minFadeExtent>0</minFadeExtent><maxFadeExtent>0</maxFadeExtent>
</Region>
<Placemark>
    <name>Greppen</name>
    <Style><LineStyle><width>2</width></LineStyle></Style>
    <Point>
      <extrude>1</extrude>
      <tesselate>0</tesselate>
      <altitudeMode>relativeToGround</altitudeMode>
      <coordinates>8.42684, 47.0562,20</coordinates>
    </Point>
  </Placemark><Placemark>
    <name>Kehrsiten-Bürgenstock</name>
    <Style><LineStyle><width>2</width></LineStyle></Style>
    <Point>
      <extrude>1</extrude>
      <tesselate>0</tesselate>
      <altitudeMode>relativeToGround</altitudeMode>
      <coordinates>8.38232, 47.0031,20</coordinates>
    </Point>
  </Placemark><Placemark>
    <name>Gersau, Brand</name>
    <Style><LineStyle><width>2</width></LineStyle></Style>
    <Point>
      <extrude>1</extrude>
      <tesselate>0</tesselate>
      <altitudeMode>relativeToGround</altitudeMode>
      <coordinates>8.52832, 47.002,20</coordinates>
    </Point>
  </Placemark><Placemark>
    <name>Weggis, Schiffstation</name>
    <Style><LineStyle><width>2</width></LineStyle></Style>
    <Point>
      <extrude>1</extrude>
      <tesselate>0</tesselate>
      <altitudeMode>relativeToGround</altitudeMode>
      <coordinates>8.43324, 47.0313,20</coordinates>
    </Point>
  </Placemark><Placemark>
    <name>Weggis RB/LWRK</name>
    <Style><LineStyle><width>2</width></LineStyle></Style>
    <Point>
      <extrude>1</extrude>
      <tesselate>0</tesselate>
      <altitudeMode>relativeToGround</altitudeMode>
      <coordinates>8.44073, 47.0341,20</coordinates>
    </Point>
  </Placemark><Placemark>
    <name>Weggis</name>
    <Style><LineStyle><width>2</width></LineStyle></Style>
    <Point>
      <extrude>1</extrude>
      <tesselate>0</tesselate>
      <altitudeMode>relativeToGround</altitudeMode>
      <coordinates>8.43322, 47.0314,20</coordinates>
    </Point>
  </Placemark><Placemark>
    <name>Meggen, Tschädigen</name>
    <Style><LineStyle><width>2</width></LineStyle></Style>
    <Point>
      <extrude>1</extrude>
      <tesselate>0</tesselate>
      <altitudeMode>relativeToGround</altitudeMode>
      <coordinates>8.38509, 47.0614,20</coordinates>
    </Point>
  </Placemark><Placemark>
    <name>Rigi Kaltbad</name>
    <Style><LineStyle><width>2</width></LineStyle></Style>
    <Point>
      <extrude>1</extrude>
      <tesselate>0</tesselate>
      <altitudeMode>relativeToGround</altitudeMode>
      <coordinates>8.46495, 47.0433,20</coordinates>
    </Point>
  </Placemark><Placemark>
    <name>Kräbel LKR</name>
    <Style><LineStyle><width>2</width></LineStyle></Style>
    <Point>
      <extrude>1</extrude>
      <tesselate>0</tesselate>
      <altitudeMode>relativeToGround</altitudeMode>
      <coordinates>8.52946, 47.0404,20</coordinates>
    </Point>
  </Placemark><Placemark>
    <name>Obbürgen, Moos</name>
    <Style><LineStyle><width>2</width></LineStyle></Style>
    <Point>
      <extrude>1</extrude>
      <tesselate>0</tesselate>
      <altitudeMode>relativeToGround</altitudeMode>
      <coordinates>8.38166, 46.9978,20</coordinates>
    </Point>
  </Placemark><Placemark>
    <name>Hertenstein SGV</name>
    <Style><LineStyle><width>2</width></LineStyle></Style>
    <Point>
      <extrude>1</extrude>
      <tesselate>0</tesselate>
      <altitudeMode>relativeToGround</altitudeMode>
      <coordinates>8.40345, 47.0269,20</coordinates>
    </Point>
  </Placemark><Placemark>
    <name>Vitznau</name>
    <Style><LineStyle><width>2</width></LineStyle></Style>
    <Point>
      <extrude>1</extrude>
      <tesselate>0</tesselate>
      <altitudeMode>relativeToGround</altitudeMode>
      <coordinates>8.48238, 47.0094,20</coordinates>
    </Point>
  </Placemark><Placemark>
    <name>Freibergen</name>
    <Style><LineStyle><width>2</width></LineStyle></Style>
    <Point>
      <extrude>1</extrude>
      <tesselate>0</tesselate>
      <altitudeMode>relativeToGround</altitudeMode>
      <coordinates>8.47973, 47.03,20</coordinates>
    </Point>
  </Placemark><Placemark>
    <name>Romiti Felsentor</name>
    <Style><LineStyle><width>2</width></LineStyle></Style>
    <Point>
      <extrude>1</extrude>
      <tesselate>0</tesselate>
      <altitudeMode>relativeToGround</altitudeMode>
      <coordinates>8.47592, 47.0364,20</coordinates>
    </Point>
  </Placemark><Placemark>
    <name>Grubisbalm</name>
    <Style><LineStyle><width>2</width></LineStyle></Style>
    <Point>
      <extrude>1</extrude>
      <tesselate>0</tesselate>
      <altitudeMode>relativeToGround</altitudeMode>
      <coordinates>8.48313, 47.0262,20</coordinates>
    </Point>
  </Placemark><Placemark>
    <name>Rigi Kaltbad-First</name>
    <Style><LineStyle><width>2</width></LineStyle></Style>
    <Point>
      <extrude>1</extrude>
      <tesselate>0</tesselate>
      <altitudeMode>relativeToGround</altitudeMode>
      <coordinates>8.4667, 47.044,20</coordinates>
    </Point>
  </Placemark><Placemark>
    <name>Rigi Staffelhöhe</name>
    <Style><LineStyle><width>2</width></LineStyle></Style>
    <Point>
      <extrude>1</extrude>
      <tesselate>0</tesselate>
      <altitudeMode>relativeToGround</altitudeMode>
      <coordinates>8.4645, 47.0481,20</coordinates>
    </Point>
  </Placemark><Placemark>
    <name>Rigi Scheidegg</name>
    <Style><LineStyle><width>2</width></LineStyle></Style>
    <Point>
      <extrude>1</extrude>
      <tesselate>0</tesselate>
      <altitudeMode>relativeToGround</altitudeMode>
      <coordinates>8.52222, 47.0276,20</coordinates>
    </Point>
  </Placemark><Placemark>
    <name>Mittlerschwanden</name>
    <Style><LineStyle><width>2</width></LineStyle></Style>
    <Point>
      <extrude>1</extrude>
      <tesselate>0</tesselate>
      <altitudeMode>relativeToGround</altitudeMode>
      <coordinates>8.48431, 47.0192,20</coordinates>
    </Point>
  </Placemark><Placemark>
    <name>Obbürgen, Abzw. Trogen</name>
    <Style><LineStyle><width>2</width></LineStyle></Style>
    <Point>
      <extrude>1</extrude>
      <tesselate>0</tesselate>
      <altitudeMode>relativeToGround</altitudeMode>
      <coordinates>8.38919, 46.9957,20</coordinates>
    </Point>
  </Placemark></Document>
</kml>
