<kml>
<Document>

<Region>
<LatLonAltBox>
<north>46.995231</north><south>46.928988</south><east>8.533603</east><west>8.381331</west>
<minAltitude>0.000000</minAltitude><maxAltitude>0.000000</maxAltitude>
</LatLonAltBox>
<minLodPixels>2048</minLodPixels><maxLodPixels>1000000000</maxLodPixels>
<minFadeExtent>0</minFadeExtent><maxFadeExtent>0</maxFadeExtent>
</Region>
<Placemark>
    <name>Stans, Pilatuswerke</name>
    <Style><LineStyle><width>2</width></LineStyle></Style>
    <Point>
      <extrude>1</extrude>
      <tesselate>0</tesselate>
      <altitudeMode>relativeToGround</altitudeMode>
      <coordinates>8.38254, 46.9728,20</coordinates>
    </Point>
  </Placemark><Placemark>
    <name>Beckenried, Niederdorf</name>
    <Style><LineStyle><width>2</width></LineStyle></Style>
    <Point>
      <extrude>1</extrude>
      <tesselate>0</tesselate>
      <altitudeMode>relativeToGround</altitudeMode>
      <coordinates>8.46136, 46.971,20</coordinates>
    </Point>
  </Placemark><Placemark>
    <name>Beckenried BBE</name>
    <Style><LineStyle><width>2</width></LineStyle></Style>
    <Point>
      <extrude>1</extrude>
      <tesselate>0</tesselate>
      <altitudeMode>relativeToGround</altitudeMode>
      <coordinates>8.47322, 46.9663,20</coordinates>
    </Point>
  </Placemark><Placemark>
    <name>Stans, Flugplatz</name>
    <Style><LineStyle><width>2</width></LineStyle></Style>
    <Point>
      <extrude>1</extrude>
      <tesselate>0</tesselate>
      <altitudeMode>relativeToGround</altitudeMode>
      <coordinates>8.38851, 46.9759,20</coordinates>
    </Point>
  </Placemark><Placemark>
    <name>Ennetbürgen, Riedmatt</name>
    <Style><LineStyle><width>2</width></LineStyle></Style>
    <Point>
      <extrude>1</extrude>
      <tesselate>0</tesselate>
      <altitudeMode>relativeToGround</altitudeMode>
      <coordinates>8.40141, 46.9808,20</coordinates>
    </Point>
  </Placemark><Placemark>
    <name>Stans, Kreuzstrasse</name>
    <Style><LineStyle><width>2</width></LineStyle></Style>
    <Point>
      <extrude>1</extrude>
      <tesselate>0</tesselate>
      <altitudeMode>relativeToGround</altitudeMode>
      <coordinates>8.38305, 46.9645,20</coordinates>
    </Point>
  </Placemark><Placemark>
    <name>Gersau, Schiffstation</name>
    <Style><LineStyle><width>2</width></LineStyle></Style>
    <Point>
      <extrude>1</extrude>
      <tesselate>0</tesselate>
      <altitudeMode>relativeToGround</altitudeMode>
      <coordinates>8.52583, 46.9909,20</coordinates>
    </Point>
  </Placemark><Placemark>
    <name>Emmetten, Post</name>
    <Style><LineStyle><width>2</width></LineStyle></Style>
    <Point>
      <extrude>1</extrude>
      <tesselate>0</tesselate>
      <altitudeMode>relativeToGround</altitudeMode>
      <coordinates>8.51561, 46.9564,20</coordinates>
    </Point>
  </Placemark><Placemark>
    <name>Obbürgen, Unter-Misli</name>
    <Style><LineStyle><width>2</width></LineStyle></Style>
    <Point>
      <extrude>1</extrude>
      <tesselate>0</tesselate>
      <altitudeMode>relativeToGround</altitudeMode>
      <coordinates>8.38621, 46.9948,20</coordinates>
    </Point>
  </Placemark><Placemark>
    <name>Gersau</name>
    <Style><LineStyle><width>2</width></LineStyle></Style>
    <Point>
      <extrude>1</extrude>
      <tesselate>0</tesselate>
      <altitudeMode>relativeToGround</altitudeMode>
      <coordinates>8.52601, 46.9906,20</coordinates>
    </Point>
  </Placemark><Placemark>
    <name>Ennetbürgen SGV</name>
    <Style><LineStyle><width>2</width></LineStyle></Style>
    <Point>
      <extrude>1</extrude>
      <tesselate>0</tesselate>
      <altitudeMode>relativeToGround</altitudeMode>
      <coordinates>8.42111, 46.9878,20</coordinates>
    </Point>
  </Placemark><Placemark>
    <name>Gersau Autoquai</name>
    <Style><LineStyle><width>2</width></LineStyle></Style>
    <Point>
      <extrude>1</extrude>
      <tesselate>0</tesselate>
      <altitudeMode>relativeToGround</altitudeMode>
      <coordinates>8.503, 46.992,20</coordinates>
    </Point>
  </Placemark><Placemark>
    <name>Beckenried Autoquai</name>
    <Style><LineStyle><width>2</width></LineStyle></Style>
    <Point>
      <extrude>1</extrude>
      <tesselate>0</tesselate>
      <altitudeMode>relativeToGround</altitudeMode>
      <coordinates>8.45968, 46.9719,20</coordinates>
    </Point>
  </Placemark><Placemark>
    <name>Buochs, Post</name>
    <Style><LineStyle><width>2</width></LineStyle></Style>
    <Point>
      <extrude>1</extrude>
      <tesselate>0</tesselate>
      <altitudeMode>relativeToGround</altitudeMode>
      <coordinates>8.42231, 46.9738,20</coordinates>
    </Point>
  </Placemark><Placemark>
    <name>Ennetbürgen, Post</name>
    <Style><LineStyle><width>2</width></LineStyle></Style>
    <Point>
      <extrude>1</extrude>
      <tesselate>0</tesselate>
      <altitudeMode>relativeToGround</altitudeMode>
      <coordinates>8.41364, 46.9849,20</coordinates>
    </Point>
  </Placemark><Placemark>
    <name>Beckenried, Post</name>
    <Style><LineStyle><width>2</width></LineStyle></Style>
    <Point>
      <extrude>1</extrude>
      <tesselate>0</tesselate>
      <altitudeMode>relativeToGround</altitudeMode>
      <coordinates>8.47446, 46.9687,20</coordinates>
    </Point>
  </Placemark><Placemark>
    <name>Emmetten BBE</name>
    <Style><LineStyle><width>2</width></LineStyle></Style>
    <Point>
      <extrude>1</extrude>
      <tesselate>0</tesselate>
      <altitudeMode>relativeToGround</altitudeMode>
      <coordinates>8.51332, 46.9568,20</coordinates>
    </Point>
  </Placemark><Placemark>
    <name>Buochs SGV</name>
    <Style><LineStyle><width>2</width></LineStyle></Style>
    <Point>
      <extrude>1</extrude>
      <tesselate>0</tesselate>
      <altitudeMode>relativeToGround</altitudeMode>
      <coordinates>8.42627, 46.9752,20</coordinates>
    </Point>
  </Placemark><Placemark>
    <name>Beckenried</name>
    <Style><LineStyle><width>2</width></LineStyle></Style>
    <Point>
      <extrude>1</extrude>
      <tesselate>0</tesselate>
      <altitudeMode>relativeToGround</altitudeMode>
      <coordinates>8.4755, 46.9669,20</coordinates>
    </Point>
  </Placemark><Placemark>
    <name>Beckenried, Fellerwil</name>
    <Style><LineStyle><width>2</width></LineStyle></Style>
    <Point>
      <extrude>1</extrude>
      <tesselate>0</tesselate>
      <altitudeMode>relativeToGround</altitudeMode>
      <coordinates>8.48517, 46.962,20</coordinates>
    </Point>
  </Placemark><Placemark>
    <name>Beckenried, Obgass</name>
    <Style><LineStyle><width>2</width></LineStyle></Style>
    <Point>
      <extrude>1</extrude>
      <tesselate>0</tesselate>
      <altitudeMode>relativeToGround</altitudeMode>
      <coordinates>8.49137, 46.96,20</coordinates>
    </Point>
  </Placemark><Placemark>
    <name>Emmetten, Schöneck</name>
    <Style><LineStyle><width>2</width></LineStyle></Style>
    <Point>
      <extrude>1</extrude>
      <tesselate>0</tesselate>
      <altitudeMode>relativeToGround</altitudeMode>
      <coordinates>8.50645, 46.9585,20</coordinates>
    </Point>
  </Placemark><Placemark>
    <name>Buochs, Schürmatt</name>
    <Style><LineStyle><width>2</width></LineStyle></Style>
    <Point>
      <extrude>1</extrude>
      <tesselate>0</tesselate>
      <altitudeMode>relativeToGround</altitudeMode>
      <coordinates>8.41244, 46.9728,20</coordinates>
    </Point>
  </Placemark><Placemark>
    <name>Buochs, Unterfeld</name>
    <Style><LineStyle><width>2</width></LineStyle></Style>
    <Point>
      <extrude>1</extrude>
      <tesselate>0</tesselate>
      <altitudeMode>relativeToGround</altitudeMode>
      <coordinates>8.4479, 46.9716,20</coordinates>
    </Point>
  </Placemark><Placemark>
    <name>Beckenried, Boden</name>
    <Style><LineStyle><width>2</width></LineStyle></Style>
    <Point>
      <extrude>1</extrude>
      <tesselate>0</tesselate>
      <altitudeMode>relativeToGround</altitudeMode>
      <coordinates>8.47929, 46.9639,20</coordinates>
    </Point>
  </Placemark><Placemark>
    <name>Ennetbürgen, Herdern</name>
    <Style><LineStyle><width>2</width></LineStyle></Style>
    <Point>
      <extrude>1</extrude>
      <tesselate>0</tesselate>
      <altitudeMode>relativeToGround</altitudeMode>
      <coordinates>8.38789, 46.9782,20</coordinates>
    </Point>
  </Placemark><Placemark>
    <name>Ennetbürgen, Oeltrotte</name>
    <Style><LineStyle><width>2</width></LineStyle></Style>
    <Point>
      <extrude>1</extrude>
      <tesselate>0</tesselate>
      <altitudeMode>relativeToGround</altitudeMode>
      <coordinates>8.40836, 46.9834,20</coordinates>
    </Point>
  </Placemark><Placemark>
    <name>Ennetbürgen, Strandbad</name>
    <Style><LineStyle><width>2</width></LineStyle></Style>
    <Point>
      <extrude>1</extrude>
      <tesselate>0</tesselate>
      <altitudeMode>relativeToGround</altitudeMode>
      <coordinates>8.41454, 46.98,20</coordinates>
    </Point>
  </Placemark><Placemark>
    <name>Buochs, Ausserdorf</name>
    <Style><LineStyle><width>2</width></LineStyle></Style>
    <Point>
      <extrude>1</extrude>
      <tesselate>0</tesselate>
      <altitudeMode>relativeToGround</altitudeMode>
      <coordinates>8.41808, 46.9761,20</coordinates>
    </Point>
  </Placemark></Document>
</kml>
