<kml>
<Document>

<Region>
<LatLonAltBox>
<north>46.995231</north><south>46.928988</south><east>8.685874</east><west>8.533603</west>
<minAltitude>0.000000</minAltitude><maxAltitude>0.000000</maxAltitude>
</LatLonAltBox>
<minLodPixels>2048</minLodPixels><maxLodPixels>1000000000</maxLodPixels>
<minFadeExtent>0</minFadeExtent><maxFadeExtent>0</maxFadeExtent>
</Region>
<Placemark>
    <name>Stoos LMS</name>
    <Style><LineStyle><width>2</width></LineStyle></Style>
    <Point>
      <extrude>1</extrude>
      <tesselate>0</tesselate>
      <altitudeMode>relativeToGround</altitudeMode>
      <coordinates>8.66416, 46.9822,20</coordinates>
    </Point>
  </Placemark><Placemark>
    <name>Fronalpstock</name>
    <Style><LineStyle><width>2</width></LineStyle></Style>
    <Point>
      <extrude>1</extrude>
      <tesselate>0</tesselate>
      <altitudeMode>relativeToGround</altitudeMode>
      <coordinates>8.63818, 46.9683,20</coordinates>
    </Point>
  </Placemark><Placemark>
    <name>Stoos Fronalpstock-Bahn</name>
    <Style><LineStyle><width>2</width></LineStyle></Style>
    <Point>
      <extrude>1</extrude>
      <tesselate>0</tesselate>
      <altitudeMode>relativeToGround</altitudeMode>
      <coordinates>8.66225, 46.9762,20</coordinates>
    </Point>
  </Placemark><Placemark>
    <name>Emmetten, Laui</name>
    <Style><LineStyle><width>2</width></LineStyle></Style>
    <Point>
      <extrude>1</extrude>
      <tesselate>0</tesselate>
      <altitudeMode>relativeToGround</altitudeMode>
      <coordinates>8.55574, 46.9591,20</coordinates>
    </Point>
  </Placemark><Placemark>
    <name>Emmetten, March</name>
    <Style><LineStyle><width>2</width></LineStyle></Style>
    <Point>
      <extrude>1</extrude>
      <tesselate>0</tesselate>
      <altitudeMode>relativeToGround</altitudeMode>
      <coordinates>8.54916, 46.959,20</coordinates>
    </Point>
  </Placemark><Placemark>
    <name>Bauen, Parkplatz</name>
    <Style><LineStyle><width>2</width></LineStyle></Style>
    <Point>
      <extrude>1</extrude>
      <tesselate>0</tesselate>
      <altitudeMode>relativeToGround</altitudeMode>
      <coordinates>8.57986, 46.9348,20</coordinates>
    </Point>
  </Placemark><Placemark>
    <name>Bauen, Cholbach</name>
    <Style><LineStyle><width>2</width></LineStyle></Style>
    <Point>
      <extrude>1</extrude>
      <tesselate>0</tesselate>
      <altitudeMode>relativeToGround</altitudeMode>
      <coordinates>8.57846, 46.9308,20</coordinates>
    </Point>
  </Placemark><Placemark>
    <name>Brunnen, See</name>
    <Style><LineStyle><width>2</width></LineStyle></Style>
    <Point>
      <extrude>1</extrude>
      <tesselate>0</tesselate>
      <altitudeMode>relativeToGround</altitudeMode>
      <coordinates>8.60478, 46.9937,20</coordinates>
    </Point>
  </Placemark><Placemark>
    <name>Schlattli SSSF</name>
    <Style><LineStyle><width>2</width></LineStyle></Style>
    <Point>
      <extrude>1</extrude>
      <tesselate>0</tesselate>
      <altitudeMode>relativeToGround</altitudeMode>
      <coordinates>8.66837, 46.9919,20</coordinates>
    </Point>
  </Placemark><Placemark>
    <name>Stoos</name>
    <Style><LineStyle><width>2</width></LineStyle></Style>
    <Point>
      <extrude>1</extrude>
      <tesselate>0</tesselate>
      <altitudeMode>relativeToGround</altitudeMode>
      <coordinates>8.66469, 46.9839,20</coordinates>
    </Point>
  </Placemark><Placemark>
    <name>Riemenstalden, Langrüti</name>
    <Style><LineStyle><width>2</width></LineStyle></Style>
    <Point>
      <extrude>1</extrude>
      <tesselate>0</tesselate>
      <altitudeMode>relativeToGround</altitudeMode>
      <coordinates>8.65533, 46.9473,20</coordinates>
    </Point>
  </Placemark><Placemark>
    <name>Riemenstalden, alte Post</name>
    <Style><LineStyle><width>2</width></LineStyle></Style>
    <Point>
      <extrude>1</extrude>
      <tesselate>0</tesselate>
      <altitudeMode>relativeToGround</altitudeMode>
      <coordinates>8.66517, 46.947,20</coordinates>
    </Point>
  </Placemark><Placemark>
    <name>Riemenstalden, Riedberg</name>
    <Style><LineStyle><width>2</width></LineStyle></Style>
    <Point>
      <extrude>1</extrude>
      <tesselate>0</tesselate>
      <altitudeMode>relativeToGround</altitudeMode>
      <coordinates>8.64157, 46.949,20</coordinates>
    </Point>
  </Placemark><Placemark>
    <name>Riemenstalden, Hüsern</name>
    <Style><LineStyle><width>2</width></LineStyle></Style>
    <Point>
      <extrude>1</extrude>
      <tesselate>0</tesselate>
      <altitudeMode>relativeToGround</altitudeMode>
      <coordinates>8.64943, 46.9481,20</coordinates>
    </Point>
  </Placemark><Placemark>
    <name>Sisikon, Bahnhof</name>
    <Style><LineStyle><width>2</width></LineStyle></Style>
    <Point>
      <extrude>1</extrude>
      <tesselate>0</tesselate>
      <altitudeMode>relativeToGround</altitudeMode>
      <coordinates>8.62088, 46.949,20</coordinates>
    </Point>
  </Placemark><Placemark>
    <name>Sisikon, Binzenegg</name>
    <Style><LineStyle><width>2</width></LineStyle></Style>
    <Point>
      <extrude>1</extrude>
      <tesselate>0</tesselate>
      <altitudeMode>relativeToGround</altitudeMode>
      <coordinates>8.62819, 46.9526,20</coordinates>
    </Point>
  </Placemark><Placemark>
    <name>Seelisberg, Hotel Sonnenberg</name>
    <Style><LineStyle><width>2</width></LineStyle></Style>
    <Point>
      <extrude>1</extrude>
      <tesselate>0</tesselate>
      <altitudeMode>relativeToGround</altitudeMode>
      <coordinates>8.58619, 46.9699,20</coordinates>
    </Point>
  </Placemark><Placemark>
    <name>Seelisberg, Schmidig</name>
    <Style><LineStyle><width>2</width></LineStyle></Style>
    <Point>
      <extrude>1</extrude>
      <tesselate>0</tesselate>
      <altitudeMode>relativeToGround</altitudeMode>
      <coordinates>8.57952, 46.9654,20</coordinates>
    </Point>
  </Placemark><Placemark>
    <name>Seelisberg, Seeli</name>
    <Style><LineStyle><width>2</width></LineStyle></Style>
    <Point>
      <extrude>1</extrude>
      <tesselate>0</tesselate>
      <altitudeMode>relativeToGround</altitudeMode>
      <coordinates>8.57852, 46.9645,20</coordinates>
    </Point>
  </Placemark><Placemark>
    <name>Emmetten, Hattig</name>
    <Style><LineStyle><width>2</width></LineStyle></Style>
    <Point>
      <extrude>1</extrude>
      <tesselate>0</tesselate>
      <altitudeMode>relativeToGround</altitudeMode>
      <coordinates>8.53437, 46.9584,20</coordinates>
    </Point>
  </Placemark><Placemark>
    <name>Morschach, Talstation</name>
    <Style><LineStyle><width>2</width></LineStyle></Style>
    <Point>
      <extrude>1</extrude>
      <tesselate>0</tesselate>
      <altitudeMode>relativeToGround</altitudeMode>
      <coordinates>8.63624, 46.9898,20</coordinates>
    </Point>
  </Placemark><Placemark>
    <name>Sisikon</name>
    <Style><LineStyle><width>2</width></LineStyle></Style>
    <Point>
      <extrude>1</extrude>
      <tesselate>0</tesselate>
      <altitudeMode>relativeToGround</altitudeMode>
      <coordinates>8.62073, 46.9492,20</coordinates>
    </Point>
  </Placemark></Document>
</kml>
