<kml>
<Document>

<Region>
<LatLonAltBox>
<north>47.061475</north><south>46.928988</south><east>9.447230</east><west>9.142688</west>
<minAltitude>0.000000</minAltitude><maxAltitude>0.000000</maxAltitude>
</LatLonAltBox>
<minLodPixels>2048</minLodPixels><maxLodPixels>1000000000</maxLodPixels>
<minFadeExtent>0</minFadeExtent><maxFadeExtent>0</maxFadeExtent>
</Region>
<Placemark>
    <name>Mels, Fabrik</name>
    <Style><LineStyle><width>2</width></LineStyle></Style>
    <Point>
      <extrude>1</extrude>
      <tesselate>0</tesselate>
      <altitudeMode>relativeToGround</altitudeMode>
      <coordinates>9.41655, 47.042,20</coordinates>
    </Point>
  </Placemark><Placemark>
    <name>Schwendi i. W., Dorf</name>
    <Style><LineStyle><width>2</width></LineStyle></Style>
    <Point>
      <extrude>1</extrude>
      <tesselate>0</tesselate>
      <altitudeMode>relativeToGround</altitudeMode>
      <coordinates>9.36167, 47.0074,20</coordinates>
    </Point>
  </Placemark><Placemark>
    <name>Mels, Hienzi</name>
    <Style><LineStyle><width>2</width></LineStyle></Style>
    <Point>
      <extrude>1</extrude>
      <tesselate>0</tesselate>
      <altitudeMode>relativeToGround</altitudeMode>
      <coordinates>9.39598, 47.0374,20</coordinates>
    </Point>
  </Placemark><Placemark>
    <name>Mels, Mädris</name>
    <Style><LineStyle><width>2</width></LineStyle></Style>
    <Point>
      <extrude>1</extrude>
      <tesselate>0</tesselate>
      <altitudeMode>relativeToGround</altitudeMode>
      <coordinates>9.38452, 47.0389,20</coordinates>
    </Point>
  </Placemark><Placemark>
    <name>Vermol, Kurhaus Alpenrösli</name>
    <Style><LineStyle><width>2</width></LineStyle></Style>
    <Point>
      <extrude>1</extrude>
      <tesselate>0</tesselate>
      <altitudeMode>relativeToGround</altitudeMode>
      <coordinates>9.37896, 47.0399,20</coordinates>
    </Point>
  </Placemark><Placemark>
    <name>Mels, Lütsch</name>
    <Style><LineStyle><width>2</width></LineStyle></Style>
    <Point>
      <extrude>1</extrude>
      <tesselate>0</tesselate>
      <altitudeMode>relativeToGround</altitudeMode>
      <coordinates>9.41578, 47.0391,20</coordinates>
    </Point>
  </Placemark><Placemark>
    <name>Mels, Pizolpark</name>
    <Style><LineStyle><width>2</width></LineStyle></Style>
    <Point>
      <extrude>1</extrude>
      <tesselate>0</tesselate>
      <altitudeMode>relativeToGround</altitudeMode>
      <coordinates>9.43365, 47.0417,20</coordinates>
    </Point>
  </Placemark><Placemark>
    <name>Mels, Schurs</name>
    <Style><LineStyle><width>2</width></LineStyle></Style>
    <Point>
      <extrude>1</extrude>
      <tesselate>0</tesselate>
      <altitudeMode>relativeToGround</altitudeMode>
      <coordinates>9.41203, 47.0355,20</coordinates>
    </Point>
  </Placemark><Placemark>
    <name>Mels, Steigs</name>
    <Style><LineStyle><width>2</width></LineStyle></Style>
    <Point>
      <extrude>1</extrude>
      <tesselate>0</tesselate>
      <altitudeMode>relativeToGround</altitudeMode>
      <coordinates>9.41906, 47.0386,20</coordinates>
    </Point>
  </Placemark><Placemark>
    <name>Mels, Mühleboden</name>
    <Style><LineStyle><width>2</width></LineStyle></Style>
    <Point>
      <extrude>1</extrude>
      <tesselate>0</tesselate>
      <altitudeMode>relativeToGround</altitudeMode>
      <coordinates>9.37964, 47.0224,20</coordinates>
    </Point>
  </Placemark><Placemark>
    <name>Wangs, Post</name>
    <Style><LineStyle><width>2</width></LineStyle></Style>
    <Point>
      <extrude>1</extrude>
      <tesselate>0</tesselate>
      <altitudeMode>relativeToGround</altitudeMode>
      <coordinates>9.43166, 47.0325,20</coordinates>
    </Point>
  </Placemark><Placemark>
    <name>Weisstannen, Oberdorf</name>
    <Style><LineStyle><width>2</width></LineStyle></Style>
    <Point>
      <extrude>1</extrude>
      <tesselate>0</tesselate>
      <altitudeMode>relativeToGround</altitudeMode>
      <coordinates>9.34427, 46.9897,20</coordinates>
    </Point>
  </Placemark><Placemark>
    <name>Mels, Feldackerstrasse</name>
    <Style><LineStyle><width>2</width></LineStyle></Style>
    <Point>
      <extrude>1</extrude>
      <tesselate>0</tesselate>
      <altitudeMode>relativeToGround</altitudeMode>
      <coordinates>9.42918, 47.0454,20</coordinates>
    </Point>
  </Placemark><Placemark>
    <name>Mels, Bahnhof</name>
    <Style><LineStyle><width>2</width></LineStyle></Style>
    <Point>
      <extrude>1</extrude>
      <tesselate>0</tesselate>
      <altitudeMode>relativeToGround</altitudeMode>
      <coordinates>9.41793, 47.0528,20</coordinates>
    </Point>
  </Placemark><Placemark>
    <name>Mels, Riet</name>
    <Style><LineStyle><width>2</width></LineStyle></Style>
    <Point>
      <extrude>1</extrude>
      <tesselate>0</tesselate>
      <altitudeMode>relativeToGround</altitudeMode>
      <coordinates>9.43491, 47.0403,20</coordinates>
    </Point>
  </Placemark><Placemark>
    <name>Mels, Ringstrasse</name>
    <Style><LineStyle><width>2</width></LineStyle></Style>
    <Point>
      <extrude>1</extrude>
      <tesselate>0</tesselate>
      <altitudeMode>relativeToGround</altitudeMode>
      <coordinates>9.42283, 47.0518,20</coordinates>
    </Point>
  </Placemark><Placemark>
    <name>Vilters, Härtistrasse</name>
    <Style><LineStyle><width>2</width></LineStyle></Style>
    <Point>
      <extrude>1</extrude>
      <tesselate>0</tesselate>
      <altitudeMode>relativeToGround</altitudeMode>
      <coordinates>9.44702, 47.0298,20</coordinates>
    </Point>
  </Placemark><Placemark>
    <name>Mels, Waldheim</name>
    <Style><LineStyle><width>2</width></LineStyle></Style>
    <Point>
      <extrude>1</extrude>
      <tesselate>0</tesselate>
      <altitudeMode>relativeToGround</altitudeMode>
      <coordinates>9.40848, 47.0374,20</coordinates>
    </Point>
  </Placemark><Placemark>
    <name>Pizolhütte</name>
    <Style><LineStyle><width>2</width></LineStyle></Style>
    <Point>
      <extrude>1</extrude>
      <tesselate>0</tesselate>
      <altitudeMode>relativeToGround</altitudeMode>
      <coordinates>9.41704, 46.9792,20</coordinates>
    </Point>
  </Placemark><Placemark>
    <name>Wangs, Sternen</name>
    <Style><LineStyle><width>2</width></LineStyle></Style>
    <Point>
      <extrude>1</extrude>
      <tesselate>0</tesselate>
      <altitudeMode>relativeToGround</altitudeMode>
      <coordinates>9.43171, 47.0339,20</coordinates>
    </Point>
  </Placemark><Placemark>
    <name>Wangs, Pizolbahn</name>
    <Style><LineStyle><width>2</width></LineStyle></Style>
    <Point>
      <extrude>1</extrude>
      <tesselate>0</tesselate>
      <altitudeMode>relativeToGround</altitudeMode>
      <coordinates>9.43219, 47.0289,20</coordinates>
    </Point>
  </Placemark><Placemark>
    <name>Heiligkreuz (Mels), Untergasse</name>
    <Style><LineStyle><width>2</width></LineStyle></Style>
    <Point>
      <extrude>1</extrude>
      <tesselate>0</tesselate>
      <altitudeMode>relativeToGround</altitudeMode>
      <coordinates>9.40994, 47.0592,20</coordinates>
    </Point>
  </Placemark><Placemark>
    <name>Heiligkreuz (Mels), Staatsstr.</name>
    <Style><LineStyle><width>2</width></LineStyle></Style>
    <Point>
      <extrude>1</extrude>
      <tesselate>0</tesselate>
      <altitudeMode>relativeToGround</altitudeMode>
      <coordinates>9.41577, 47.0566,20</coordinates>
    </Point>
  </Placemark><Placemark>
    <name>Mels, Bahnhofstrasse</name>
    <Style><LineStyle><width>2</width></LineStyle></Style>
    <Point>
      <extrude>1</extrude>
      <tesselate>0</tesselate>
      <altitudeMode>relativeToGround</altitudeMode>
      <coordinates>9.41947, 47.0498,20</coordinates>
    </Point>
  </Placemark><Placemark>
    <name>Wangs LSWP</name>
    <Style><LineStyle><width>2</width></LineStyle></Style>
    <Point>
      <extrude>1</extrude>
      <tesselate>0</tesselate>
      <altitudeMode>relativeToGround</altitudeMode>
      <coordinates>9.43225, 47.0288,20</coordinates>
    </Point>
  </Placemark><Placemark>
    <name>Sargans, Zürcherstrasse</name>
    <Style><LineStyle><width>2</width></LineStyle></Style>
    <Point>
      <extrude>1</extrude>
      <tesselate>0</tesselate>
      <altitudeMode>relativeToGround</altitudeMode>
      <coordinates>9.43589, 47.0489,20</coordinates>
    </Point>
  </Placemark><Placemark>
    <name>Sargans, Neue Stadtergasse</name>
    <Style><LineStyle><width>2</width></LineStyle></Style>
    <Point>
      <extrude>1</extrude>
      <tesselate>0</tesselate>
      <altitudeMode>relativeToGround</altitudeMode>
      <coordinates>9.43102, 47.0507,20</coordinates>
    </Point>
  </Placemark><Placemark>
    <name>Matt LMW</name>
    <Style><LineStyle><width>2</width></LineStyle></Style>
    <Point>
      <extrude>1</extrude>
      <tesselate>0</tesselate>
      <altitudeMode>relativeToGround</altitudeMode>
      <coordinates>9.17147, 46.9601,20</coordinates>
    </Point>
  </Placemark><Placemark>
    <name>Mels, Post</name>
    <Style><LineStyle><width>2</width></LineStyle></Style>
    <Point>
      <extrude>1</extrude>
      <tesselate>0</tesselate>
      <altitudeMode>relativeToGround</altitudeMode>
      <coordinates>9.41934, 47.0462,20</coordinates>
    </Point>
  </Placemark><Placemark>
    <name>Mels, Plons Kaserne</name>
    <Style><LineStyle><width>2</width></LineStyle></Style>
    <Point>
      <extrude>1</extrude>
      <tesselate>0</tesselate>
      <altitudeMode>relativeToGround</altitudeMode>
      <coordinates>9.40463, 47.0579,20</coordinates>
    </Point>
  </Placemark><Placemark>
    <name>Wangs, Altersheim</name>
    <Style><LineStyle><width>2</width></LineStyle></Style>
    <Point>
      <extrude>1</extrude>
      <tesselate>0</tesselate>
      <altitudeMode>relativeToGround</altitudeMode>
      <coordinates>9.43418, 47.0295,20</coordinates>
    </Point>
  </Placemark><Placemark>
    <name>Mels, Sarganserstrasse</name>
    <Style><LineStyle><width>2</width></LineStyle></Style>
    <Point>
      <extrude>1</extrude>
      <tesselate>0</tesselate>
      <altitudeMode>relativeToGround</altitudeMode>
      <coordinates>9.42732, 47.0486,20</coordinates>
    </Point>
  </Placemark><Placemark>
    <name>Sargans, Kantonsschule</name>
    <Style><LineStyle><width>2</width></LineStyle></Style>
    <Point>
      <extrude>1</extrude>
      <tesselate>0</tesselate>
      <altitudeMode>relativeToGround</altitudeMode>
      <coordinates>9.44064, 47.0438,20</coordinates>
    </Point>
  </Placemark><Placemark>
    <name>Engi, Vorderdorf</name>
    <Style><LineStyle><width>2</width></LineStyle></Style>
    <Point>
      <extrude>1</extrude>
      <tesselate>0</tesselate>
      <altitudeMode>relativeToGround</altitudeMode>
      <coordinates>9.14358, 46.9843,20</coordinates>
    </Point>
  </Placemark><Placemark>
    <name>Engi, Hinterdorf</name>
    <Style><LineStyle><width>2</width></LineStyle></Style>
    <Point>
      <extrude>1</extrude>
      <tesselate>0</tesselate>
      <altitudeMode>relativeToGround</altitudeMode>
      <coordinates>9.15906, 46.9751,20</coordinates>
    </Point>
  </Placemark><Placemark>
    <name>Matt, Station</name>
    <Style><LineStyle><width>2</width></LineStyle></Style>
    <Point>
      <extrude>1</extrude>
      <tesselate>0</tesselate>
      <altitudeMode>relativeToGround</altitudeMode>
      <coordinates>9.17033, 46.9578,20</coordinates>
    </Point>
  </Placemark><Placemark>
    <name>Glarus, Reust</name>
    <Style><LineStyle><width>2</width></LineStyle></Style>
    <Point>
      <extrude>1</extrude>
      <tesselate>0</tesselate>
      <altitudeMode>relativeToGround</altitudeMode>
      <coordinates>9.17864, 47.0418,20</coordinates>
    </Point>
  </Placemark><Placemark>
    <name>Engi, Weberei</name>
    <Style><LineStyle><width>2</width></LineStyle></Style>
    <Point>
      <extrude>1</extrude>
      <tesselate>0</tesselate>
      <altitudeMode>relativeToGround</altitudeMode>
      <coordinates>9.15149, 46.9851,20</coordinates>
    </Point>
  </Placemark></Document>
</kml>
