<kml>
<Document>

<Region>
<LatLonAltBox>
<north>47.061475</north><south>46.928988</south><east>9.142688</east><west>8.838145</west>
<minAltitude>0.000000</minAltitude><maxAltitude>0.000000</maxAltitude>
</LatLonAltBox>
<minLodPixels>2048</minLodPixels><maxLodPixels>1000000000</maxLodPixels>
<minFadeExtent>0</minFadeExtent><maxFadeExtent>0</maxFadeExtent>
</Region>
<Placemark>
    <name>Glarus</name>
    <Style><LineStyle><width>2</width></LineStyle></Style>
    <Point>
      <extrude>1</extrude>
      <tesselate>0</tesselate>
      <altitudeMode>relativeToGround</altitudeMode>
      <coordinates>9.07155, 47.0399,20</coordinates>
    </Point>
  </Placemark><Placemark>
    <name>Klöntal, Rhodannenberg</name>
    <Style><LineStyle><width>2</width></LineStyle></Style>
    <Point>
      <extrude>1</extrude>
      <tesselate>0</tesselate>
      <altitudeMode>relativeToGround</altitudeMode>
      <coordinates>9.00507, 47.036,20</coordinates>
    </Point>
  </Placemark><Placemark>
    <name>Klöntal, Richisau</name>
    <Style><LineStyle><width>2</width></LineStyle></Style>
    <Point>
      <extrude>1</extrude>
      <tesselate>0</tesselate>
      <altitudeMode>relativeToGround</altitudeMode>
      <coordinates>8.9116, 47.0228,20</coordinates>
    </Point>
  </Placemark><Placemark>
    <name>Glarus, Friedhof</name>
    <Style><LineStyle><width>2</width></LineStyle></Style>
    <Point>
      <extrude>1</extrude>
      <tesselate>0</tesselate>
      <altitudeMode>relativeToGround</altitudeMode>
      <coordinates>9.06242, 47.0394,20</coordinates>
    </Point>
  </Placemark><Placemark>
    <name>Glarus, Schützenhaus</name>
    <Style><LineStyle><width>2</width></LineStyle></Style>
    <Point>
      <extrude>1</extrude>
      <tesselate>0</tesselate>
      <altitudeMode>relativeToGround</altitudeMode>
      <coordinates>9.06502, 47.0385,20</coordinates>
    </Point>
  </Placemark><Placemark>
    <name>Riedern GL, Lerchen</name>
    <Style><LineStyle><width>2</width></LineStyle></Style>
    <Point>
      <extrude>1</extrude>
      <tesselate>0</tesselate>
      <altitudeMode>relativeToGround</altitudeMode>
      <coordinates>9.0523, 47.0531,20</coordinates>
    </Point>
  </Placemark><Placemark>
    <name>Braunwald</name>
    <Style><LineStyle><width>2</width></LineStyle></Style>
    <Point>
      <extrude>1</extrude>
      <tesselate>0</tesselate>
      <altitudeMode>relativeToGround</altitudeMode>
      <coordinates>8.99859, 46.9387,20</coordinates>
    </Point>
  </Placemark><Placemark>
    <name>Leuggelbach, Kronenplatz</name>
    <Style><LineStyle><width>2</width></LineStyle></Style>
    <Point>
      <extrude>1</extrude>
      <tesselate>0</tesselate>
      <altitudeMode>relativeToGround</altitudeMode>
      <coordinates>9.04498, 46.9758,20</coordinates>
    </Point>
  </Placemark><Placemark>
    <name>Luchsingen, Schulhaus</name>
    <Style><LineStyle><width>2</width></LineStyle></Style>
    <Point>
      <extrude>1</extrude>
      <tesselate>0</tesselate>
      <altitudeMode>relativeToGround</altitudeMode>
      <coordinates>9.03657, 46.9669,20</coordinates>
    </Point>
  </Placemark><Placemark>
    <name>Diesbach GL, Schulhaus</name>
    <Style><LineStyle><width>2</width></LineStyle></Style>
    <Point>
      <extrude>1</extrude>
      <tesselate>0</tesselate>
      <altitudeMode>relativeToGround</altitudeMode>
      <coordinates>9.03351, 46.9526,20</coordinates>
    </Point>
  </Placemark><Placemark>
    <name>Rüti GL, Schulhaus</name>
    <Style><LineStyle><width>2</width></LineStyle></Style>
    <Point>
      <extrude>1</extrude>
      <tesselate>0</tesselate>
      <altitudeMode>relativeToGround</altitudeMode>
      <coordinates>9.01465, 46.9366,20</coordinates>
    </Point>
  </Placemark><Placemark>
    <name>Nidfurn, Abzw. Haslen</name>
    <Style><LineStyle><width>2</width></LineStyle></Style>
    <Point>
      <extrude>1</extrude>
      <tesselate>0</tesselate>
      <altitudeMode>relativeToGround</altitudeMode>
      <coordinates>9.0569, 46.9873,20</coordinates>
    </Point>
  </Placemark><Placemark>
    <name>Leuggelbach, Firma Schlittler</name>
    <Style><LineStyle><width>2</width></LineStyle></Style>
    <Point>
      <extrude>1</extrude>
      <tesselate>0</tesselate>
      <altitudeMode>relativeToGround</altitudeMode>
      <coordinates>9.045, 46.9765,20</coordinates>
    </Point>
  </Placemark><Placemark>
    <name>Glarus, Oberdorf</name>
    <Style><LineStyle><width>2</width></LineStyle></Style>
    <Point>
      <extrude>1</extrude>
      <tesselate>0</tesselate>
      <altitudeMode>relativeToGround</altitudeMode>
      <coordinates>9.05847, 47.0395,20</coordinates>
    </Point>
  </Placemark><Placemark>
    <name>Ennenda, Ennetbühls</name>
    <Style><LineStyle><width>2</width></LineStyle></Style>
    <Point>
      <extrude>1</extrude>
      <tesselate>0</tesselate>
      <altitudeMode>relativeToGround</altitudeMode>
      <coordinates>9.07431, 47.0411,20</coordinates>
    </Point>
  </Placemark><Placemark>
    <name>Ennenda, Gemeindehaus</name>
    <Style><LineStyle><width>2</width></LineStyle></Style>
    <Point>
      <extrude>1</extrude>
      <tesselate>0</tesselate>
      <altitudeMode>relativeToGround</altitudeMode>
      <coordinates>9.07803, 47.0336,20</coordinates>
    </Point>
  </Placemark><Placemark>
    <name>Glarus, Altersheim Höhe</name>
    <Style><LineStyle><width>2</width></LineStyle></Style>
    <Point>
      <extrude>1</extrude>
      <tesselate>0</tesselate>
      <altitudeMode>relativeToGround</altitudeMode>
      <coordinates>9.06588, 47.0453,20</coordinates>
    </Point>
  </Placemark><Placemark>
    <name>Klöntal, Schwändeli</name>
    <Style><LineStyle><width>2</width></LineStyle></Style>
    <Point>
      <extrude>1</extrude>
      <tesselate>0</tesselate>
      <altitudeMode>relativeToGround</altitudeMode>
      <coordinates>8.92457, 47.0278,20</coordinates>
    </Point>
  </Placemark><Placemark>
    <name>Kies LKM</name>
    <Style><LineStyle><width>2</width></LineStyle></Style>
    <Point>
      <extrude>1</extrude>
      <tesselate>0</tesselate>
      <altitudeMode>relativeToGround</altitudeMode>
      <coordinates>9.09091, 46.968,20</coordinates>
    </Point>
  </Placemark><Placemark>
    <name>Mettmen</name>
    <Style><LineStyle><width>2</width></LineStyle></Style>
    <Point>
      <extrude>1</extrude>
      <tesselate>0</tesselate>
      <altitudeMode>relativeToGround</altitudeMode>
      <coordinates>9.09591, 46.9587,20</coordinates>
    </Point>
  </Placemark><Placemark>
    <name>Glarus, Lurigenstrasse</name>
    <Style><LineStyle><width>2</width></LineStyle></Style>
    <Point>
      <extrude>1</extrude>
      <tesselate>0</tesselate>
      <altitudeMode>relativeToGround</altitudeMode>
      <coordinates>9.05803, 47.0467,20</coordinates>
    </Point>
  </Placemark><Placemark>
    <name>Glarus, Bahnhof</name>
    <Style><LineStyle><width>2</width></LineStyle></Style>
    <Point>
      <extrude>1</extrude>
      <tesselate>0</tesselate>
      <altitudeMode>relativeToGround</altitudeMode>
      <coordinates>9.07163, 47.0395,20</coordinates>
    </Point>
  </Placemark><Placemark>
    <name>Ennenda, Villastrasse</name>
    <Style><LineStyle><width>2</width></LineStyle></Style>
    <Point>
      <extrude>1</extrude>
      <tesselate>0</tesselate>
      <altitudeMode>relativeToGround</altitudeMode>
      <coordinates>9.07513, 47.0354,20</coordinates>
    </Point>
  </Placemark><Placemark>
    <name>Ennenda, Salem</name>
    <Style><LineStyle><width>2</width></LineStyle></Style>
    <Point>
      <extrude>1</extrude>
      <tesselate>0</tesselate>
      <altitudeMode>relativeToGround</altitudeMode>
      <coordinates>9.07998, 47.0327,20</coordinates>
    </Point>
  </Placemark><Placemark>
    <name>Ennenda, Seilbahn</name>
    <Style><LineStyle><width>2</width></LineStyle></Style>
    <Point>
      <extrude>1</extrude>
      <tesselate>0</tesselate>
      <altitudeMode>relativeToGround</altitudeMode>
      <coordinates>9.08323, 47.0314,20</coordinates>
    </Point>
  </Placemark><Placemark>
    <name>Betschwanden, Schulhaus</name>
    <Style><LineStyle><width>2</width></LineStyle></Style>
    <Point>
      <extrude>1</extrude>
      <tesselate>0</tesselate>
      <altitudeMode>relativeToGround</altitudeMode>
      <coordinates>9.02807, 46.9464,20</coordinates>
    </Point>
  </Placemark><Placemark>
    <name>Hätzingen, Rössliplatz</name>
    <Style><LineStyle><width>2</width></LineStyle></Style>
    <Point>
      <extrude>1</extrude>
      <tesselate>0</tesselate>
      <altitudeMode>relativeToGround</altitudeMode>
      <coordinates>9.03772, 46.9615,20</coordinates>
    </Point>
  </Placemark><Placemark>
    <name>Klöntal, Vorauen</name>
    <Style><LineStyle><width>2</width></LineStyle></Style>
    <Point>
      <extrude>1</extrude>
      <tesselate>0</tesselate>
      <altitudeMode>relativeToGround</altitudeMode>
      <coordinates>8.94623, 47.0262,20</coordinates>
    </Point>
  </Placemark><Placemark>
    <name>Rüti GL</name>
    <Style><LineStyle><width>2</width></LineStyle></Style>
    <Point>
      <extrude>1</extrude>
      <tesselate>0</tesselate>
      <altitudeMode>relativeToGround</altitudeMode>
      <coordinates>9.01303, 46.9345,20</coordinates>
    </Point>
  </Placemark><Placemark>
    <name>Luchsingen-Hätzingen</name>
    <Style><LineStyle><width>2</width></LineStyle></Style>
    <Point>
      <extrude>1</extrude>
      <tesselate>0</tesselate>
      <altitudeMode>relativeToGround</altitudeMode>
      <coordinates>9.03901, 46.9651,20</coordinates>
    </Point>
  </Placemark><Placemark>
    <name>Diesbach-Betschwanden</name>
    <Style><LineStyle><width>2</width></LineStyle></Style>
    <Point>
      <extrude>1</extrude>
      <tesselate>0</tesselate>
      <altitudeMode>relativeToGround</altitudeMode>
      <coordinates>9.02436, 46.9462,20</coordinates>
    </Point>
  </Placemark><Placemark>
    <name>Nidfurn-Haslen</name>
    <Style><LineStyle><width>2</width></LineStyle></Style>
    <Point>
      <extrude>1</extrude>
      <tesselate>0</tesselate>
      <altitudeMode>relativeToGround</altitudeMode>
      <coordinates>9.05926, 46.9859,20</coordinates>
    </Point>
  </Placemark><Placemark>
    <name>Leuggelbach</name>
    <Style><LineStyle><width>2</width></LineStyle></Style>
    <Point>
      <extrude>1</extrude>
      <tesselate>0</tesselate>
      <altitudeMode>relativeToGround</altitudeMode>
      <coordinates>9.04692, 46.9757,20</coordinates>
    </Point>
  </Placemark><Placemark>
    <name>Mitlödi</name>
    <Style><LineStyle><width>2</width></LineStyle></Style>
    <Point>
      <extrude>1</extrude>
      <tesselate>0</tesselate>
      <altitudeMode>relativeToGround</altitudeMode>
      <coordinates>9.08119, 47.0101,20</coordinates>
    </Point>
  </Placemark><Placemark>
    <name>Schwanden</name>
    <Style><LineStyle><width>2</width></LineStyle></Style>
    <Point>
      <extrude>1</extrude>
      <tesselate>0</tesselate>
      <altitudeMode>relativeToGround</altitudeMode>
      <coordinates>9.07745, 46.9968,20</coordinates>
    </Point>
  </Placemark><Placemark>
    <name>Ennenda</name>
    <Style><LineStyle><width>2</width></LineStyle></Style>
    <Point>
      <extrude>1</extrude>
      <tesselate>0</tesselate>
      <altitudeMode>relativeToGround</altitudeMode>
      <coordinates>9.07718, 47.033,20</coordinates>
    </Point>
  </Placemark><Placemark>
    <name>Schwanden GL, Bahnhof</name>
    <Style><LineStyle><width>2</width></LineStyle></Style>
    <Point>
      <extrude>1</extrude>
      <tesselate>0</tesselate>
      <altitudeMode>relativeToGround</altitudeMode>
      <coordinates>9.07691, 46.997,20</coordinates>
    </Point>
  </Placemark><Placemark>
    <name>Klöntal, Plätz</name>
    <Style><LineStyle><width>2</width></LineStyle></Style>
    <Point>
      <extrude>1</extrude>
      <tesselate>0</tesselate>
      <altitudeMode>relativeToGround</altitudeMode>
      <coordinates>8.93992, 47.0238,20</coordinates>
    </Point>
  </Placemark><Placemark>
    <name>Wart</name>
    <Style><LineStyle><width>2</width></LineStyle></Style>
    <Point>
      <extrude>1</extrude>
      <tesselate>0</tesselate>
      <altitudeMode>relativeToGround</altitudeMode>
      <coordinates>9.11377, 46.9982,20</coordinates>
    </Point>
  </Placemark><Placemark>
    <name>Sool</name>
    <Style><LineStyle><width>2</width></LineStyle></Style>
    <Point>
      <extrude>1</extrude>
      <tesselate>0</tesselate>
      <altitudeMode>relativeToGround</altitudeMode>
      <coordinates>9.08485, 46.9986,20</coordinates>
    </Point>
  </Placemark><Placemark>
    <name>Kies (Niederental)</name>
    <Style><LineStyle><width>2</width></LineStyle></Style>
    <Point>
      <extrude>1</extrude>
      <tesselate>0</tesselate>
      <altitudeMode>relativeToGround</altitudeMode>
      <coordinates>9.09048, 46.968,20</coordinates>
    </Point>
  </Placemark><Placemark>
    <name>Schwändi b. Schwanden GL, Post</name>
    <Style><LineStyle><width>2</width></LineStyle></Style>
    <Point>
      <extrude>1</extrude>
      <tesselate>0</tesselate>
      <altitudeMode>relativeToGround</altitudeMode>
      <coordinates>9.06664, 47.0052,20</coordinates>
    </Point>
  </Placemark><Placemark>
    <name>Riedern GL, Staldengarten</name>
    <Style><LineStyle><width>2</width></LineStyle></Style>
    <Point>
      <extrude>1</extrude>
      <tesselate>0</tesselate>
      <altitudeMode>relativeToGround</altitudeMode>
      <coordinates>9.03799, 47.0479,20</coordinates>
    </Point>
  </Placemark><Placemark>
    <name>Riedern GL, Post</name>
    <Style><LineStyle><width>2</width></LineStyle></Style>
    <Point>
      <extrude>1</extrude>
      <tesselate>0</tesselate>
      <altitudeMode>relativeToGround</altitudeMode>
      <coordinates>9.05251, 47.0493,20</coordinates>
    </Point>
  </Placemark></Document>
</kml>
