<kml>
<Document>

<Region>
<LatLonAltBox>
<north>47.326450</north><south>46.796500</south><east>10.665400</east><west>9.447230</west>
<minAltitude>0.000000</minAltitude><maxAltitude>0.000000</maxAltitude>
</LatLonAltBox>
<minLodPixels>2048</minLodPixels><maxLodPixels>1000000000</maxLodPixels>
<minFadeExtent>0</minFadeExtent><maxFadeExtent>0</maxFadeExtent>
</Region>
<NetworkLink>
<name>0130</name>

<Region>
<LatLonAltBox>
<north>47.326450</north><south>47.061475</south><east>10.056315</east><west>9.447230</west>
<minAltitude>0.000000</minAltitude><maxAltitude>0.000000</maxAltitude>
</LatLonAltBox>
<minLodPixels>256</minLodPixels><maxLodPixels>1000000000</maxLodPixels>
<minFadeExtent>0</minFadeExtent><maxFadeExtent>0</maxFadeExtent>
</Region>
<Link>
<href>0130.kml</href><viewRefreshMode>onRegion</viewRefreshMode></Link>
</NetworkLink>
<NetworkLink>
<name>0131</name>

<Region>
<LatLonAltBox>
<north>47.326450</north><south>47.061475</south><east>10.665400</east><west>10.056315</west>
<minAltitude>0.000000</minAltitude><maxAltitude>0.000000</maxAltitude>
</LatLonAltBox>
<minLodPixels>256</minLodPixels><maxLodPixels>1000000000</maxLodPixels>
<minFadeExtent>0</minFadeExtent><maxFadeExtent>0</maxFadeExtent>
</Region>
<Link>
<href>0131.kml</href><viewRefreshMode>onRegion</viewRefreshMode></Link>
</NetworkLink>
<NetworkLink>
<name>0132</name>

<Region>
<LatLonAltBox>
<north>47.061475</north><south>46.796500</south><east>10.056315</east><west>9.447230</west>
<minAltitude>0.000000</minAltitude><maxAltitude>0.000000</maxAltitude>
</LatLonAltBox>
<minLodPixels>256</minLodPixels><maxLodPixels>1000000000</maxLodPixels>
<minFadeExtent>0</minFadeExtent><maxFadeExtent>0</maxFadeExtent>
</Region>
<Link>
<href>0132.kml</href><viewRefreshMode>onRegion</viewRefreshMode></Link>
</NetworkLink>
<NetworkLink>
<name>0133</name>

<Region>
<LatLonAltBox>
<north>47.061475</north><south>46.796500</south><east>10.665400</east><west>10.056315</west>
<minAltitude>0.000000</minAltitude><maxAltitude>0.000000</maxAltitude>
</LatLonAltBox>
<minLodPixels>256</minLodPixels><maxLodPixels>1000000000</maxLodPixels>
<minFadeExtent>0</minFadeExtent><maxFadeExtent>0</maxFadeExtent>
</Region>
<Link>
<href>0133.kml</href><viewRefreshMode>onRegion</viewRefreshMode></Link>
</NetworkLink>
<Placemark>
    <name>Landquart, Ganda</name>
    <Style><LineStyle><width>2</width></LineStyle></Style>
    <Point>
      <extrude>1</extrude>
      <tesselate>0</tesselate>
      <altitudeMode>relativeToGround</altitudeMode>
      <coordinates>9.59498, 46.9702,20</coordinates>
    </Point>
  </Placemark><Placemark>
    <name>Mastrils, Rösliplatz</name>
    <Style><LineStyle><width>2</width></LineStyle></Style>
    <Point>
      <extrude>1</extrude>
      <tesselate>0</tesselate>
      <altitudeMode>relativeToGround</altitudeMode>
      <coordinates>9.53417, 46.9868,20</coordinates>
    </Point>
  </Placemark><Placemark>
    <name>Mastrils, Birke</name>
    <Style><LineStyle><width>2</width></LineStyle></Style>
    <Point>
      <extrude>1</extrude>
      <tesselate>0</tesselate>
      <altitudeMode>relativeToGround</altitudeMode>
      <coordinates>9.54528, 46.9683,20</coordinates>
    </Point>
  </Placemark><Placemark>
    <name>Mastrils, Tardisbrücke</name>
    <Style><LineStyle><width>2</width></LineStyle></Style>
    <Point>
      <extrude>1</extrude>
      <tesselate>0</tesselate>
      <altitudeMode>relativeToGround</altitudeMode>
      <coordinates>9.54989, 46.9718,20</coordinates>
    </Point>
  </Placemark><Placemark>
    <name>Mastrils, Piz Alun</name>
    <Style><LineStyle><width>2</width></LineStyle></Style>
    <Point>
      <extrude>1</extrude>
      <tesselate>0</tesselate>
      <altitudeMode>relativeToGround</altitudeMode>
      <coordinates>9.53293, 46.9886,20</coordinates>
    </Point>
  </Placemark><Placemark>
    <name>Obersays</name>
    <Style><LineStyle><width>2</width></LineStyle></Style>
    <Point>
      <extrude>1</extrude>
      <tesselate>0</tesselate>
      <altitudeMode>relativeToGround</altitudeMode>
      <coordinates>9.58259, 46.9067,20</coordinates>
    </Point>
  </Placemark><Placemark>
    <name>Says, Post</name>
    <Style><LineStyle><width>2</width></LineStyle></Style>
    <Point>
      <extrude>1</extrude>
      <tesselate>0</tesselate>
      <altitudeMode>relativeToGround</altitudeMode>
      <coordinates>9.57556, 46.9033,20</coordinates>
    </Point>
  </Placemark><Placemark>
    <name>Chur, Agip</name>
    <Style><LineStyle><width>2</width></LineStyle></Style>
    <Point>
      <extrude>1</extrude>
      <tesselate>0</tesselate>
      <altitudeMode>relativeToGround</altitudeMode>
      <coordinates>9.51132, 46.8463,20</coordinates>
    </Point>
  </Placemark><Placemark>
    <name>Chur, Zeughaus</name>
    <Style><LineStyle><width>2</width></LineStyle></Style>
    <Point>
      <extrude>1</extrude>
      <tesselate>0</tesselate>
      <altitudeMode>relativeToGround</altitudeMode>
      <coordinates>9.51659, 46.8467,20</coordinates>
    </Point>
  </Placemark><Placemark>
    <name>Chur, Kornquader</name>
    <Style><LineStyle><width>2</width></LineStyle></Style>
    <Point>
      <extrude>1</extrude>
      <tesselate>0</tesselate>
      <altitudeMode>relativeToGround</altitudeMode>
      <coordinates>9.51914, 46.8469,20</coordinates>
    </Point>
  </Placemark><Placemark>
    <name>Chur, Stadthalle</name>
    <Style><LineStyle><width>2</width></LineStyle></Style>
    <Point>
      <extrude>1</extrude>
      <tesselate>0</tesselate>
      <altitudeMode>relativeToGround</altitudeMode>
      <coordinates>9.5256, 46.8475,20</coordinates>
    </Point>
  </Placemark><Placemark>
    <name>Furna, Hinterberg</name>
    <Style><LineStyle><width>2</width></LineStyle></Style>
    <Point>
      <extrude>1</extrude>
      <tesselate>0</tesselate>
      <altitudeMode>relativeToGround</altitudeMode>
      <coordinates>9.66215, 46.9255,20</coordinates>
    </Point>
  </Placemark><Placemark>
    <name>Sent, Sur En</name>
    <Style><LineStyle><width>2</width></LineStyle></Style>
    <Point>
      <extrude>1</extrude>
      <tesselate>0</tesselate>
      <altitudeMode>relativeToGround</altitudeMode>
      <coordinates>10.3629, 46.8163,20</coordinates>
    </Point>
  </Placemark><Placemark>
    <name>Gaflei</name>
    <Style><LineStyle><width>2</width></LineStyle></Style>
    <Point>
      <extrude>1</extrude>
      <tesselate>0</tesselate>
      <altitudeMode>relativeToGround</altitudeMode>
      <coordinates>9.54459, 47.1432,20</coordinates>
    </Point>
  </Placemark><Placemark>
    <name>Malix, Rezia</name>
    <Style><LineStyle><width>2</width></LineStyle></Style>
    <Point>
      <extrude>1</extrude>
      <tesselate>0</tesselate>
      <altitudeMode>relativeToGround</altitudeMode>
      <coordinates>9.53273, 46.8066,20</coordinates>
    </Point>
  </Placemark><Placemark>
    <name>Chur, St. Antönierrank</name>
    <Style><LineStyle><width>2</width></LineStyle></Style>
    <Point>
      <extrude>1</extrude>
      <tesselate>0</tesselate>
      <altitudeMode>relativeToGround</altitudeMode>
      <coordinates>9.53108, 46.845,20</coordinates>
    </Point>
  </Placemark><Placemark>
    <name>Chur, Araschgerrank</name>
    <Style><LineStyle><width>2</width></LineStyle></Style>
    <Point>
      <extrude>1</extrude>
      <tesselate>0</tesselate>
      <altitudeMode>relativeToGround</altitudeMode>
      <coordinates>9.53914, 46.8399,20</coordinates>
    </Point>
  </Placemark><Placemark>
    <name>Malix, Kreuz</name>
    <Style><LineStyle><width>2</width></LineStyle></Style>
    <Point>
      <extrude>1</extrude>
      <tesselate>0</tesselate>
      <altitudeMode>relativeToGround</altitudeMode>
      <coordinates>9.53944, 46.8274,20</coordinates>
    </Point>
  </Placemark><Placemark>
    <name>Seewis Dorf, Saldos</name>
    <Style><LineStyle><width>2</width></LineStyle></Style>
    <Point>
      <extrude>1</extrude>
      <tesselate>0</tesselate>
      <altitudeMode>relativeToGround</altitudeMode>
      <coordinates>9.63658, 46.9829,20</coordinates>
    </Point>
  </Placemark><Placemark>
    <name>Seewis Dorf, Parschientsch</name>
    <Style><LineStyle><width>2</width></LineStyle></Style>
    <Point>
      <extrude>1</extrude>
      <tesselate>0</tesselate>
      <altitudeMode>relativeToGround</altitudeMode>
      <coordinates>9.63578, 46.9874,20</coordinates>
    </Point>
  </Placemark><Placemark>
    <name>Seewis Dorf, Leschga</name>
    <Style><LineStyle><width>2</width></LineStyle></Style>
    <Point>
      <extrude>1</extrude>
      <tesselate>0</tesselate>
      <altitudeMode>relativeToGround</altitudeMode>
      <coordinates>9.64075, 46.9884,20</coordinates>
    </Point>
  </Placemark><Placemark>
    <name>Chur, Malteser</name>
    <Style><LineStyle><width>2</width></LineStyle></Style>
    <Point>
      <extrude>1</extrude>
      <tesselate>0</tesselate>
      <altitudeMode>relativeToGround</altitudeMode>
      <coordinates>9.52914, 46.8485,20</coordinates>
    </Point>
  </Placemark><Placemark>
    <name>Egga b. Malix</name>
    <Style><LineStyle><width>2</width></LineStyle></Style>
    <Point>
      <extrude>1</extrude>
      <tesselate>0</tesselate>
      <altitudeMode>relativeToGround</altitudeMode>
      <coordinates>9.53173, 46.7977,20</coordinates>
    </Point>
  </Placemark><Placemark>
    <name>Sevelen, Post</name>
    <Style><LineStyle><width>2</width></LineStyle></Style>
    <Point>
      <extrude>1</extrude>
      <tesselate>0</tesselate>
      <altitudeMode>relativeToGround</altitudeMode>
      <coordinates>9.49402, 47.1228,20</coordinates>
    </Point>
  </Placemark><Placemark>
    <name>Triesen, Gartnetschhof</name>
    <Style><LineStyle><width>2</width></LineStyle></Style>
    <Point>
      <extrude>1</extrude>
      <tesselate>0</tesselate>
      <altitudeMode>relativeToGround</altitudeMode>
      <coordinates>9.52382, 47.0925,20</coordinates>
    </Point>
  </Placemark><Placemark>
    <name>Triesen, Bächlegatter</name>
    <Style><LineStyle><width>2</width></LineStyle></Style>
    <Point>
      <extrude>1</extrude>
      <tesselate>0</tesselate>
      <altitudeMode>relativeToGround</altitudeMode>
      <coordinates>9.52453, 47.1024,20</coordinates>
    </Point>
  </Placemark><Placemark>
    <name>Vaduz, Au</name>
    <Style><LineStyle><width>2</width></LineStyle></Style>
    <Point>
      <extrude>1</extrude>
      <tesselate>0</tesselate>
      <altitudeMode>relativeToGround</altitudeMode>
      <coordinates>9.52235, 47.131,20</coordinates>
    </Point>
  </Placemark><Placemark>
    <name>Vaduz, Spital</name>
    <Style><LineStyle><width>2</width></LineStyle></Style>
    <Point>
      <extrude>1</extrude>
      <tesselate>0</tesselate>
      <altitudeMode>relativeToGround</altitudeMode>
      <coordinates>9.52213, 47.1339,20</coordinates>
    </Point>
  </Placemark><Placemark>
    <name>Vaduz, Quäderle</name>
    <Style><LineStyle><width>2</width></LineStyle></Style>
    <Point>
      <extrude>1</extrude>
      <tesselate>0</tesselate>
      <altitudeMode>relativeToGround</altitudeMode>
      <coordinates>9.51821, 47.1432,20</coordinates>
    </Point>
  </Placemark><Placemark>
    <name>Triesen, Adler</name>
    <Style><LineStyle><width>2</width></LineStyle></Style>
    <Point>
      <extrude>1</extrude>
      <tesselate>0</tesselate>
      <altitudeMode>relativeToGround</altitudeMode>
      <coordinates>9.52503, 47.1067,20</coordinates>
    </Point>
  </Placemark><Placemark>
    <name>Triesen, Maschlina</name>
    <Style><LineStyle><width>2</width></LineStyle></Style>
    <Point>
      <extrude>1</extrude>
      <tesselate>0</tesselate>
      <altitudeMode>relativeToGround</altitudeMode>
      <coordinates>9.52374, 47.1159,20</coordinates>
    </Point>
  </Placemark><Placemark>
    <name>Vaduz, Rütti</name>
    <Style><LineStyle><width>2</width></LineStyle></Style>
    <Point>
      <extrude>1</extrude>
      <tesselate>0</tesselate>
      <altitudeMode>relativeToGround</altitudeMode>
      <coordinates>9.52315, 47.126,20</coordinates>
    </Point>
  </Placemark><Placemark>
    <name>Gamprin, Abzw. Badäl-Schlatt</name>
    <Style><LineStyle><width>2</width></LineStyle></Style>
    <Point>
      <extrude>1</extrude>
      <tesselate>0</tesselate>
      <altitudeMode>relativeToGround</altitudeMode>
      <coordinates>9.51607, 47.2292,20</coordinates>
    </Point>
  </Placemark><Placemark>
    <name>Mittellunden, Dorf</name>
    <Style><LineStyle><width>2</width></LineStyle></Style>
    <Point>
      <extrude>1</extrude>
      <tesselate>0</tesselate>
      <altitudeMode>relativeToGround</altitudeMode>
      <coordinates>9.71194, 46.9459,20</coordinates>
    </Point>
  </Placemark><Placemark>
    <name>Luzein, Post</name>
    <Style><LineStyle><width>2</width></LineStyle></Style>
    <Point>
      <extrude>1</extrude>
      <tesselate>0</tesselate>
      <altitudeMode>relativeToGround</altitudeMode>
      <coordinates>9.76731, 46.9198,20</coordinates>
    </Point>
  </Placemark><Placemark>
    <name>Valens, Post</name>
    <Style><LineStyle><width>2</width></LineStyle></Style>
    <Point>
      <extrude>1</extrude>
      <tesselate>0</tesselate>
      <altitudeMode>relativeToGround</altitudeMode>
      <coordinates>9.48521, 46.9699,20</coordinates>
    </Point>
  </Placemark><Placemark>
    <name>Vnà, posta</name>
    <Style><LineStyle><width>2</width></LineStyle></Style>
    <Point>
      <extrude>1</extrude>
      <tesselate>0</tesselate>
      <altitudeMode>relativeToGround</altitudeMode>
      <coordinates>10.3643, 46.8437,20</coordinates>
    </Point>
  </Placemark><Placemark>
    <name>Feldkirch, Katzenturm</name>
    <Style><LineStyle><width>2</width></LineStyle></Style>
    <Point>
      <extrude>1</extrude>
      <tesselate>0</tesselate>
      <altitudeMode>relativeToGround</altitudeMode>
      <coordinates>9.5969, 47.2385,20</coordinates>
    </Point>
  </Placemark><Placemark>
    <name>Tschlin, Terza Storta</name>
    <Style><LineStyle><width>2</width></LineStyle></Style>
    <Point>
      <extrude>1</extrude>
      <tesselate>0</tesselate>
      <altitudeMode>relativeToGround</altitudeMode>
      <coordinates>10.4261, 46.859,20</coordinates>
    </Point>
  </Placemark><Placemark>
    <name>Vaduz, Lettstrasse</name>
    <Style><LineStyle><width>2</width></LineStyle></Style>
    <Point>
      <extrude>1</extrude>
      <tesselate>0</tesselate>
      <altitudeMode>relativeToGround</altitudeMode>
      <coordinates>9.52029, 47.1408,20</coordinates>
    </Point>
  </Placemark><Placemark>
    <name>Sent, Tuffera</name>
    <Style><LineStyle><width>2</width></LineStyle></Style>
    <Point>
      <extrude>1</extrude>
      <tesselate>0</tesselate>
      <altitudeMode>relativeToGround</altitudeMode>
      <coordinates>10.3475, 46.8173,20</coordinates>
    </Point>
  </Placemark><Placemark>
    <name>Chur, Sardona</name>
    <Style><LineStyle><width>2</width></LineStyle></Style>
    <Point>
      <extrude>1</extrude>
      <tesselate>0</tesselate>
      <altitudeMode>relativeToGround</altitudeMode>
      <coordinates>9.51583, 46.8599,20</coordinates>
    </Point>
  </Placemark><Placemark>
    <name>Bendern, Pinocchio</name>
    <Style><LineStyle><width>2</width></LineStyle></Style>
    <Point>
      <extrude>1</extrude>
      <tesselate>0</tesselate>
      <altitudeMode>relativeToGround</altitudeMode>
      <coordinates>9.50154, 47.1982,20</coordinates>
    </Point>
  </Placemark><Placemark>
    <name>Planken, Schulhaus</name>
    <Style><LineStyle><width>2</width></LineStyle></Style>
    <Point>
      <extrude>1</extrude>
      <tesselate>0</tesselate>
      <altitudeMode>relativeToGround</altitudeMode>
      <coordinates>9.54526, 47.1855,20</coordinates>
    </Point>
  </Placemark><Placemark>
    <name>Buchen im Prättigau, Terfals</name>
    <Style><LineStyle><width>2</width></LineStyle></Style>
    <Point>
      <extrude>1</extrude>
      <tesselate>0</tesselate>
      <altitudeMode>relativeToGround</altitudeMode>
      <coordinates>9.72587, 46.9336,20</coordinates>
    </Point>
  </Placemark><Placemark>
    <name>Triesenberg, Abzw. Silum</name>
    <Style><LineStyle><width>2</width></LineStyle></Style>
    <Point>
      <extrude>1</extrude>
      <tesselate>0</tesselate>
      <altitudeMode>relativeToGround</altitudeMode>
      <coordinates>9.54525, 47.1349,20</coordinates>
    </Point>
  </Placemark><Placemark>
    <name>Triesenberg, Matu</name>
    <Style><LineStyle><width>2</width></LineStyle></Style>
    <Point>
      <extrude>1</extrude>
      <tesselate>0</tesselate>
      <altitudeMode>relativeToGround</altitudeMode>
      <coordinates>9.5441, 47.1392,20</coordinates>
    </Point>
  </Placemark><Placemark>
    <name>Vaduz, Schwefel</name>
    <Style><LineStyle><width>2</width></LineStyle></Style>
    <Point>
      <extrude>1</extrude>
      <tesselate>0</tesselate>
      <altitudeMode>relativeToGround</altitudeMode>
      <coordinates>9.52548, 47.1267,20</coordinates>
    </Point>
  </Placemark><Placemark>
    <name>Trübbach, Post</name>
    <Style><LineStyle><width>2</width></LineStyle></Style>
    <Point>
      <extrude>1</extrude>
      <tesselate>0</tesselate>
      <altitudeMode>relativeToGround</altitudeMode>
      <coordinates>9.48022, 47.0721,20</coordinates>
    </Point>
  </Placemark></Document>
</kml>
