<kml>
<Document>

<Region>
<LatLonAltBox>
<north>47.061475</north><south>46.928988</south><east>10.056315</east><west>9.751773</west>
<minAltitude>0.000000</minAltitude><maxAltitude>0.000000</maxAltitude>
</LatLonAltBox>
<minLodPixels>2048</minLodPixels><maxLodPixels>1000000000</maxLodPixels>
<minFadeExtent>0</minFadeExtent><maxFadeExtent>0</maxFadeExtent>
</Region>
<Placemark>
    <name>St. Antönien, Rüti</name>
    <Style><LineStyle><width>2</width></LineStyle></Style>
    <Point>
      <extrude>1</extrude>
      <tesselate>0</tesselate>
      <altitudeMode>relativeToGround</altitudeMode>
      <coordinates>9.8295, 46.9743,20</coordinates>
    </Point>
  </Placemark><Placemark>
    <name>St. Antönien, Post</name>
    <Style><LineStyle><width>2</width></LineStyle></Style>
    <Point>
      <extrude>1</extrude>
      <tesselate>0</tesselate>
      <altitudeMode>relativeToGround</altitudeMode>
      <coordinates>9.81352, 46.9697,20</coordinates>
    </Point>
  </Placemark><Placemark>
    <name>Gadenstätt</name>
    <Style><LineStyle><width>2</width></LineStyle></Style>
    <Point>
      <extrude>1</extrude>
      <tesselate>0</tesselate>
      <altitudeMode>relativeToGround</altitudeMode>
      <coordinates>9.80053, 46.9508,20</coordinates>
    </Point>
  </Placemark><Placemark>
    <name>Ascharina, alte Post</name>
    <Style><LineStyle><width>2</width></LineStyle></Style>
    <Point>
      <extrude>1</extrude>
      <tesselate>0</tesselate>
      <altitudeMode>relativeToGround</altitudeMode>
      <coordinates>9.8101, 46.9608,20</coordinates>
    </Point>
  </Placemark><Placemark>
    <name>Pany, Schulhaus</name>
    <Style><LineStyle><width>2</width></LineStyle></Style>
    <Point>
      <extrude>1</extrude>
      <tesselate>0</tesselate>
      <altitudeMode>relativeToGround</altitudeMode>
      <coordinates>9.777, 46.931,20</coordinates>
    </Point>
  </Placemark><Placemark>
    <name>Ascharina, Alpbachbrücke</name>
    <Style><LineStyle><width>2</width></LineStyle></Style>
    <Point>
      <extrude>1</extrude>
      <tesselate>0</tesselate>
      <altitudeMode>relativeToGround</altitudeMode>
      <coordinates>9.80948, 46.9675,20</coordinates>
    </Point>
  </Placemark><Placemark>
    <name>St. Antönien, Waldheim</name>
    <Style><LineStyle><width>2</width></LineStyle></Style>
    <Point>
      <extrude>1</extrude>
      <tesselate>0</tesselate>
      <altitudeMode>relativeToGround</altitudeMode>
      <coordinates>9.8188, 46.9702,20</coordinates>
    </Point>
  </Placemark><Placemark>
    <name>St. Antönien, Meierhof</name>
    <Style><LineStyle><width>2</width></LineStyle></Style>
    <Point>
      <extrude>1</extrude>
      <tesselate>0</tesselate>
      <altitudeMode>relativeToGround</altitudeMode>
      <coordinates>9.8188, 46.9702,20</coordinates>
    </Point>
  </Placemark></Document>
</kml>
