<kml>
<Document>

<Region>
<LatLonAltBox>
<north>47.061475</north><south>46.995231</south><east>9.599501</east><west>9.447230</west>
<minAltitude>0.000000</minAltitude><maxAltitude>0.000000</maxAltitude>
</LatLonAltBox>
<minLodPixels>2048</minLodPixels><maxLodPixels>1000000000</maxLodPixels>
<minFadeExtent>0</minFadeExtent><maxFadeExtent>0</maxFadeExtent>
</Region>
<Placemark>
    <name>Maienfeld, Post</name>
    <Style><LineStyle><width>2</width></LineStyle></Style>
    <Point>
      <extrude>1</extrude>
      <tesselate>0</tesselate>
      <altitudeMode>relativeToGround</altitudeMode>
      <coordinates>9.53107, 47.0082,20</coordinates>
    </Point>
  </Placemark><Placemark>
    <name>Bad Ragaz, Post</name>
    <Style><LineStyle><width>2</width></LineStyle></Style>
    <Point>
      <extrude>1</extrude>
      <tesselate>0</tesselate>
      <altitudeMode>relativeToGround</altitudeMode>
      <coordinates>9.50032, 47.0041,20</coordinates>
    </Point>
  </Placemark><Placemark>
    <name>Bad Ragaz, Alpweg</name>
    <Style><LineStyle><width>2</width></LineStyle></Style>
    <Point>
      <extrude>1</extrude>
      <tesselate>0</tesselate>
      <altitudeMode>relativeToGround</altitudeMode>
      <coordinates>9.50125, 47.0027,20</coordinates>
    </Point>
  </Placemark><Placemark>
    <name>Vilters, Sarganserstrasse</name>
    <Style><LineStyle><width>2</width></LineStyle></Style>
    <Point>
      <extrude>1</extrude>
      <tesselate>0</tesselate>
      <altitudeMode>relativeToGround</altitudeMode>
      <coordinates>9.44773, 47.0311,20</coordinates>
    </Point>
  </Placemark><Placemark>
    <name>Vilters, Grofisstrasse</name>
    <Style><LineStyle><width>2</width></LineStyle></Style>
    <Point>
      <extrude>1</extrude>
      <tesselate>0</tesselate>
      <altitudeMode>relativeToGround</altitudeMode>
      <coordinates>9.44886, 47.0261,20</coordinates>
    </Point>
  </Placemark><Placemark>
    <name>Bad Ragaz, Schulhaus</name>
    <Style><LineStyle><width>2</width></LineStyle></Style>
    <Point>
      <extrude>1</extrude>
      <tesselate>0</tesselate>
      <altitudeMode>relativeToGround</altitudeMode>
      <coordinates>9.50337, 47.0065,20</coordinates>
    </Point>
  </Placemark><Placemark>
    <name>Fläsch, Post</name>
    <Style><LineStyle><width>2</width></LineStyle></Style>
    <Point>
      <extrude>1</extrude>
      <tesselate>0</tesselate>
      <altitudeMode>relativeToGround</altitudeMode>
      <coordinates>9.51372, 47.0274,20</coordinates>
    </Point>
  </Placemark><Placemark>
    <name>Bad Ragaz, Pizolbahn</name>
    <Style><LineStyle><width>2</width></LineStyle></Style>
    <Point>
      <extrude>1</extrude>
      <tesselate>0</tesselate>
      <altitudeMode>relativeToGround</altitudeMode>
      <coordinates>9.49459, 47.0089,20</coordinates>
    </Point>
  </Placemark><Placemark>
    <name>Bad Ragaz, Abzw. St. Leonhard</name>
    <Style><LineStyle><width>2</width></LineStyle></Style>
    <Point>
      <extrude>1</extrude>
      <tesselate>0</tesselate>
      <altitudeMode>relativeToGround</altitudeMode>
      <coordinates>9.4918, 47.0134,20</coordinates>
    </Point>
  </Placemark><Placemark>
    <name>Maienfeld, Bahnhof</name>
    <Style><LineStyle><width>2</width></LineStyle></Style>
    <Point>
      <extrude>1</extrude>
      <tesselate>0</tesselate>
      <altitudeMode>relativeToGround</altitudeMode>
      <coordinates>9.52925, 47.0038,20</coordinates>
    </Point>
  </Placemark><Placemark>
    <name>Maienfeld, Altersheim</name>
    <Style><LineStyle><width>2</width></LineStyle></Style>
    <Point>
      <extrude>1</extrude>
      <tesselate>0</tesselate>
      <altitudeMode>relativeToGround</altitudeMode>
      <coordinates>9.53496, 47.0068,20</coordinates>
    </Point>
  </Placemark><Placemark>
    <name>Balzers, Traube Mäls</name>
    <Style><LineStyle><width>2</width></LineStyle></Style>
    <Point>
      <extrude>1</extrude>
      <tesselate>0</tesselate>
      <altitudeMode>relativeToGround</altitudeMode>
      <coordinates>9.49561, 47.0613,20</coordinates>
    </Point>
  </Placemark></Document>
</kml>
