<kml>
<Document>

<Region>
<LatLonAltBox>
<north>46.995231</north><south>46.928988</south><east>9.751773</east><west>9.599501</west>
<minAltitude>0.000000</minAltitude><maxAltitude>0.000000</maxAltitude>
</LatLonAltBox>
<minLodPixels>2048</minLodPixels><maxLodPixels>1000000000</maxLodPixels>
<minFadeExtent>0</minFadeExtent><maxFadeExtent>0</maxFadeExtent>
</Region>
<Placemark>
    <name>Pragg, Jarella</name>
    <Style><LineStyle><width>2</width></LineStyle></Style>
    <Point>
      <extrude>1</extrude>
      <tesselate>0</tesselate>
      <altitudeMode>relativeToGround</altitudeMode>
      <coordinates>9.69633, 46.9419,20</coordinates>
    </Point>
  </Placemark><Placemark>
    <name>Grüsch, Bahnhof</name>
    <Style><LineStyle><width>2</width></LineStyle></Style>
    <Point>
      <extrude>1</extrude>
      <tesselate>0</tesselate>
      <altitudeMode>relativeToGround</altitudeMode>
      <coordinates>9.64536, 46.9804,20</coordinates>
    </Point>
  </Placemark><Placemark>
    <name>Seewis-Valzeina, Bahnhof</name>
    <Style><LineStyle><width>2</width></LineStyle></Style>
    <Point>
      <extrude>1</extrude>
      <tesselate>0</tesselate>
      <altitudeMode>relativeToGround</altitudeMode>
      <coordinates>9.63208, 46.9773,20</coordinates>
    </Point>
  </Placemark><Placemark>
    <name>Schmitten (Seewis)</name>
    <Style><LineStyle><width>2</width></LineStyle></Style>
    <Point>
      <extrude>1</extrude>
      <tesselate>0</tesselate>
      <altitudeMode>relativeToGround</altitudeMode>
      <coordinates>9.64039, 46.9794,20</coordinates>
    </Point>
  </Placemark><Placemark>
    <name>Pragg, Unterjarella</name>
    <Style><LineStyle><width>2</width></LineStyle></Style>
    <Point>
      <extrude>1</extrude>
      <tesselate>0</tesselate>
      <altitudeMode>relativeToGround</altitudeMode>
      <coordinates>9.69898, 46.9425,20</coordinates>
    </Point>
  </Placemark><Placemark>
    <name>Pragg, Bänkli</name>
    <Style><LineStyle><width>2</width></LineStyle></Style>
    <Point>
      <extrude>1</extrude>
      <tesselate>0</tesselate>
      <altitudeMode>relativeToGround</altitudeMode>
      <coordinates>9.69037, 46.9407,20</coordinates>
    </Point>
  </Placemark><Placemark>
    <name>Schiers, Schrau</name>
    <Style><LineStyle><width>2</width></LineStyle></Style>
    <Point>
      <extrude>1</extrude>
      <tesselate>0</tesselate>
      <altitudeMode>relativeToGround</altitudeMode>
      <coordinates>9.69733, 46.9657,20</coordinates>
    </Point>
  </Placemark><Placemark>
    <name>Furna, Abzw. Hasenboden</name>
    <Style><LineStyle><width>2</width></LineStyle></Style>
    <Point>
      <extrude>1</extrude>
      <tesselate>0</tesselate>
      <altitudeMode>relativeToGround</altitudeMode>
      <coordinates>9.67568, 46.9351,20</coordinates>
    </Point>
  </Placemark><Placemark>
    <name>Furna, Abzw. Platta</name>
    <Style><LineStyle><width>2</width></LineStyle></Style>
    <Point>
      <extrude>1</extrude>
      <tesselate>0</tesselate>
      <altitudeMode>relativeToGround</altitudeMode>
      <coordinates>9.68006, 46.9377,20</coordinates>
    </Point>
  </Placemark><Placemark>
    <name>Furna, Rasitsch</name>
    <Style><LineStyle><width>2</width></LineStyle></Style>
    <Point>
      <extrude>1</extrude>
      <tesselate>0</tesselate>
      <altitudeMode>relativeToGround</altitudeMode>
      <coordinates>9.67329, 46.9329,20</coordinates>
    </Point>
  </Placemark><Placemark>
    <name>Furna, Kirche</name>
    <Style><LineStyle><width>2</width></LineStyle></Style>
    <Point>
      <extrude>1</extrude>
      <tesselate>0</tesselate>
      <altitudeMode>relativeToGround</altitudeMode>
      <coordinates>9.67376, 46.9363,20</coordinates>
    </Point>
  </Placemark><Placemark>
    <name>Pragg, Katzenboden</name>
    <Style><LineStyle><width>2</width></LineStyle></Style>
    <Point>
      <extrude>1</extrude>
      <tesselate>0</tesselate>
      <altitudeMode>relativeToGround</altitudeMode>
      <coordinates>9.70421, 46.9417,20</coordinates>
    </Point>
  </Placemark><Placemark>
    <name>Furna, Gerbi</name>
    <Style><LineStyle><width>2</width></LineStyle></Style>
    <Point>
      <extrude>1</extrude>
      <tesselate>0</tesselate>
      <altitudeMode>relativeToGround</altitudeMode>
      <coordinates>9.67248, 46.9291,20</coordinates>
    </Point>
  </Placemark><Placemark>
    <name>Schiers, Quadara/Feld</name>
    <Style><LineStyle><width>2</width></LineStyle></Style>
    <Point>
      <extrude>1</extrude>
      <tesselate>0</tesselate>
      <altitudeMode>relativeToGround</altitudeMode>
      <coordinates>9.67304, 46.9743,20</coordinates>
    </Point>
  </Placemark><Placemark>
    <name>Pragg, Bahnhof Furna</name>
    <Style><LineStyle><width>2</width></LineStyle></Style>
    <Point>
      <extrude>1</extrude>
      <tesselate>0</tesselate>
      <altitudeMode>relativeToGround</altitudeMode>
      <coordinates>9.70969, 46.9393,20</coordinates>
    </Point>
  </Placemark><Placemark>
    <name>Buchen im Prättigau, Post</name>
    <Style><LineStyle><width>2</width></LineStyle></Style>
    <Point>
      <extrude>1</extrude>
      <tesselate>0</tesselate>
      <altitudeMode>relativeToGround</altitudeMode>
      <coordinates>9.71569, 46.9413,20</coordinates>
    </Point>
  </Placemark><Placemark>
    <name>Jenaz,Rosengarten/Schulanlagen</name>
    <Style><LineStyle><width>2</width></LineStyle></Style>
    <Point>
      <extrude>1</extrude>
      <tesselate>0</tesselate>
      <altitudeMode>relativeToGround</altitudeMode>
      <coordinates>9.71485, 46.9309,20</coordinates>
    </Point>
  </Placemark><Placemark>
    <name>Furna, Post</name>
    <Style><LineStyle><width>2</width></LineStyle></Style>
    <Point>
      <extrude>1</extrude>
      <tesselate>0</tesselate>
      <altitudeMode>relativeToGround</altitudeMode>
      <coordinates>9.67872, 46.9371,20</coordinates>
    </Point>
  </Placemark><Placemark>
    <name>Mittellunden, Ufm Tobel</name>
    <Style><LineStyle><width>2</width></LineStyle></Style>
    <Point>
      <extrude>1</extrude>
      <tesselate>0</tesselate>
      <altitudeMode>relativeToGround</altitudeMode>
      <coordinates>9.71276, 46.9497,20</coordinates>
    </Point>
  </Placemark><Placemark>
    <name>Fajauna, Bodenrank</name>
    <Style><LineStyle><width>2</width></LineStyle></Style>
    <Point>
      <extrude>1</extrude>
      <tesselate>0</tesselate>
      <altitudeMode>relativeToGround</altitudeMode>
      <coordinates>9.69718, 46.97,20</coordinates>
    </Point>
  </Placemark><Placemark>
    <name>Valzeina, Geissgaden</name>
    <Style><LineStyle><width>2</width></LineStyle></Style>
    <Point>
      <extrude>1</extrude>
      <tesselate>0</tesselate>
      <altitudeMode>relativeToGround</altitudeMode>
      <coordinates>9.62294, 46.9708,20</coordinates>
    </Point>
  </Placemark><Placemark>
    <name>Valzeina, Ammengaden</name>
    <Style><LineStyle><width>2</width></LineStyle></Style>
    <Point>
      <extrude>1</extrude>
      <tesselate>0</tesselate>
      <altitudeMode>relativeToGround</altitudeMode>
      <coordinates>9.61869, 46.9713,20</coordinates>
    </Point>
  </Placemark><Placemark>
    <name>Valzeina, Boden</name>
    <Style><LineStyle><width>2</width></LineStyle></Style>
    <Point>
      <extrude>1</extrude>
      <tesselate>0</tesselate>
      <altitudeMode>relativeToGround</altitudeMode>
      <coordinates>9.61728, 46.9691,20</coordinates>
    </Point>
  </Placemark><Placemark>
    <name>Valzeina, Alpenrose</name>
    <Style><LineStyle><width>2</width></LineStyle></Style>
    <Point>
      <extrude>1</extrude>
      <tesselate>0</tesselate>
      <altitudeMode>relativeToGround</altitudeMode>
      <coordinates>9.60332, 46.9489,20</coordinates>
    </Point>
  </Placemark><Placemark>
    <name>Schiers, EMS/Spital</name>
    <Style><LineStyle><width>2</width></LineStyle></Style>
    <Point>
      <extrude>1</extrude>
      <tesselate>0</tesselate>
      <altitudeMode>relativeToGround</altitudeMode>
      <coordinates>9.68736, 46.9709,20</coordinates>
    </Point>
  </Placemark><Placemark>
    <name>Schiers, Bazolis</name>
    <Style><LineStyle><width>2</width></LineStyle></Style>
    <Point>
      <extrude>1</extrude>
      <tesselate>0</tesselate>
      <altitudeMode>relativeToGround</altitudeMode>
      <coordinates>9.70115, 46.9782,20</coordinates>
    </Point>
  </Placemark><Placemark>
    <name>Schiers, Loch</name>
    <Style><LineStyle><width>2</width></LineStyle></Style>
    <Point>
      <extrude>1</extrude>
      <tesselate>0</tesselate>
      <altitudeMode>relativeToGround</altitudeMode>
      <coordinates>9.69123, 46.9769,20</coordinates>
    </Point>
  </Placemark><Placemark>
    <name>Fanas, Kapitelhof</name>
    <Style><LineStyle><width>2</width></LineStyle></Style>
    <Point>
      <extrude>1</extrude>
      <tesselate>0</tesselate>
      <altitudeMode>relativeToGround</altitudeMode>
      <coordinates>9.66514, 46.9819,20</coordinates>
    </Point>
  </Placemark><Placemark>
    <name>Fanas, Neugaden</name>
    <Style><LineStyle><width>2</width></LineStyle></Style>
    <Point>
      <extrude>1</extrude>
      <tesselate>0</tesselate>
      <altitudeMode>relativeToGround</altitudeMode>
      <coordinates>9.6639, 46.9837,20</coordinates>
    </Point>
  </Placemark><Placemark>
    <name>Schiers, Obere Au</name>
    <Style><LineStyle><width>2</width></LineStyle></Style>
    <Point>
      <extrude>1</extrude>
      <tesselate>0</tesselate>
      <altitudeMode>relativeToGround</altitudeMode>
      <coordinates>9.67771, 46.9758,20</coordinates>
    </Point>
  </Placemark><Placemark>
    <name>Schiers, Tersier</name>
    <Style><LineStyle><width>2</width></LineStyle></Style>
    <Point>
      <extrude>1</extrude>
      <tesselate>0</tesselate>
      <altitudeMode>relativeToGround</altitudeMode>
      <coordinates>9.67254, 46.9779,20</coordinates>
    </Point>
  </Placemark><Placemark>
    <name>Fanas, Trügli</name>
    <Style><LineStyle><width>2</width></LineStyle></Style>
    <Point>
      <extrude>1</extrude>
      <tesselate>0</tesselate>
      <altitudeMode>relativeToGround</altitudeMode>
      <coordinates>9.65931, 46.9856,20</coordinates>
    </Point>
  </Placemark><Placemark>
    <name>Fanas, Kirche</name>
    <Style><LineStyle><width>2</width></LineStyle></Style>
    <Point>
      <extrude>1</extrude>
      <tesselate>0</tesselate>
      <altitudeMode>relativeToGround</altitudeMode>
      <coordinates>9.66662, 46.9841,20</coordinates>
    </Point>
  </Placemark><Placemark>
    <name>Fanas, Seilbahn</name>
    <Style><LineStyle><width>2</width></LineStyle></Style>
    <Point>
      <extrude>1</extrude>
      <tesselate>0</tesselate>
      <altitudeMode>relativeToGround</altitudeMode>
      <coordinates>9.66222, 46.986,20</coordinates>
    </Point>
  </Placemark><Placemark>
    <name>Seewis-Valzeina</name>
    <Style><LineStyle><width>2</width></LineStyle></Style>
    <Point>
      <extrude>1</extrude>
      <tesselate>0</tesselate>
      <altitudeMode>relativeToGround</altitudeMode>
      <coordinates>9.63254, 46.9769,20</coordinates>
    </Point>
  </Placemark><Placemark>
    <name>Grüsch</name>
    <Style><LineStyle><width>2</width></LineStyle></Style>
    <Point>
      <extrude>1</extrude>
      <tesselate>0</tesselate>
      <altitudeMode>relativeToGround</altitudeMode>
      <coordinates>9.64578, 46.9805,20</coordinates>
    </Point>
  </Placemark><Placemark>
    <name>Seewis Dorf, Post</name>
    <Style><LineStyle><width>2</width></LineStyle></Style>
    <Point>
      <extrude>1</extrude>
      <tesselate>0</tesselate>
      <altitudeMode>relativeToGround</altitudeMode>
      <coordinates>9.63756, 46.9907,20</coordinates>
    </Point>
  </Placemark><Placemark>
    <name>Grüsch, Abzw. Salätschis</name>
    <Style><LineStyle><width>2</width></LineStyle></Style>
    <Point>
      <extrude>1</extrude>
      <tesselate>0</tesselate>
      <altitudeMode>relativeToGround</altitudeMode>
      <coordinates>9.64416, 46.9753,20</coordinates>
    </Point>
  </Placemark></Document>
</kml>
