<kml>
<Document>

<Region>
<LatLonAltBox>
<north>46.730256</north><south>46.664012</south><east>7.010890</east><west>6.858619</west>
<minAltitude>0.000000</minAltitude><maxAltitude>0.000000</maxAltitude>
</LatLonAltBox>
<minLodPixels>2048</minLodPixels><maxLodPixels>1000000000</maxLodPixels>
<minFadeExtent>0</minFadeExtent><maxFadeExtent>0</maxFadeExtent>
</Region>
<Placemark>
    <name>Villars-Bramard, village</name>
    <Style><LineStyle><width>2</width></LineStyle></Style>
    <Point>
      <extrude>1</extrude>
      <tesselate>0</tesselate>
      <altitudeMode>relativeToGround</altitudeMode>
      <coordinates>6.89909, 46.7202,20</coordinates>
    </Point>
  </Placemark><Placemark>
    <name>Romont FR, Les Chavannes</name>
    <Style><LineStyle><width>2</width></LineStyle></Style>
    <Point>
      <extrude>1</extrude>
      <tesselate>0</tesselate>
      <altitudeMode>relativeToGround</altitudeMode>
      <coordinates>6.92314, 46.7014,20</coordinates>
    </Point>
  </Placemark><Placemark>
    <name>Villars-Bramard, Farzin</name>
    <Style><LineStyle><width>2</width></LineStyle></Style>
    <Point>
      <extrude>1</extrude>
      <tesselate>0</tesselate>
      <altitudeMode>relativeToGround</altitudeMode>
      <coordinates>6.9164, 46.7223,20</coordinates>
    </Point>
  </Placemark><Placemark>
    <name>Romont FR, Les Rochettes-PAA</name>
    <Style><LineStyle><width>2</width></LineStyle></Style>
    <Point>
      <extrude>1</extrude>
      <tesselate>0</tesselate>
      <altitudeMode>relativeToGround</altitudeMode>
      <coordinates>6.91978, 46.7111,20</coordinates>
    </Point>
  </Placemark><Placemark>
    <name>Villariaz, poste</name>
    <Style><LineStyle><width>2</width></LineStyle></Style>
    <Point>
      <extrude>1</extrude>
      <tesselate>0</tesselate>
      <altitudeMode>relativeToGround</altitudeMode>
      <coordinates>6.93949, 46.6648,20</coordinates>
    </Point>
  </Placemark><Placemark>
    <name>Drognens, caserne</name>
    <Style><LineStyle><width>2</width></LineStyle></Style>
    <Point>
      <extrude>1</extrude>
      <tesselate>0</tesselate>
      <altitudeMode>relativeToGround</altitudeMode>
      <coordinates>6.89495, 46.6763,20</coordinates>
    </Point>
  </Placemark><Placemark>
    <name>Romont FR, La Perrausa</name>
    <Style><LineStyle><width>2</width></LineStyle></Style>
    <Point>
      <extrude>1</extrude>
      <tesselate>0</tesselate>
      <altitudeMode>relativeToGround</altitudeMode>
      <coordinates>6.91087, 46.6858,20</coordinates>
    </Point>
  </Placemark><Placemark>
    <name>Grangettes-près-Romont,village</name>
    <Style><LineStyle><width>2</width></LineStyle></Style>
    <Point>
      <extrude>1</extrude>
      <tesselate>0</tesselate>
      <altitudeMode>relativeToGround</altitudeMode>
      <coordinates>6.96159, 46.6784,20</coordinates>
    </Point>
  </Placemark><Placemark>
    <name>Estévenens, poste</name>
    <Style><LineStyle><width>2</width></LineStyle></Style>
    <Point>
      <extrude>1</extrude>
      <tesselate>0</tesselate>
      <altitudeMode>relativeToGround</altitudeMode>
      <coordinates>6.94862, 46.6667,20</coordinates>
    </Point>
  </Placemark><Placemark>
    <name>Estévenens, dessus collège</name>
    <Style><LineStyle><width>2</width></LineStyle></Style>
    <Point>
      <extrude>1</extrude>
      <tesselate>0</tesselate>
      <altitudeMode>relativeToGround</altitudeMode>
      <coordinates>6.96298, 46.6685,20</coordinates>
    </Point>
  </Placemark><Placemark>
    <name>Le Châtelard-p.-Romont, poste</name>
    <Style><LineStyle><width>2</width></LineStyle></Style>
    <Point>
      <extrude>1</extrude>
      <tesselate>0</tesselate>
      <altitudeMode>relativeToGround</altitudeMode>
      <coordinates>6.97729, 46.6767,20</coordinates>
    </Point>
  </Placemark><Placemark>
    <name>Chavannes-sous-Ors, centre</name>
    <Style><LineStyle><width>2</width></LineStyle></Style>
    <Point>
      <extrude>1</extrude>
      <tesselate>0</tesselate>
      <altitudeMode>relativeToGround</altitudeMode>
      <coordinates>6.99222, 46.7263,20</coordinates>
    </Point>
  </Placemark><Placemark>
    <name>Villargiroud, village</name>
    <Style><LineStyle><width>2</width></LineStyle></Style>
    <Point>
      <extrude>1</extrude>
      <tesselate>0</tesselate>
      <altitudeMode>relativeToGround</altitudeMode>
      <coordinates>7.00582, 46.7038,20</coordinates>
    </Point>
  </Placemark><Placemark>
    <name>Billens, village</name>
    <Style><LineStyle><width>2</width></LineStyle></Style>
    <Point>
      <extrude>1</extrude>
      <tesselate>0</tesselate>
      <altitudeMode>relativeToGround</altitudeMode>
      <coordinates>6.89939, 46.6903,20</coordinates>
    </Point>
  </Placemark><Placemark>
    <name>Romont FR, gare</name>
    <Style><LineStyle><width>2</width></LineStyle></Style>
    <Point>
      <extrude>1</extrude>
      <tesselate>0</tesselate>
      <altitudeMode>relativeToGround</altitudeMode>
      <coordinates>6.9121, 46.6935,20</coordinates>
    </Point>
  </Placemark><Placemark>
    <name>Billens, Hôpital</name>
    <Style><LineStyle><width>2</width></LineStyle></Style>
    <Point>
      <extrude>1</extrude>
      <tesselate>0</tesselate>
      <altitudeMode>relativeToGround</altitudeMode>
      <coordinates>6.90197, 46.6937,20</coordinates>
    </Point>
  </Placemark><Placemark>
    <name>Billens, Hôpital bif.</name>
    <Style><LineStyle><width>2</width></LineStyle></Style>
    <Point>
      <extrude>1</extrude>
      <tesselate>0</tesselate>
      <altitudeMode>relativeToGround</altitudeMode>
      <coordinates>6.90458, 46.6935,20</coordinates>
    </Point>
  </Placemark><Placemark>
    <name>Fuyens, croisée</name>
    <Style><LineStyle><width>2</width></LineStyle></Style>
    <Point>
      <extrude>1</extrude>
      <tesselate>0</tesselate>
      <altitudeMode>relativeToGround</altitudeMode>
      <coordinates>6.96879, 46.7142,20</coordinates>
    </Point>
  </Placemark><Placemark>
    <name>Massonnens, poste</name>
    <Style><LineStyle><width>2</width></LineStyle></Style>
    <Point>
      <extrude>1</extrude>
      <tesselate>0</tesselate>
      <altitudeMode>relativeToGround</altitudeMode>
      <coordinates>6.97545, 46.6998,20</coordinates>
    </Point>
  </Placemark><Placemark>
    <name>Cerniaz VD, La Croisée</name>
    <Style><LineStyle><width>2</width></LineStyle></Style>
    <Point>
      <extrude>1</extrude>
      <tesselate>0</tesselate>
      <altitudeMode>relativeToGround</altitudeMode>
      <coordinates>6.89804, 46.7274,20</coordinates>
    </Point>
  </Placemark><Placemark>
    <name>Prévonloup, poste</name>
    <Style><LineStyle><width>2</width></LineStyle></Style>
    <Point>
      <extrude>1</extrude>
      <tesselate>0</tesselate>
      <altitudeMode>relativeToGround</altitudeMode>
      <coordinates>6.88229, 46.7003,20</coordinates>
    </Point>
  </Placemark><Placemark>
    <name>Romont FR, poste</name>
    <Style><LineStyle><width>2</width></LineStyle></Style>
    <Point>
      <extrude>1</extrude>
      <tesselate>0</tesselate>
      <altitudeMode>relativeToGround</altitudeMode>
      <coordinates>6.91926, 46.6964,20</coordinates>
    </Point>
  </Placemark></Document>
</kml>
