<kml>
<Document>

<Region>
<LatLonAltBox>
<north>46.597769</north><south>46.531525</south><east>6.858619</east><west>6.706347</west>
<minAltitude>0.000000</minAltitude><maxAltitude>0.000000</maxAltitude>
</LatLonAltBox>
<minLodPixels>2048</minLodPixels><maxLodPixels>1000000000</maxLodPixels>
<minFadeExtent>0</minFadeExtent><maxFadeExtent>0</maxFadeExtent>
</Region>
<Placemark>
    <name>Servion, Mannessivaz</name>
    <Style><LineStyle><width>2</width></LineStyle></Style>
    <Point>
      <extrude>1</extrude>
      <tesselate>0</tesselate>
      <altitudeMode>relativeToGround</altitudeMode>
      <coordinates>6.78336, 46.5828,20</coordinates>
    </Point>
  </Placemark><Placemark>
    <name>Servion, poste/croisée</name>
    <Style><LineStyle><width>2</width></LineStyle></Style>
    <Point>
      <extrude>1</extrude>
      <tesselate>0</tesselate>
      <altitudeMode>relativeToGround</altitudeMode>
      <coordinates>6.78153, 46.5727,20</coordinates>
    </Point>
  </Placemark><Placemark>
    <name>Ferlens VD, bif.</name>
    <Style><LineStyle><width>2</width></LineStyle></Style>
    <Point>
      <extrude>1</extrude>
      <tesselate>0</tesselate>
      <altitudeMode>relativeToGround</altitudeMode>
      <coordinates>6.78356, 46.593,20</coordinates>
    </Point>
  </Placemark><Placemark>
    <name>Oron-le-Châtel, poste</name>
    <Style><LineStyle><width>2</width></LineStyle></Style>
    <Point>
      <extrude>1</extrude>
      <tesselate>0</tesselate>
      <altitudeMode>relativeToGround</altitudeMode>
      <coordinates>6.83955, 46.5753,20</coordinates>
    </Point>
  </Placemark><Placemark>
    <name>Ecoteaux, Platta-Pierraz</name>
    <Style><LineStyle><width>2</width></LineStyle></Style>
    <Point>
      <extrude>1</extrude>
      <tesselate>0</tesselate>
      <altitudeMode>relativeToGround</altitudeMode>
      <coordinates>6.85129, 46.5454,20</coordinates>
    </Point>
  </Placemark><Placemark>
    <name>Palézieux, gare</name>
    <Style><LineStyle><width>2</width></LineStyle></Style>
    <Point>
      <extrude>1</extrude>
      <tesselate>0</tesselate>
      <altitudeMode>relativeToGround</altitudeMode>
      <coordinates>6.83731, 46.542,20</coordinates>
    </Point>
  </Placemark><Placemark>
    <name>Essertes, collège</name>
    <Style><LineStyle><width>2</width></LineStyle></Style>
    <Point>
      <extrude>1</extrude>
      <tesselate>0</tesselate>
      <altitudeMode>relativeToGround</altitudeMode>
      <coordinates>6.78915, 46.5624,20</coordinates>
    </Point>
  </Placemark><Placemark>
    <name>Châtillens, Le Péleret</name>
    <Style><LineStyle><width>2</width></LineStyle></Style>
    <Point>
      <extrude>1</extrude>
      <tesselate>0</tesselate>
      <altitudeMode>relativeToGround</altitudeMode>
      <coordinates>6.79664, 46.5631,20</coordinates>
    </Point>
  </Placemark><Placemark>
    <name>Servion, Le Zoo</name>
    <Style><LineStyle><width>2</width></LineStyle></Style>
    <Point>
      <extrude>1</extrude>
      <tesselate>0</tesselate>
      <altitudeMode>relativeToGround</altitudeMode>
      <coordinates>6.77378, 46.5661,20</coordinates>
    </Point>
  </Placemark><Placemark>
    <name>Corcelles-le-Jorat, Halte TL</name>
    <Style><LineStyle><width>2</width></LineStyle></Style>
    <Point>
      <extrude>1</extrude>
      <tesselate>0</tesselate>
      <altitudeMode>relativeToGround</altitudeMode>
      <coordinates>6.7451, 46.5907,20</coordinates>
    </Point>
  </Placemark><Placemark>
    <name>Montpreveyres, Balances</name>
    <Style><LineStyle><width>2</width></LineStyle></Style>
    <Point>
      <extrude>1</extrude>
      <tesselate>0</tesselate>
      <altitudeMode>relativeToGround</altitudeMode>
      <coordinates>6.73592, 46.5756,20</coordinates>
    </Point>
  </Placemark><Placemark>
    <name>Oron-le-Châtel, gare</name>
    <Style><LineStyle><width>2</width></LineStyle></Style>
    <Point>
      <extrude>1</extrude>
      <tesselate>0</tesselate>
      <altitudeMode>relativeToGround</altitudeMode>
      <coordinates>6.83697, 46.5723,20</coordinates>
    </Point>
  </Placemark><Placemark>
    <name>Châtillens</name>
    <Style><LineStyle><width>2</width></LineStyle></Style>
    <Point>
      <extrude>1</extrude>
      <tesselate>0</tesselate>
      <altitudeMode>relativeToGround</altitudeMode>
      <coordinates>6.81548, 46.5705,20</coordinates>
    </Point>
  </Placemark><Placemark>
    <name>Palézieux-Village</name>
    <Style><LineStyle><width>2</width></LineStyle></Style>
    <Point>
      <extrude>1</extrude>
      <tesselate>0</tesselate>
      <altitudeMode>relativeToGround</altitudeMode>
      <coordinates>6.82834, 46.5572,20</coordinates>
    </Point>
  </Placemark><Placemark>
    <name>Palézieux</name>
    <Style><LineStyle><width>2</width></LineStyle></Style>
    <Point>
      <extrude>1</extrude>
      <tesselate>0</tesselate>
      <altitudeMode>relativeToGround</altitudeMode>
      <coordinates>6.83787, 46.5427,20</coordinates>
    </Point>
  </Placemark><Placemark>
    <name>Servion, Clos de l'Auberge</name>
    <Style><LineStyle><width>2</width></LineStyle></Style>
    <Point>
      <extrude>1</extrude>
      <tesselate>0</tesselate>
      <altitudeMode>relativeToGround</altitudeMode>
      <coordinates>6.78256, 46.568,20</coordinates>
    </Point>
  </Placemark><Placemark>
    <name>Essertes, Le Pralet</name>
    <Style><LineStyle><width>2</width></LineStyle></Style>
    <Point>
      <extrude>1</extrude>
      <tesselate>0</tesselate>
      <altitudeMode>relativeToGround</altitudeMode>
      <coordinates>6.78137, 46.5588,20</coordinates>
    </Point>
  </Placemark><Placemark>
    <name>Palézieux, collège</name>
    <Style><LineStyle><width>2</width></LineStyle></Style>
    <Point>
      <extrude>1</extrude>
      <tesselate>0</tesselate>
      <altitudeMode>relativeToGround</altitudeMode>
      <coordinates>6.8339, 46.5555,20</coordinates>
    </Point>
  </Placemark><Placemark>
    <name>Oron-la-Ville, Coop</name>
    <Style><LineStyle><width>2</width></LineStyle></Style>
    <Point>
      <extrude>1</extrude>
      <tesselate>0</tesselate>
      <altitudeMode>relativeToGround</altitudeMode>
      <coordinates>6.82035, 46.5711,20</coordinates>
    </Point>
  </Placemark><Placemark>
    <name>Les Cullayes, village</name>
    <Style><LineStyle><width>2</width></LineStyle></Style>
    <Point>
      <extrude>1</extrude>
      <tesselate>0</tesselate>
      <altitudeMode>relativeToGround</altitudeMode>
      <coordinates>6.75217, 46.573,20</coordinates>
    </Point>
  </Placemark><Placemark>
    <name>Mézières VD, village</name>
    <Style><LineStyle><width>2</width></LineStyle></Style>
    <Point>
      <extrude>1</extrude>
      <tesselate>0</tesselate>
      <altitudeMode>relativeToGround</altitudeMode>
      <coordinates>6.77015, 46.596,20</coordinates>
    </Point>
  </Placemark><Placemark>
    <name>Forel (Lavaux), Cornes de Cerf</name>
    <Style><LineStyle><width>2</width></LineStyle></Style>
    <Point>
      <extrude>1</extrude>
      <tesselate>0</tesselate>
      <altitudeMode>relativeToGround</altitudeMode>
      <coordinates>6.76986, 46.5407,20</coordinates>
    </Point>
  </Placemark><Placemark>
    <name>Oron-la-Ville, poste</name>
    <Style><LineStyle><width>2</width></LineStyle></Style>
    <Point>
      <extrude>1</extrude>
      <tesselate>0</tesselate>
      <altitudeMode>relativeToGround</altitudeMode>
      <coordinates>6.82655, 46.5714,20</coordinates>
    </Point>
  </Placemark></Document>
</kml>
