<kml>
<Document>

<Region>
<LatLonAltBox>
<north>46.730256</north><south>46.664012</south><east>6.554076</east><west>6.401805</west>
<minAltitude>0.000000</minAltitude><maxAltitude>0.000000</maxAltitude>
</LatLonAltBox>
<minLodPixels>2048</minLodPixels><maxLodPixels>1000000000</maxLodPixels>
<minFadeExtent>0</minFadeExtent><maxFadeExtent>0</maxFadeExtent>
</Region>
<Placemark>
    <name>Orbe, croisée Agiez</name>
    <Style><LineStyle><width>2</width></LineStyle></Style>
    <Point>
      <extrude>1</extrude>
      <tesselate>0</tesselate>
      <altitudeMode>relativeToGround</altitudeMode>
      <coordinates>6.52881, 46.7186,20</coordinates>
    </Point>
  </Placemark><Placemark>
    <name>Orbe, Devin</name>
    <Style><LineStyle><width>2</width></LineStyle></Style>
    <Point>
      <extrude>1</extrude>
      <tesselate>0</tesselate>
      <altitudeMode>relativeToGround</altitudeMode>
      <coordinates>6.52711, 46.7109,20</coordinates>
    </Point>
  </Placemark><Placemark>
    <name>Arnex, gare</name>
    <Style><LineStyle><width>2</width></LineStyle></Style>
    <Point>
      <extrude>1</extrude>
      <tesselate>0</tesselate>
      <altitudeMode>relativeToGround</altitudeMode>
      <coordinates>6.51819, 46.6971,20</coordinates>
    </Point>
  </Placemark><Placemark>
    <name>Premier, collège</name>
    <Style><LineStyle><width>2</width></LineStyle></Style>
    <Point>
      <extrude>1</extrude>
      <tesselate>0</tesselate>
      <altitudeMode>relativeToGround</altitudeMode>
      <coordinates>6.44418, 46.7044,20</coordinates>
    </Point>
  </Placemark><Placemark>
    <name>Juriens, Le Cosson</name>
    <Style><LineStyle><width>2</width></LineStyle></Style>
    <Point>
      <extrude>1</extrude>
      <tesselate>0</tesselate>
      <altitudeMode>relativeToGround</altitudeMode>
      <coordinates>6.44624, 46.6809,20</coordinates>
    </Point>
  </Placemark><Placemark>
    <name>Juriens, village</name>
    <Style><LineStyle><width>2</width></LineStyle></Style>
    <Point>
      <extrude>1</extrude>
      <tesselate>0</tesselate>
      <altitudeMode>relativeToGround</altitudeMode>
      <coordinates>6.45063, 46.6911,20</coordinates>
    </Point>
  </Placemark><Placemark>
    <name>La Praz, Maison de commune</name>
    <Style><LineStyle><width>2</width></LineStyle></Style>
    <Point>
      <extrude>1</extrude>
      <tesselate>0</tesselate>
      <altitudeMode>relativeToGround</altitudeMode>
      <coordinates>6.42722, 46.6673,20</coordinates>
    </Point>
  </Placemark><Placemark>
    <name>La Praz, La Scie</name>
    <Style><LineStyle><width>2</width></LineStyle></Style>
    <Point>
      <extrude>1</extrude>
      <tesselate>0</tesselate>
      <altitudeMode>relativeToGround</altitudeMode>
      <coordinates>6.42947, 46.6691,20</coordinates>
    </Point>
  </Placemark><Placemark>
    <name>Orbe, gare</name>
    <Style><LineStyle><width>2</width></LineStyle></Style>
    <Point>
      <extrude>1</extrude>
      <tesselate>0</tesselate>
      <altitudeMode>relativeToGround</altitudeMode>
      <coordinates>6.53015, 46.7244,20</coordinates>
    </Point>
  </Placemark><Placemark>
    <name>Agiez, Vers-le-Pont</name>
    <Style><LineStyle><width>2</width></LineStyle></Style>
    <Point>
      <extrude>1</extrude>
      <tesselate>0</tesselate>
      <altitudeMode>relativeToGround</altitudeMode>
      <coordinates>6.51127, 46.7191,20</coordinates>
    </Point>
  </Placemark><Placemark>
    <name>Arnex</name>
    <Style><LineStyle><width>2</width></LineStyle></Style>
    <Point>
      <extrude>1</extrude>
      <tesselate>0</tesselate>
      <altitudeMode>relativeToGround</altitudeMode>
      <coordinates>6.5189, 46.6981,20</coordinates>
    </Point>
  </Placemark><Placemark>
    <name>Croy, En Fochau</name>
    <Style><LineStyle><width>2</width></LineStyle></Style>
    <Point>
      <extrude>1</extrude>
      <tesselate>0</tesselate>
      <altitudeMode>relativeToGround</altitudeMode>
      <coordinates>6.48066, 46.697,20</coordinates>
    </Point>
  </Placemark><Placemark>
    <name>Bofflens, Laiterie</name>
    <Style><LineStyle><width>2</width></LineStyle></Style>
    <Point>
      <extrude>1</extrude>
      <tesselate>0</tesselate>
      <altitudeMode>relativeToGround</altitudeMode>
      <coordinates>6.49844, 46.705,20</coordinates>
    </Point>
  </Placemark><Placemark>
    <name>Agiez, L'Epine</name>
    <Style><LineStyle><width>2</width></LineStyle></Style>
    <Point>
      <extrude>1</extrude>
      <tesselate>0</tesselate>
      <altitudeMode>relativeToGround</altitudeMode>
      <coordinates>6.5078, 46.7159,20</coordinates>
    </Point>
  </Placemark><Placemark>
    <name>Orbe, Champ de la Pierre</name>
    <Style><LineStyle><width>2</width></LineStyle></Style>
    <Point>
      <extrude>1</extrude>
      <tesselate>0</tesselate>
      <altitudeMode>relativeToGround</altitudeMode>
      <coordinates>6.5255, 46.7286,20</coordinates>
    </Point>
  </Placemark><Placemark>
    <name>Orbe, collège</name>
    <Style><LineStyle><width>2</width></LineStyle></Style>
    <Point>
      <extrude>1</extrude>
      <tesselate>0</tesselate>
      <altitudeMode>relativeToGround</altitudeMode>
      <coordinates>6.53149, 46.7224,20</coordinates>
    </Point>
  </Placemark><Placemark>
    <name>Ballaigues, poste</name>
    <Style><LineStyle><width>2</width></LineStyle></Style>
    <Point>
      <extrude>1</extrude>
      <tesselate>0</tesselate>
      <altitudeMode>relativeToGround</altitudeMode>
      <coordinates>6.41375, 46.7295,20</coordinates>
    </Point>
  </Placemark><Placemark>
    <name>Ballaigues, Vers-chez-Barrat</name>
    <Style><LineStyle><width>2</width></LineStyle></Style>
    <Point>
      <extrude>1</extrude>
      <tesselate>0</tesselate>
      <altitudeMode>relativeToGround</altitudeMode>
      <coordinates>6.40748, 46.7291,20</coordinates>
    </Point>
  </Placemark><Placemark>
    <name>Romainmôtier, poste</name>
    <Style><LineStyle><width>2</width></LineStyle></Style>
    <Point>
      <extrude>1</extrude>
      <tesselate>0</tesselate>
      <altitudeMode>relativeToGround</altitudeMode>
      <coordinates>6.46169, 46.6941,20</coordinates>
    </Point>
  </Placemark><Placemark>
    <name>St-Eloi</name>
    <Style><LineStyle><width>2</width></LineStyle></Style>
    <Point>
      <extrude>1</extrude>
      <tesselate>0</tesselate>
      <altitudeMode>relativeToGround</altitudeMode>
      <coordinates>6.53257, 46.7203,20</coordinates>
    </Point>
  </Placemark><Placemark>
    <name>Arnex, école</name>
    <Style><LineStyle><width>2</width></LineStyle></Style>
    <Point>
      <extrude>1</extrude>
      <tesselate>0</tesselate>
      <altitudeMode>relativeToGround</altitudeMode>
      <coordinates>6.51797, 46.6948,20</coordinates>
    </Point>
  </Placemark></Document>
</kml>
