<kml>
<Document>

<Region>
<LatLonAltBox>
<north>46.664012</north><south>46.531525</south><east>6.706347</east><west>6.401805</west>
<minAltitude>0.000000</minAltitude><maxAltitude>0.000000</maxAltitude>
</LatLonAltBox>
<minLodPixels>2048</minLodPixels><maxLodPixels>1000000000</maxLodPixels>
<minFadeExtent>0</minFadeExtent><maxFadeExtent>0</maxFadeExtent>
</Region>
<NetworkLink>
<name>020120</name>

<Region>
<LatLonAltBox>
<north>46.664012</north><south>46.597769</south><east>6.554076</east><west>6.401805</west>
<minAltitude>0.000000</minAltitude><maxAltitude>0.000000</maxAltitude>
</LatLonAltBox>
<minLodPixels>256</minLodPixels><maxLodPixels>1000000000</maxLodPixels>
<minFadeExtent>0</minFadeExtent><maxFadeExtent>0</maxFadeExtent>
</Region>
<Link>
<href>020120.kml</href><viewRefreshMode>onRegion</viewRefreshMode></Link>
</NetworkLink>
<NetworkLink>
<name>020121</name>

<Region>
<LatLonAltBox>
<north>46.664012</north><south>46.597769</south><east>6.706347</east><west>6.554076</west>
<minAltitude>0.000000</minAltitude><maxAltitude>0.000000</maxAltitude>
</LatLonAltBox>
<minLodPixels>256</minLodPixels><maxLodPixels>1000000000</maxLodPixels>
<minFadeExtent>0</minFadeExtent><maxFadeExtent>0</maxFadeExtent>
</Region>
<Link>
<href>020121.kml</href><viewRefreshMode>onRegion</viewRefreshMode></Link>
</NetworkLink>
<NetworkLink>
<name>020122</name>

<Region>
<LatLonAltBox>
<north>46.597769</north><south>46.531525</south><east>6.554076</east><west>6.401805</west>
<minAltitude>0.000000</minAltitude><maxAltitude>0.000000</maxAltitude>
</LatLonAltBox>
<minLodPixels>256</minLodPixels><maxLodPixels>1000000000</maxLodPixels>
<minFadeExtent>0</minFadeExtent><maxFadeExtent>0</maxFadeExtent>
</Region>
<Link>
<href>020122.kml</href><viewRefreshMode>onRegion</viewRefreshMode></Link>
</NetworkLink>
<NetworkLink>
<name>020123</name>

<Region>
<LatLonAltBox>
<north>46.597769</north><south>46.531525</south><east>6.706347</east><west>6.554076</west>
<minAltitude>0.000000</minAltitude><maxAltitude>0.000000</maxAltitude>
</LatLonAltBox>
<minLodPixels>256</minLodPixels><maxLodPixels>1000000000</maxLodPixels>
<minFadeExtent>0</minFadeExtent><maxFadeExtent>0</maxFadeExtent>
</Region>
<Link>
<href>020123.kml</href><viewRefreshMode>onRegion</viewRefreshMode></Link>
</NetworkLink>
<Placemark>
    <name>Oulens-sous-Echallens,Gd Salle</name>
    <Style><LineStyle><width>2</width></LineStyle></Style>
    <Point>
      <extrude>1</extrude>
      <tesselate>0</tesselate>
      <altitudeMode>relativeToGround</altitudeMode>
      <coordinates>6.57694, 46.6408,20</coordinates>
    </Point>
  </Placemark><Placemark>
    <name>Oulens-sous-Echallens, collège</name>
    <Style><LineStyle><width>2</width></LineStyle></Style>
    <Point>
      <extrude>1</extrude>
      <tesselate>0</tesselate>
      <altitudeMode>relativeToGround</altitudeMode>
      <coordinates>6.57821, 46.6433,20</coordinates>
    </Point>
  </Placemark><Placemark>
    <name>St-Barthélemy, Château</name>
    <Style><LineStyle><width>2</width></LineStyle></Style>
    <Point>
      <extrude>1</extrude>
      <tesselate>0</tesselate>
      <altitudeMode>relativeToGround</altitudeMode>
      <coordinates>6.59564, 46.6351,20</coordinates>
    </Point>
  </Placemark><Placemark>
    <name>Bettens, croisée</name>
    <Style><LineStyle><width>2</width></LineStyle></Style>
    <Point>
      <extrude>1</extrude>
      <tesselate>0</tesselate>
      <altitudeMode>relativeToGround</altitudeMode>
      <coordinates>6.57811, 46.6289,20</coordinates>
    </Point>
  </Placemark><Placemark>
    <name>St-Barthélemy, Champ Cadet</name>
    <Style><LineStyle><width>2</width></LineStyle></Style>
    <Point>
      <extrude>1</extrude>
      <tesselate>0</tesselate>
      <altitudeMode>relativeToGround</altitudeMode>
      <coordinates>6.60542, 46.6363,20</coordinates>
    </Point>
  </Placemark><Placemark>
    <name>St-Barthélemy, village</name>
    <Style><LineStyle><width>2</width></LineStyle></Style>
    <Point>
      <extrude>1</extrude>
      <tesselate>0</tesselate>
      <altitudeMode>relativeToGround</altitudeMode>
      <coordinates>6.60189, 46.6368,20</coordinates>
    </Point>
  </Placemark><Placemark>
    <name>Echallens, Château</name>
    <Style><LineStyle><width>2</width></LineStyle></Style>
    <Point>
      <extrude>1</extrude>
      <tesselate>0</tesselate>
      <altitudeMode>relativeToGround</altitudeMode>
      <coordinates>6.63121, 46.6408,20</coordinates>
    </Point>
  </Placemark><Placemark>
    <name>Echallens, garage postal</name>
    <Style><LineStyle><width>2</width></LineStyle></Style>
    <Point>
      <extrude>1</extrude>
      <tesselate>0</tesselate>
      <altitudeMode>relativeToGround</altitudeMode>
      <coordinates>6.62692, 46.6394,20</coordinates>
    </Point>
  </Placemark><Placemark>
    <name>Eclagnens, collège</name>
    <Style><LineStyle><width>2</width></LineStyle></Style>
    <Point>
      <extrude>1</extrude>
      <tesselate>0</tesselate>
      <altitudeMode>relativeToGround</altitudeMode>
      <coordinates>6.59134, 46.6515,20</coordinates>
    </Point>
  </Placemark><Placemark>
    <name>Goumoens-la-Ville, Eclagnens</name>
    <Style><LineStyle><width>2</width></LineStyle></Style>
    <Point>
      <extrude>1</extrude>
      <tesselate>0</tesselate>
      <altitudeMode>relativeToGround</altitudeMode>
      <coordinates>6.6025, 46.6566,20</coordinates>
    </Point>
  </Placemark><Placemark>
    <name>Cheseaux-s-Lausanne, Pâquis</name>
    <Style><LineStyle><width>2</width></LineStyle></Style>
    <Point>
      <extrude>1</extrude>
      <tesselate>0</tesselate>
      <altitudeMode>relativeToGround</altitudeMode>
      <coordinates>6.6039, 46.5868,20</coordinates>
    </Point>
  </Placemark><Placemark>
    <name>Eclépens, église</name>
    <Style><LineStyle><width>2</width></LineStyle></Style>
    <Point>
      <extrude>1</extrude>
      <tesselate>0</tesselate>
      <altitudeMode>relativeToGround</altitudeMode>
      <coordinates>6.5258, 46.6526,20</coordinates>
    </Point>
  </Placemark><Placemark>
    <name>Ferreyres, village</name>
    <Style><LineStyle><width>2</width></LineStyle></Style>
    <Point>
      <extrude>1</extrude>
      <tesselate>0</tesselate>
      <altitudeMode>relativeToGround</altitudeMode>
      <coordinates>6.48553, 46.6583,20</coordinates>
    </Point>
  </Placemark><Placemark>
    <name>Cossonay</name>
    <Style><LineStyle><width>2</width></LineStyle></Style>
    <Point>
      <extrude>1</extrude>
      <tesselate>0</tesselate>
      <altitudeMode>relativeToGround</altitudeMode>
      <coordinates>6.52368, 46.606,20</coordinates>
    </Point>
  </Placemark><Placemark>
    <name>Eclépens</name>
    <Style><LineStyle><width>2</width></LineStyle></Style>
    <Point>
      <extrude>1</extrude>
      <tesselate>0</tesselate>
      <altitudeMode>relativeToGround</altitudeMode>
      <coordinates>6.55242, 46.6572,20</coordinates>
    </Point>
  </Placemark><Placemark>
    <name>Bussigny</name>
    <Style><LineStyle><width>2</width></LineStyle></Style>
    <Point>
      <extrude>1</extrude>
      <tesselate>0</tesselate>
      <altitudeMode>relativeToGround</altitudeMode>
      <coordinates>6.55181, 46.5476,20</coordinates>
    </Point>
  </Placemark><Placemark>
    <name>Vufflens-la-Ville</name>
    <Style><LineStyle><width>2</width></LineStyle></Style>
    <Point>
      <extrude>1</extrude>
      <tesselate>0</tesselate>
      <altitudeMode>relativeToGround</altitudeMode>
      <coordinates>6.53076, 46.5762,20</coordinates>
    </Point>
  </Placemark><Placemark>
    <name>Renens VD</name>
    <Style><LineStyle><width>2</width></LineStyle></Style>
    <Point>
      <extrude>1</extrude>
      <tesselate>0</tesselate>
      <altitudeMode>relativeToGround</altitudeMode>
      <coordinates>6.57893, 46.537,20</coordinates>
    </Point>
  </Placemark><Placemark>
    <name>Poliez-Pittet, Les Roches</name>
    <Style><LineStyle><width>2</width></LineStyle></Style>
    <Point>
      <extrude>1</extrude>
      <tesselate>0</tesselate>
      <altitudeMode>relativeToGround</altitudeMode>
      <coordinates>6.67963, 46.6297,20</coordinates>
    </Point>
  </Placemark><Placemark>
    <name>Naz, laiterie</name>
    <Style><LineStyle><width>2</width></LineStyle></Style>
    <Point>
      <extrude>1</extrude>
      <tesselate>0</tesselate>
      <altitudeMode>relativeToGround</altitudeMode>
      <coordinates>6.69554, 46.6585,20</coordinates>
    </Point>
  </Placemark><Placemark>
    <name>Morrens VD, poste</name>
    <Style><LineStyle><width>2</width></LineStyle></Style>
    <Point>
      <extrude>1</extrude>
      <tesselate>0</tesselate>
      <altitudeMode>relativeToGround</altitudeMode>
      <coordinates>6.62897, 46.5902,20</coordinates>
    </Point>
  </Placemark><Placemark>
    <name>Echallens, Les Trois-Sapins</name>
    <Style><LineStyle><width>2</width></LineStyle></Style>
    <Point>
      <extrude>1</extrude>
      <tesselate>0</tesselate>
      <altitudeMode>relativeToGround</altitudeMode>
      <coordinates>6.64587, 46.639,20</coordinates>
    </Point>
  </Placemark><Placemark>
    <name>Poliez-le-Grand, village</name>
    <Style><LineStyle><width>2</width></LineStyle></Style>
    <Point>
      <extrude>1</extrude>
      <tesselate>0</tesselate>
      <altitudeMode>relativeToGround</altitudeMode>
      <coordinates>6.66451, 46.6369,20</coordinates>
    </Point>
  </Placemark><Placemark>
    <name>Poliez-le-Grand, Corchamp</name>
    <Style><LineStyle><width>2</width></LineStyle></Style>
    <Point>
      <extrude>1</extrude>
      <tesselate>0</tesselate>
      <altitudeMode>relativeToGround</altitudeMode>
      <coordinates>6.65799, 46.636,20</coordinates>
    </Point>
  </Placemark><Placemark>
    <name>Goumoens-la-Ville, Tuilerie</name>
    <Style><LineStyle><width>2</width></LineStyle></Style>
    <Point>
      <extrude>1</extrude>
      <tesselate>0</tesselate>
      <altitudeMode>relativeToGround</altitudeMode>
      <coordinates>6.61595, 46.6526,20</coordinates>
    </Point>
  </Placemark><Placemark>
    <name>Echallens, Place la Couronne</name>
    <Style><LineStyle><width>2</width></LineStyle></Style>
    <Point>
      <extrude>1</extrude>
      <tesselate>0</tesselate>
      <altitudeMode>relativeToGround</altitudeMode>
      <coordinates>6.63638, 46.6406,20</coordinates>
    </Point>
  </Placemark><Placemark>
    <name>Poliez-le-Grand, Bois-la-Croix</name>
    <Style><LineStyle><width>2</width></LineStyle></Style>
    <Point>
      <extrude>1</extrude>
      <tesselate>0</tesselate>
      <altitudeMode>relativeToGround</altitudeMode>
      <coordinates>6.67462, 46.6376,20</coordinates>
    </Point>
  </Placemark><Placemark>
    <name>Poliez-le-Grand, La Sauvenière</name>
    <Style><LineStyle><width>2</width></LineStyle></Style>
    <Point>
      <extrude>1</extrude>
      <tesselate>0</tesselate>
      <altitudeMode>relativeToGround</altitudeMode>
      <coordinates>6.66879, 46.6341,20</coordinates>
    </Point>
  </Placemark><Placemark>
    <name>Lausanne, Le Foyer</name>
    <Style><LineStyle><width>2</width></LineStyle></Style>
    <Point>
      <extrude>1</extrude>
      <tesselate>0</tesselate>
      <altitudeMode>relativeToGround</altitudeMode>
      <coordinates>6.66003, 46.5334,20</coordinates>
    </Point>
  </Placemark><Placemark>
    <name>Villars-Tiercelin, village</name>
    <Style><LineStyle><width>2</width></LineStyle></Style>
    <Point>
      <extrude>1</extrude>
      <tesselate>0</tesselate>
      <altitudeMode>relativeToGround</altitudeMode>
      <coordinates>6.70418, 46.6249,20</coordinates>
    </Point>
  </Placemark><Placemark>
    <name>Clarmont, village</name>
    <Style><LineStyle><width>2</width></LineStyle></Style>
    <Point>
      <extrude>1</extrude>
      <tesselate>0</tesselate>
      <altitudeMode>relativeToGround</altitudeMode>
      <coordinates>6.44969, 46.5465,20</coordinates>
    </Point>
  </Placemark><Placemark>
    <name>Vaux-sur-Morges, village</name>
    <Style><LineStyle><width>2</width></LineStyle></Style>
    <Point>
      <extrude>1</extrude>
      <tesselate>0</tesselate>
      <altitudeMode>relativeToGround</altitudeMode>
      <coordinates>6.46325, 46.5356,20</coordinates>
    </Point>
  </Placemark><Placemark>
    <name>Bussigny VD, Ch. de Bellevue</name>
    <Style><LineStyle><width>2</width></LineStyle></Style>
    <Point>
      <extrude>1</extrude>
      <tesselate>0</tesselate>
      <altitudeMode>relativeToGround</altitudeMode>
      <coordinates>6.55061, 46.5543,20</coordinates>
    </Point>
  </Placemark><Placemark>
    <name>Bussigny VD,Ch.du Grand-Record</name>
    <Style><LineStyle><width>2</width></LineStyle></Style>
    <Point>
      <extrude>1</extrude>
      <tesselate>0</tesselate>
      <altitudeMode>relativeToGround</altitudeMode>
      <coordinates>6.55212, 46.5497,20</coordinates>
    </Point>
  </Placemark><Placemark>
    <name>Renens VD, gare sortie sud</name>
    <Style><LineStyle><width>2</width></LineStyle></Style>
    <Point>
      <extrude>1</extrude>
      <tesselate>0</tesselate>
      <altitudeMode>relativeToGround</altitudeMode>
      <coordinates>6.57945, 46.5366,20</coordinates>
    </Point>
  </Placemark><Placemark>
    <name>Echallens, La Robellaz</name>
    <Style><LineStyle><width>2</width></LineStyle></Style>
    <Point>
      <extrude>1</extrude>
      <tesselate>0</tesselate>
      <altitudeMode>relativeToGround</altitudeMode>
      <coordinates>6.64225, 46.6406,20</coordinates>
    </Point>
  </Placemark><Placemark>
    <name>Echallens, Les Coulisses</name>
    <Style><LineStyle><width>2</width></LineStyle></Style>
    <Point>
      <extrude>1</extrude>
      <tesselate>0</tesselate>
      <altitudeMode>relativeToGround</altitudeMode>
      <coordinates>6.62817, 46.6432,20</coordinates>
    </Point>
  </Placemark><Placemark>
    <name>Daillens, village</name>
    <Style><LineStyle><width>2</width></LineStyle></Style>
    <Point>
      <extrude>1</extrude>
      <tesselate>0</tesselate>
      <altitudeMode>relativeToGround</altitudeMode>
      <coordinates>6.54822, 46.6204,20</coordinates>
    </Point>
  </Placemark><Placemark>
    <name>Penthaz, collège</name>
    <Style><LineStyle><width>2</width></LineStyle></Style>
    <Point>
      <extrude>1</extrude>
      <tesselate>0</tesselate>
      <altitudeMode>relativeToGround</altitudeMode>
      <coordinates>6.5391, 46.5994,20</coordinates>
    </Point>
  </Placemark><Placemark>
    <name>Mex VD, ch. de la Richardaz</name>
    <Style><LineStyle><width>2</width></LineStyle></Style>
    <Point>
      <extrude>1</extrude>
      <tesselate>0</tesselate>
      <altitudeMode>relativeToGround</altitudeMode>
      <coordinates>6.57047, 46.5765,20</coordinates>
    </Point>
  </Placemark><Placemark>
    <name>Villars-Ste-Croix, village</name>
    <Style><LineStyle><width>2</width></LineStyle></Style>
    <Point>
      <extrude>1</extrude>
      <tesselate>0</tesselate>
      <altitudeMode>relativeToGround</altitudeMode>
      <coordinates>6.56147, 46.5679,20</coordinates>
    </Point>
  </Placemark><Placemark>
    <name>Montblesson, La Perronnaz</name>
    <Style><LineStyle><width>2</width></LineStyle></Style>
    <Point>
      <extrude>1</extrude>
      <tesselate>0</tesselate>
      <altitudeMode>relativeToGround</altitudeMode>
      <coordinates>6.67929, 46.5424,20</coordinates>
    </Point>
  </Placemark><Placemark>
    <name>Bussigny VD, Collège de Dallaz</name>
    <Style><LineStyle><width>2</width></LineStyle></Style>
    <Point>
      <extrude>1</extrude>
      <tesselate>0</tesselate>
      <altitudeMode>relativeToGround</altitudeMode>
      <coordinates>6.55195, 46.5522,20</coordinates>
    </Point>
  </Placemark><Placemark>
    <name>Reverolle, village</name>
    <Style><LineStyle><width>2</width></LineStyle></Style>
    <Point>
      <extrude>1</extrude>
      <tesselate>0</tesselate>
      <altitudeMode>relativeToGround</altitudeMode>
      <coordinates>6.4387, 46.5412,20</coordinates>
    </Point>
  </Placemark><Placemark>
    <name>St-Saphorin-s-Morges, Pavé</name>
    <Style><LineStyle><width>2</width></LineStyle></Style>
    <Point>
      <extrude>1</extrude>
      <tesselate>0</tesselate>
      <altitudeMode>relativeToGround</altitudeMode>
      <coordinates>6.48725, 46.5421,20</coordinates>
    </Point>
  </Placemark><Placemark>
    <name>Cossonay-Ville, Pré aux Moines</name>
    <Style><LineStyle><width>2</width></LineStyle></Style>
    <Point>
      <extrude>1</extrude>
      <tesselate>0</tesselate>
      <altitudeMode>relativeToGround</altitudeMode>
      <coordinates>6.5076, 46.6099,20</coordinates>
    </Point>
  </Placemark><Placemark>
    <name>Bremblens, bas du village</name>
    <Style><LineStyle><width>2</width></LineStyle></Style>
    <Point>
      <extrude>1</extrude>
      <tesselate>0</tesselate>
      <altitudeMode>relativeToGround</altitudeMode>
      <coordinates>6.51458, 46.5448,20</coordinates>
    </Point>
  </Placemark><Placemark>
    <name>Aclens, collège</name>
    <Style><LineStyle><width>2</width></LineStyle></Style>
    <Point>
      <extrude>1</extrude>
      <tesselate>0</tesselate>
      <altitudeMode>relativeToGround</altitudeMode>
      <coordinates>6.51029, 46.5672,20</coordinates>
    </Point>
  </Placemark><Placemark>
    <name>Crochy</name>
    <Style><LineStyle><width>2</width></LineStyle></Style>
    <Point>
      <extrude>1</extrude>
      <tesselate>0</tesselate>
      <altitudeMode>relativeToGround</altitudeMode>
      <coordinates>6.57013, 46.5327,20</coordinates>
    </Point>
  </Placemark></Document>
</kml>
