<kml>
<Document>

<Region>
<LatLonAltBox>
<north>46.664012</north><south>46.597769</south><east>6.706347</east><west>6.554076</west>
<minAltitude>0.000000</minAltitude><maxAltitude>0.000000</maxAltitude>
</LatLonAltBox>
<minLodPixels>2048</minLodPixels><maxLodPixels>1000000000</maxLodPixels>
<minFadeExtent>0</minFadeExtent><maxFadeExtent>0</maxFadeExtent>
</Region>
<Placemark>
    <name>Boussens, école</name>
    <Style><LineStyle><width>2</width></LineStyle></Style>
    <Point>
      <extrude>1</extrude>
      <tesselate>0</tesselate>
      <altitudeMode>relativeToGround</altitudeMode>
      <coordinates>6.58275, 46.6038,20</coordinates>
    </Point>
  </Placemark><Placemark>
    <name>Poliez-Pittet, collège</name>
    <Style><LineStyle><width>2</width></LineStyle></Style>
    <Point>
      <extrude>1</extrude>
      <tesselate>0</tesselate>
      <altitudeMode>relativeToGround</altitudeMode>
      <coordinates>6.67799, 46.6303,20</coordinates>
    </Point>
  </Placemark><Placemark>
    <name>Bottens, croisée</name>
    <Style><LineStyle><width>2</width></LineStyle></Style>
    <Point>
      <extrude>1</extrude>
      <tesselate>0</tesselate>
      <altitudeMode>relativeToGround</altitudeMode>
      <coordinates>6.66023, 46.6169,20</coordinates>
    </Point>
  </Placemark><Placemark>
    <name>Froideville, Bas-du-Caraset</name>
    <Style><LineStyle><width>2</width></LineStyle></Style>
    <Point>
      <extrude>1</extrude>
      <tesselate>0</tesselate>
      <altitudeMode>relativeToGround</altitudeMode>
      <coordinates>6.68489, 46.6041,20</coordinates>
    </Point>
  </Placemark><Placemark>
    <name>Bioley-Orjulaz, collège</name>
    <Style><LineStyle><width>2</width></LineStyle></Style>
    <Point>
      <extrude>1</extrude>
      <tesselate>0</tesselate>
      <altitudeMode>relativeToGround</altitudeMode>
      <coordinates>6.59848, 46.621,20</coordinates>
    </Point>
  </Placemark><Placemark>
    <name>Goumoens-la-Ville, Laiterie</name>
    <Style><LineStyle><width>2</width></LineStyle></Style>
    <Point>
      <extrude>1</extrude>
      <tesselate>0</tesselate>
      <altitudeMode>relativeToGround</altitudeMode>
      <coordinates>6.60443, 46.6579,20</coordinates>
    </Point>
  </Placemark><Placemark>
    <name>Dommartin, poste</name>
    <Style><LineStyle><width>2</width></LineStyle></Style>
    <Point>
      <extrude>1</extrude>
      <tesselate>0</tesselate>
      <altitudeMode>relativeToGround</altitudeMode>
      <coordinates>6.701, 46.6473,20</coordinates>
    </Point>
  </Placemark><Placemark>
    <name>Goumoens-la-Ville,grande salle</name>
    <Style><LineStyle><width>2</width></LineStyle></Style>
    <Point>
      <extrude>1</extrude>
      <tesselate>0</tesselate>
      <altitudeMode>relativeToGround</altitudeMode>
      <coordinates>6.60637, 46.6595,20</coordinates>
    </Point>
  </Placemark><Placemark>
    <name>Villars-le-Terroir, h.village</name>
    <Style><LineStyle><width>2</width></LineStyle></Style>
    <Point>
      <extrude>1</extrude>
      <tesselate>0</tesselate>
      <altitudeMode>relativeToGround</altitudeMode>
      <coordinates>6.64011, 46.6577,20</coordinates>
    </Point>
  </Placemark><Placemark>
    <name>Echallens, La Fontaine</name>
    <Style><LineStyle><width>2</width></LineStyle></Style>
    <Point>
      <extrude>1</extrude>
      <tesselate>0</tesselate>
      <altitudeMode>relativeToGround</altitudeMode>
      <coordinates>6.63703, 46.6451,20</coordinates>
    </Point>
  </Placemark><Placemark>
    <name>Echallens, gare</name>
    <Style><LineStyle><width>2</width></LineStyle></Style>
    <Point>
      <extrude>1</extrude>
      <tesselate>0</tesselate>
      <altitudeMode>relativeToGround</altitudeMode>
      <coordinates>6.6328, 46.6395,20</coordinates>
    </Point>
  </Placemark><Placemark>
    <name>Poliez-Pittet, village</name>
    <Style><LineStyle><width>2</width></LineStyle></Style>
    <Point>
      <extrude>1</extrude>
      <tesselate>0</tesselate>
      <altitudeMode>relativeToGround</altitudeMode>
      <coordinates>6.68391, 46.6272,20</coordinates>
    </Point>
  </Placemark><Placemark>
    <name>Dommartin, Les Fourches</name>
    <Style><LineStyle><width>2</width></LineStyle></Style>
    <Point>
      <extrude>1</extrude>
      <tesselate>0</tesselate>
      <altitudeMode>relativeToGround</altitudeMode>
      <coordinates>6.69502, 46.6361,20</coordinates>
    </Point>
  </Placemark><Placemark>
    <name>Poliez-Pittet, Grands-Champs</name>
    <Style><LineStyle><width>2</width></LineStyle></Style>
    <Point>
      <extrude>1</extrude>
      <tesselate>0</tesselate>
      <altitudeMode>relativeToGround</altitudeMode>
      <coordinates>6.67665, 46.6326,20</coordinates>
    </Point>
  </Placemark><Placemark>
    <name>Villars-Tiercelin, Laiterie</name>
    <Style><LineStyle><width>2</width></LineStyle></Style>
    <Point>
      <extrude>1</extrude>
      <tesselate>0</tesselate>
      <altitudeMode>relativeToGround</altitudeMode>
      <coordinates>6.70447, 46.6276,20</coordinates>
    </Point>
  </Placemark><Placemark>
    <name>Villars-Tiercelin, M. Villars</name>
    <Style><LineStyle><width>2</width></LineStyle></Style>
    <Point>
      <extrude>1</extrude>
      <tesselate>0</tesselate>
      <altitudeMode>relativeToGround</altitudeMode>
      <coordinates>6.69908, 46.6347,20</coordinates>
    </Point>
  </Placemark><Placemark>
    <name>Dommartin, Le Pâquis</name>
    <Style><LineStyle><width>2</width></LineStyle></Style>
    <Point>
      <extrude>1</extrude>
      <tesselate>0</tesselate>
      <altitudeMode>relativeToGround</altitudeMode>
      <coordinates>6.69903, 46.6435,20</coordinates>
    </Point>
  </Placemark><Placemark>
    <name>Dommartin, croisée</name>
    <Style><LineStyle><width>2</width></LineStyle></Style>
    <Point>
      <extrude>1</extrude>
      <tesselate>0</tesselate>
      <altitudeMode>relativeToGround</altitudeMode>
      <coordinates>6.7019, 46.6487,20</coordinates>
    </Point>
  </Placemark><Placemark>
    <name>Villars-le-Terroir, poste</name>
    <Style><LineStyle><width>2</width></LineStyle></Style>
    <Point>
      <extrude>1</extrude>
      <tesselate>0</tesselate>
      <altitudeMode>relativeToGround</altitudeMode>
      <coordinates>6.63877, 46.6555,20</coordinates>
    </Point>
  </Placemark><Placemark>
    <name>Goumoens-la-Ville, croisée</name>
    <Style><LineStyle><width>2</width></LineStyle></Style>
    <Point>
      <extrude>1</extrude>
      <tesselate>0</tesselate>
      <altitudeMode>relativeToGround</altitudeMode>
      <coordinates>6.60575, 46.6575,20</coordinates>
    </Point>
  </Placemark><Placemark>
    <name>Bournens, Au Mont</name>
    <Style><LineStyle><width>2</width></LineStyle></Style>
    <Point>
      <extrude>1</extrude>
      <tesselate>0</tesselate>
      <altitudeMode>relativeToGround</altitudeMode>
      <coordinates>6.56354, 46.6012,20</coordinates>
    </Point>
  </Placemark><Placemark>
    <name>Bournens, école</name>
    <Style><LineStyle><width>2</width></LineStyle></Style>
    <Point>
      <extrude>1</extrude>
      <tesselate>0</tesselate>
      <altitudeMode>relativeToGround</altitudeMode>
      <coordinates>6.56382, 46.6043,20</coordinates>
    </Point>
  </Placemark><Placemark>
    <name>Villars-le-Terroir, B'Croix</name>
    <Style><LineStyle><width>2</width></LineStyle></Style>
    <Point>
      <extrude>1</extrude>
      <tesselate>0</tesselate>
      <altitudeMode>relativeToGround</altitudeMode>
      <coordinates>6.64394, 46.6591,20</coordinates>
    </Point>
  </Placemark><Placemark>
    <name>Echallens, collège/parc</name>
    <Style><LineStyle><width>2</width></LineStyle></Style>
    <Point>
      <extrude>1</extrude>
      <tesselate>0</tesselate>
      <altitudeMode>relativeToGround</altitudeMode>
      <coordinates>6.64586, 46.6393,20</coordinates>
    </Point>
  </Placemark><Placemark>
    <name>Boussens, village</name>
    <Style><LineStyle><width>2</width></LineStyle></Style>
    <Point>
      <extrude>1</extrude>
      <tesselate>0</tesselate>
      <altitudeMode>relativeToGround</altitudeMode>
      <coordinates>6.58441, 46.6024,20</coordinates>
    </Point>
  </Placemark></Document>
</kml>
