<kml>
<Document>

<Region>
<LatLonAltBox>
<north>46.597769</north><south>46.531525</south><east>6.554076</east><west>6.401805</west>
<minAltitude>0.000000</minAltitude><maxAltitude>0.000000</maxAltitude>
</LatLonAltBox>
<minLodPixels>2048</minLodPixels><maxLodPixels>1000000000</maxLodPixels>
<minFadeExtent>0</minFadeExtent><maxFadeExtent>0</maxFadeExtent>
</Region>
<Placemark>
    <name>Echichens, Haute-Pierre</name>
    <Style><LineStyle><width>2</width></LineStyle></Style>
    <Point>
      <extrude>1</extrude>
      <tesselate>0</tesselate>
      <altitudeMode>relativeToGround</altitudeMode>
      <coordinates>6.49297, 46.5318,20</coordinates>
    </Point>
  </Placemark><Placemark>
    <name>Bussigny VD, gare</name>
    <Style><LineStyle><width>2</width></LineStyle></Style>
    <Point>
      <extrude>1</extrude>
      <tesselate>0</tesselate>
      <altitudeMode>relativeToGround</altitudeMode>
      <coordinates>6.55228, 46.5475,20</coordinates>
    </Point>
  </Placemark><Placemark>
    <name>Reverolle</name>
    <Style><LineStyle><width>2</width></LineStyle></Style>
    <Point>
      <extrude>1</extrude>
      <tesselate>0</tesselate>
      <altitudeMode>relativeToGround</altitudeMode>
      <coordinates>6.43094, 46.5405,20</coordinates>
    </Point>
  </Placemark><Placemark>
    <name>Chardonney-Château</name>
    <Style><LineStyle><width>2</width></LineStyle></Style>
    <Point>
      <extrude>1</extrude>
      <tesselate>0</tesselate>
      <altitudeMode>relativeToGround</altitudeMode>
      <coordinates>6.43259, 46.5347,20</coordinates>
    </Point>
  </Placemark><Placemark>
    <name>Mauraz</name>
    <Style><LineStyle><width>2</width></LineStyle></Style>
    <Point>
      <extrude>1</extrude>
      <tesselate>0</tesselate>
      <altitudeMode>relativeToGround</altitudeMode>
      <coordinates>6.42972, 46.5849,20</coordinates>
    </Point>
  </Placemark><Placemark>
    <name>Le Manège</name>
    <Style><LineStyle><width>2</width></LineStyle></Style>
    <Point>
      <extrude>1</extrude>
      <tesselate>0</tesselate>
      <altitudeMode>relativeToGround</altitudeMode>
      <coordinates>6.43185, 46.5589,20</coordinates>
    </Point>
  </Placemark><Placemark>
    <name>Tuilerie</name>
    <Style><LineStyle><width>2</width></LineStyle></Style>
    <Point>
      <extrude>1</extrude>
      <tesselate>0</tesselate>
      <altitudeMode>relativeToGround</altitudeMode>
      <coordinates>6.41413, 46.5928,20</coordinates>
    </Point>
  </Placemark><Placemark>
    <name>Romanel-sur-Morges, Pra-Vuatte</name>
    <Style><LineStyle><width>2</width></LineStyle></Style>
    <Point>
      <extrude>1</extrude>
      <tesselate>0</tesselate>
      <altitudeMode>relativeToGround</altitudeMode>
      <coordinates>6.51219, 46.551,20</coordinates>
    </Point>
  </Placemark><Placemark>
    <name>Gollion, village</name>
    <Style><LineStyle><width>2</width></LineStyle></Style>
    <Point>
      <extrude>1</extrude>
      <tesselate>0</tesselate>
      <altitudeMode>relativeToGround</altitudeMode>
      <coordinates>6.50931, 46.5861,20</coordinates>
    </Point>
  </Placemark><Placemark>
    <name>Bussigny VD, Ch. de la sauge</name>
    <Style><LineStyle><width>2</width></LineStyle></Style>
    <Point>
      <extrude>1</extrude>
      <tesselate>0</tesselate>
      <altitudeMode>relativeToGround</altitudeMode>
      <coordinates>6.55372, 46.5556,20</coordinates>
    </Point>
  </Placemark><Placemark>
    <name>Apples, Hôtel de Commune</name>
    <Style><LineStyle><width>2</width></LineStyle></Style>
    <Point>
      <extrude>1</extrude>
      <tesselate>0</tesselate>
      <altitudeMode>relativeToGround</altitudeMode>
      <coordinates>6.42806, 46.5524,20</coordinates>
    </Point>
  </Placemark><Placemark>
    <name>Romanel-sur-Morges, poste</name>
    <Style><LineStyle><width>2</width></LineStyle></Style>
    <Point>
      <extrude>1</extrude>
      <tesselate>0</tesselate>
      <altitudeMode>relativeToGround</altitudeMode>
      <coordinates>6.51081, 46.5558,20</coordinates>
    </Point>
  </Placemark><Placemark>
    <name>Vullierens, poste</name>
    <Style><LineStyle><width>2</width></LineStyle></Style>
    <Point>
      <extrude>1</extrude>
      <tesselate>0</tesselate>
      <altitudeMode>relativeToGround</altitudeMode>
      <coordinates>6.48182, 46.5726,20</coordinates>
    </Point>
  </Placemark><Placemark>
    <name>Colombier VD, poste</name>
    <Style><LineStyle><width>2</width></LineStyle></Style>
    <Point>
      <extrude>1</extrude>
      <tesselate>0</tesselate>
      <altitudeMode>relativeToGround</altitudeMode>
      <coordinates>6.47396, 46.5561,20</coordinates>
    </Point>
  </Placemark><Placemark>
    <name>Grancy, Les Pâles</name>
    <Style><LineStyle><width>2</width></LineStyle></Style>
    <Point>
      <extrude>1</extrude>
      <tesselate>0</tesselate>
      <altitudeMode>relativeToGround</altitudeMode>
      <coordinates>6.46228, 46.5891,20</coordinates>
    </Point>
  </Placemark><Placemark>
    <name>Grancy, collège</name>
    <Style><LineStyle><width>2</width></LineStyle></Style>
    <Point>
      <extrude>1</extrude>
      <tesselate>0</tesselate>
      <altitudeMode>relativeToGround</altitudeMode>
      <coordinates>6.46516, 46.5923,20</coordinates>
    </Point>
  </Placemark><Placemark>
    <name>Cottens VD, Laiterie</name>
    <Style><LineStyle><width>2</width></LineStyle></Style>
    <Point>
      <extrude>1</extrude>
      <tesselate>0</tesselate>
      <altitudeMode>relativeToGround</altitudeMode>
      <coordinates>6.45442, 46.5731,20</coordinates>
    </Point>
  </Placemark><Placemark>
    <name>Cottens VD, La Tuilière</name>
    <Style><LineStyle><width>2</width></LineStyle></Style>
    <Point>
      <extrude>1</extrude>
      <tesselate>0</tesselate>
      <altitudeMode>relativeToGround</altitudeMode>
      <coordinates>6.45469, 46.5762,20</coordinates>
    </Point>
  </Placemark><Placemark>
    <name>Colombier VD, En Plan</name>
    <Style><LineStyle><width>2</width></LineStyle></Style>
    <Point>
      <extrude>1</extrude>
      <tesselate>0</tesselate>
      <altitudeMode>relativeToGround</altitudeMode>
      <coordinates>6.47962, 46.5499,20</coordinates>
    </Point>
  </Placemark><Placemark>
    <name>Cottens VD, La Caroline</name>
    <Style><LineStyle><width>2</width></LineStyle></Style>
    <Point>
      <extrude>1</extrude>
      <tesselate>0</tesselate>
      <altitudeMode>relativeToGround</altitudeMode>
      <coordinates>6.45805, 46.5706,20</coordinates>
    </Point>
  </Placemark><Placemark>
    <name>St-Saphorin-s-Morges, village</name>
    <Style><LineStyle><width>2</width></LineStyle></Style>
    <Point>
      <extrude>1</extrude>
      <tesselate>0</tesselate>
      <altitudeMode>relativeToGround</altitudeMode>
      <coordinates>6.48816, 46.5457,20</coordinates>
    </Point>
  </Placemark><Placemark>
    <name>St-Saphorin-s-Morges, Cornu</name>
    <Style><LineStyle><width>2</width></LineStyle></Style>
    <Point>
      <extrude>1</extrude>
      <tesselate>0</tesselate>
      <altitudeMode>relativeToGround</altitudeMode>
      <coordinates>6.4839, 46.547,20</coordinates>
    </Point>
  </Placemark></Document>
</kml>
