<kml>
<Document>

<Region>
<LatLonAltBox>
<north>46.796500</north><south>46.730256</south><east>6.554076</east><west>6.401805</west>
<minAltitude>0.000000</minAltitude><maxAltitude>0.000000</maxAltitude>
</LatLonAltBox>
<minLodPixels>2048</minLodPixels><maxLodPixels>1000000000</maxLodPixels>
<minFadeExtent>0</minFadeExtent><maxFadeExtent>0</maxFadeExtent>
</Region>
<Placemark>
    <name>Baulmes, poste</name>
    <Style><LineStyle><width>2</width></LineStyle></Style>
    <Point>
      <extrude>1</extrude>
      <tesselate>0</tesselate>
      <altitudeMode>relativeToGround</altitudeMode>
      <coordinates>6.5221, 46.7898,20</coordinates>
    </Point>
  </Placemark><Placemark>
    <name>Les Clées, bif.</name>
    <Style><LineStyle><width>2</width></LineStyle></Style>
    <Point>
      <extrude>1</extrude>
      <tesselate>0</tesselate>
      <altitudeMode>relativeToGround</altitudeMode>
      <coordinates>6.48017, 46.7322,20</coordinates>
    </Point>
  </Placemark><Placemark>
    <name>Montcherand, poste</name>
    <Style><LineStyle><width>2</width></LineStyle></Style>
    <Point>
      <extrude>1</extrude>
      <tesselate>0</tesselate>
      <altitudeMode>relativeToGround</altitudeMode>
      <coordinates>6.50866, 46.7337,20</coordinates>
    </Point>
  </Placemark><Placemark>
    <name>Sergey</name>
    <Style><LineStyle><width>2</width></LineStyle></Style>
    <Point>
      <extrude>1</extrude>
      <tesselate>0</tesselate>
      <altitudeMode>relativeToGround</altitudeMode>
      <coordinates>6.49999, 46.7509,20</coordinates>
    </Point>
  </Placemark><Placemark>
    <name>L'Abergement, village</name>
    <Style><LineStyle><width>2</width></LineStyle></Style>
    <Point>
      <extrude>1</extrude>
      <tesselate>0</tesselate>
      <altitudeMode>relativeToGround</altitudeMode>
      <coordinates>6.48843, 46.7537,20</coordinates>
    </Point>
  </Placemark><Placemark>
    <name>Baulmes</name>
    <Style><LineStyle><width>2</width></LineStyle></Style>
    <Point>
      <extrude>1</extrude>
      <tesselate>0</tesselate>
      <altitudeMode>relativeToGround</altitudeMode>
      <coordinates>6.52433, 46.7889,20</coordinates>
    </Point>
  </Placemark><Placemark>
    <name>Orbe, Chantemerle</name>
    <Style><LineStyle><width>2</width></LineStyle></Style>
    <Point>
      <extrude>1</extrude>
      <tesselate>0</tesselate>
      <altitudeMode>relativeToGround</altitudeMode>
      <coordinates>6.52848, 46.7305,20</coordinates>
    </Point>
  </Placemark><Placemark>
    <name>Lignerolle, église</name>
    <Style><LineStyle><width>2</width></LineStyle></Style>
    <Point>
      <extrude>1</extrude>
      <tesselate>0</tesselate>
      <altitudeMode>relativeToGround</altitudeMode>
      <coordinates>6.45648, 46.74,20</coordinates>
    </Point>
  </Placemark><Placemark>
    <name>Lignerolle, CVE</name>
    <Style><LineStyle><width>2</width></LineStyle></Style>
    <Point>
      <extrude>1</extrude>
      <tesselate>0</tesselate>
      <altitudeMode>relativeToGround</altitudeMode>
      <coordinates>6.44322, 46.7348,20</coordinates>
    </Point>
  </Placemark><Placemark>
    <name>Lignerolle, Le Daillard</name>
    <Style><LineStyle><width>2</width></LineStyle></Style>
    <Point>
      <extrude>1</extrude>
      <tesselate>0</tesselate>
      <altitudeMode>relativeToGround</altitudeMode>
      <coordinates>6.43797, 46.7358,20</coordinates>
    </Point>
  </Placemark><Placemark>
    <name>Ballaigues, Jura-Rosaly</name>
    <Style><LineStyle><width>2</width></LineStyle></Style>
    <Point>
      <extrude>1</extrude>
      <tesselate>0</tesselate>
      <altitudeMode>relativeToGround</altitudeMode>
      <coordinates>6.42884, 46.7341,20</coordinates>
    </Point>
  </Placemark><Placemark>
    <name>Baulmes, gare</name>
    <Style><LineStyle><width>2</width></LineStyle></Style>
    <Point>
      <extrude>1</extrude>
      <tesselate>0</tesselate>
      <altitudeMode>relativeToGround</altitudeMode>
      <coordinates>6.52369, 46.7887,20</coordinates>
    </Point>
  </Placemark><Placemark>
    <name>Rances, boulangerie</name>
    <Style><LineStyle><width>2</width></LineStyle></Style>
    <Point>
      <extrude>1</extrude>
      <tesselate>0</tesselate>
      <altitudeMode>relativeToGround</altitudeMode>
      <coordinates>6.52994, 46.7602,20</coordinates>
    </Point>
  </Placemark><Placemark>
    <name>Montcherand, bas du village</name>
    <Style><LineStyle><width>2</width></LineStyle></Style>
    <Point>
      <extrude>1</extrude>
      <tesselate>0</tesselate>
      <altitudeMode>relativeToGround</altitudeMode>
      <coordinates>6.51184, 46.7319,20</coordinates>
    </Point>
  </Placemark><Placemark>
    <name>Orbe, poste</name>
    <Style><LineStyle><width>2</width></LineStyle></Style>
    <Point>
      <extrude>1</extrude>
      <tesselate>0</tesselate>
      <altitudeMode>relativeToGround</altitudeMode>
      <coordinates>6.54376, 46.7317,20</coordinates>
    </Point>
  </Placemark><Placemark>
    <name>Montcherand, haut du village</name>
    <Style><LineStyle><width>2</width></LineStyle></Style>
    <Point>
      <extrude>1</extrude>
      <tesselate>0</tesselate>
      <altitudeMode>relativeToGround</altitudeMode>
      <coordinates>6.5105, 46.7334,20</coordinates>
    </Point>
  </Placemark></Document>
</kml>
