<kml>
<Document>

<Region>
<LatLonAltBox>
<north>46.664012</north><south>46.531525</south><east>7.010890</east><west>6.706347</west>
<minAltitude>0.000000</minAltitude><maxAltitude>0.000000</maxAltitude>
</LatLonAltBox>
<minLodPixels>2048</minLodPixels><maxLodPixels>1000000000</maxLodPixels>
<minFadeExtent>0</minFadeExtent><maxFadeExtent>0</maxFadeExtent>
</Region>
<NetworkLink>
<name>020130</name>

<Region>
<LatLonAltBox>
<north>46.664012</north><south>46.597769</south><east>6.858619</east><west>6.706347</west>
<minAltitude>0.000000</minAltitude><maxAltitude>0.000000</maxAltitude>
</LatLonAltBox>
<minLodPixels>256</minLodPixels><maxLodPixels>1000000000</maxLodPixels>
<minFadeExtent>0</minFadeExtent><maxFadeExtent>0</maxFadeExtent>
</Region>
<Link>
<href>020130.kml</href><viewRefreshMode>onRegion</viewRefreshMode></Link>
</NetworkLink>
<NetworkLink>
<name>020131</name>

<Region>
<LatLonAltBox>
<north>46.664012</north><south>46.597769</south><east>7.010890</east><west>6.858619</west>
<minAltitude>0.000000</minAltitude><maxAltitude>0.000000</maxAltitude>
</LatLonAltBox>
<minLodPixels>256</minLodPixels><maxLodPixels>1000000000</maxLodPixels>
<minFadeExtent>0</minFadeExtent><maxFadeExtent>0</maxFadeExtent>
</Region>
<Link>
<href>020131.kml</href><viewRefreshMode>onRegion</viewRefreshMode></Link>
</NetworkLink>
<NetworkLink>
<name>020132</name>

<Region>
<LatLonAltBox>
<north>46.597769</north><south>46.531525</south><east>6.858619</east><west>6.706347</west>
<minAltitude>0.000000</minAltitude><maxAltitude>0.000000</maxAltitude>
</LatLonAltBox>
<minLodPixels>256</minLodPixels><maxLodPixels>1000000000</maxLodPixels>
<minFadeExtent>0</minFadeExtent><maxFadeExtent>0</maxFadeExtent>
</Region>
<Link>
<href>020132.kml</href><viewRefreshMode>onRegion</viewRefreshMode></Link>
</NetworkLink>
<NetworkLink>
<name>020133</name>

<Region>
<LatLonAltBox>
<north>46.597769</north><south>46.531525</south><east>7.010890</east><west>6.858619</west>
<minAltitude>0.000000</minAltitude><maxAltitude>0.000000</maxAltitude>
</LatLonAltBox>
<minLodPixels>256</minLodPixels><maxLodPixels>1000000000</maxLodPixels>
<minFadeExtent>0</minFadeExtent><maxFadeExtent>0</maxFadeExtent>
</Region>
<Link>
<href>020133.kml</href><viewRefreshMode>onRegion</viewRefreshMode></Link>
</NetworkLink>
<Placemark>
    <name>Fiaugères, En Saubaz</name>
    <Style><LineStyle><width>2</width></LineStyle></Style>
    <Point>
      <extrude>1</extrude>
      <tesselate>0</tesselate>
      <altitudeMode>relativeToGround</altitudeMode>
      <coordinates>6.87566, 46.5838,20</coordinates>
    </Point>
  </Placemark><Placemark>
    <name>Chavannes-sur-Moudon, village</name>
    <Style><LineStyle><width>2</width></LineStyle></Style>
    <Point>
      <extrude>1</extrude>
      <tesselate>0</tesselate>
      <altitudeMode>relativeToGround</altitudeMode>
      <coordinates>6.81021, 46.6579,20</coordinates>
    </Point>
  </Placemark><Placemark>
    <name>Rue, Montet bif.</name>
    <Style><LineStyle><width>2</width></LineStyle></Style>
    <Point>
      <extrude>1</extrude>
      <tesselate>0</tesselate>
      <altitudeMode>relativeToGround</altitudeMode>
      <coordinates>6.81088, 46.6452,20</coordinates>
    </Point>
  </Placemark><Placemark>
    <name>La Joux FR, centre</name>
    <Style><LineStyle><width>2</width></LineStyle></Style>
    <Point>
      <extrude>1</extrude>
      <tesselate>0</tesselate>
      <altitudeMode>relativeToGround</altitudeMode>
      <coordinates>6.93852, 46.6288,20</coordinates>
    </Point>
  </Placemark><Placemark>
    <name>Vaulruz-Nord</name>
    <Style><LineStyle><width>2</width></LineStyle></Style>
    <Point>
      <extrude>1</extrude>
      <tesselate>0</tesselate>
      <altitudeMode>relativeToGround</altitudeMode>
      <coordinates>6.99073, 46.6238,20</coordinates>
    </Point>
  </Placemark><Placemark>
    <name>Vuisternens-devant-Romont</name>
    <Style><LineStyle><width>2</width></LineStyle></Style>
    <Point>
      <extrude>1</extrude>
      <tesselate>0</tesselate>
      <altitudeMode>relativeToGround</altitudeMode>
      <coordinates>6.93001, 46.6526,20</coordinates>
    </Point>
  </Placemark><Placemark>
    <name>Rueyres-Treyfayes</name>
    <Style><LineStyle><width>2</width></LineStyle></Style>
    <Point>
      <extrude>1</extrude>
      <tesselate>0</tesselate>
      <altitudeMode>relativeToGround</altitudeMode>
      <coordinates>6.95587, 46.6453,20</coordinates>
    </Point>
  </Placemark><Placemark>
    <name>Sâles</name>
    <Style><LineStyle><width>2</width></LineStyle></Style>
    <Point>
      <extrude>1</extrude>
      <tesselate>0</tesselate>
      <altitudeMode>relativeToGround</altitudeMode>
      <coordinates>6.97403, 46.6403,20</coordinates>
    </Point>
  </Placemark><Placemark>
    <name>Les Cullayes, Pra la Tête</name>
    <Style><LineStyle><width>2</width></LineStyle></Style>
    <Point>
      <extrude>1</extrude>
      <tesselate>0</tesselate>
      <altitudeMode>relativeToGround</altitudeMode>
      <coordinates>6.7588, 46.5649,20</coordinates>
    </Point>
  </Placemark><Placemark>
    <name>Vuisternens-dt-Romont, gare</name>
    <Style><LineStyle><width>2</width></LineStyle></Style>
    <Point>
      <extrude>1</extrude>
      <tesselate>0</tesselate>
      <altitudeMode>relativeToGround</altitudeMode>
      <coordinates>6.92916, 46.6522,20</coordinates>
    </Point>
  </Placemark><Placemark>
    <name>Peyres-Possens, café</name>
    <Style><LineStyle><width>2</width></LineStyle></Style>
    <Point>
      <extrude>1</extrude>
      <tesselate>0</tesselate>
      <altitudeMode>relativeToGround</altitudeMode>
      <coordinates>6.70692, 46.6633,20</coordinates>
    </Point>
  </Placemark><Placemark>
    <name>Châtillens, gare</name>
    <Style><LineStyle><width>2</width></LineStyle></Style>
    <Point>
      <extrude>1</extrude>
      <tesselate>0</tesselate>
      <altitudeMode>relativeToGround</altitudeMode>
      <coordinates>6.81547, 46.5704,20</coordinates>
    </Point>
  </Placemark><Placemark>
    <name>Oron-la-Ville, Pré à l'Abbé</name>
    <Style><LineStyle><width>2</width></LineStyle></Style>
    <Point>
      <extrude>1</extrude>
      <tesselate>0</tesselate>
      <altitudeMode>relativeToGround</altitudeMode>
      <coordinates>6.83149, 46.5669,20</coordinates>
    </Point>
  </Placemark><Placemark>
    <name>Mossel, village</name>
    <Style><LineStyle><width>2</width></LineStyle></Style>
    <Point>
      <extrude>1</extrude>
      <tesselate>0</tesselate>
      <altitudeMode>relativeToGround</altitudeMode>
      <coordinates>6.85515, 46.6104,20</coordinates>
    </Point>
  </Placemark><Placemark>
    <name>Servion, Grange Rouge</name>
    <Style><LineStyle><width>2</width></LineStyle></Style>
    <Point>
      <extrude>1</extrude>
      <tesselate>0</tesselate>
      <altitudeMode>relativeToGround</altitudeMode>
      <coordinates>6.77895, 46.5711,20</coordinates>
    </Point>
  </Placemark><Placemark>
    <name>Montpreveyres, Halte TL</name>
    <Style><LineStyle><width>2</width></LineStyle></Style>
    <Point>
      <extrude>1</extrude>
      <tesselate>0</tesselate>
      <altitudeMode>relativeToGround</altitudeMode>
      <coordinates>6.74064, 46.5824,20</coordinates>
    </Point>
  </Placemark><Placemark>
    <name>Ferlens VD, village</name>
    <Style><LineStyle><width>2</width></LineStyle></Style>
    <Point>
      <extrude>1</extrude>
      <tesselate>0</tesselate>
      <altitudeMode>relativeToGround</altitudeMode>
      <coordinates>6.78558, 46.5885,20</coordinates>
    </Point>
  </Placemark><Placemark>
    <name>Siviriez</name>
    <Style><LineStyle><width>2</width></LineStyle></Style>
    <Point>
      <extrude>1</extrude>
      <tesselate>0</tesselate>
      <altitudeMode>relativeToGround</altitudeMode>
      <coordinates>6.8838, 46.6563,20</coordinates>
    </Point>
  </Placemark><Placemark>
    <name>Oron</name>
    <Style><LineStyle><width>2</width></LineStyle></Style>
    <Point>
      <extrude>1</extrude>
      <tesselate>0</tesselate>
      <altitudeMode>relativeToGround</altitudeMode>
      <coordinates>6.8371, 46.5725,20</coordinates>
    </Point>
  </Placemark><Placemark>
    <name>Vauderens</name>
    <Style><LineStyle><width>2</width></LineStyle></Style>
    <Point>
      <extrude>1</extrude>
      <tesselate>0</tesselate>
      <altitudeMode>relativeToGround</altitudeMode>
      <coordinates>6.85003, 46.6214,20</coordinates>
    </Point>
  </Placemark><Placemark>
    <name>Vuarmarens, poste</name>
    <Style><LineStyle><width>2</width></LineStyle></Style>
    <Point>
      <extrude>1</extrude>
      <tesselate>0</tesselate>
      <altitudeMode>relativeToGround</altitudeMode>
      <coordinates>6.82474, 46.6445,20</coordinates>
    </Point>
  </Placemark><Placemark>
    <name>Mollie-Margot, centre</name>
    <Style><LineStyle><width>2</width></LineStyle></Style>
    <Point>
      <extrude>1</extrude>
      <tesselate>0</tesselate>
      <altitudeMode>relativeToGround</altitudeMode>
      <coordinates>6.75011, 46.5559,20</coordinates>
    </Point>
  </Placemark><Placemark>
    <name>Les Ponts</name>
    <Style><LineStyle><width>2</width></LineStyle></Style>
    <Point>
      <extrude>1</extrude>
      <tesselate>0</tesselate>
      <altitudeMode>relativeToGround</altitudeMode>
      <coordinates>6.98081, 46.6177,20</coordinates>
    </Point>
  </Placemark><Placemark>
    <name>Le Crêt</name>
    <Style><LineStyle><width>2</width></LineStyle></Style>
    <Point>
      <extrude>1</extrude>
      <tesselate>0</tesselate>
      <altitudeMode>relativeToGround</altitudeMode>
      <coordinates>6.9416, 46.601,20</coordinates>
    </Point>
  </Placemark><Placemark>
    <name>Corcelles-le-Jt.,Champ-la-Dame</name>
    <Style><LineStyle><width>2</width></LineStyle></Style>
    <Point>
      <extrude>1</extrude>
      <tesselate>0</tesselate>
      <altitudeMode>relativeToGround</altitudeMode>
      <coordinates>6.74352, 46.6118,20</coordinates>
    </Point>
  </Placemark><Placemark>
    <name>Ropraz, village</name>
    <Style><LineStyle><width>2</width></LineStyle></Style>
    <Point>
      <extrude>1</extrude>
      <tesselate>0</tesselate>
      <altitudeMode>relativeToGround</altitudeMode>
      <coordinates>6.75164, 46.615,20</coordinates>
    </Point>
  </Placemark><Placemark>
    <name>Corcelles-le-Jt., Le Torel</name>
    <Style><LineStyle><width>2</width></LineStyle></Style>
    <Point>
      <extrude>1</extrude>
      <tesselate>0</tesselate>
      <altitudeMode>relativeToGround</altitudeMode>
      <coordinates>6.74201, 46.6022,20</coordinates>
    </Point>
  </Placemark><Placemark>
    <name>Corcelles-le-Jorat, village</name>
    <Style><LineStyle><width>2</width></LineStyle></Style>
    <Point>
      <extrude>1</extrude>
      <tesselate>0</tesselate>
      <altitudeMode>relativeToGround</altitudeMode>
      <coordinates>6.7426, 46.6076,20</coordinates>
    </Point>
  </Placemark><Placemark>
    <name>Auboranges, Café</name>
    <Style><LineStyle><width>2</width></LineStyle></Style>
    <Point>
      <extrude>1</extrude>
      <tesselate>0</tesselate>
      <altitudeMode>relativeToGround</altitudeMode>
      <coordinates>6.80556, 46.5814,20</coordinates>
    </Point>
  </Placemark><Placemark>
    <name>Vuibroye, Champacot</name>
    <Style><LineStyle><width>2</width></LineStyle></Style>
    <Point>
      <extrude>1</extrude>
      <tesselate>0</tesselate>
      <altitudeMode>relativeToGround</altitudeMode>
      <coordinates>6.80921, 46.5758,20</coordinates>
    </Point>
  </Placemark><Placemark>
    <name>Ferlens VD, Café du Nord</name>
    <Style><LineStyle><width>2</width></LineStyle></Style>
    <Point>
      <extrude>1</extrude>
      <tesselate>0</tesselate>
      <altitudeMode>relativeToGround</altitudeMode>
      <coordinates>6.78847, 46.5921,20</coordinates>
    </Point>
  </Placemark><Placemark>
    <name>Auboranges, Le Jordil</name>
    <Style><LineStyle><width>2</width></LineStyle></Style>
    <Point>
      <extrude>1</extrude>
      <tesselate>0</tesselate>
      <altitudeMode>relativeToGround</altitudeMode>
      <coordinates>6.80288, 46.587,20</coordinates>
    </Point>
  </Placemark><Placemark>
    <name>Palézieux-Village, centre</name>
    <Style><LineStyle><width>2</width></LineStyle></Style>
    <Point>
      <extrude>1</extrude>
      <tesselate>0</tesselate>
      <altitudeMode>relativeToGround</altitudeMode>
      <coordinates>6.82999, 46.5548,20</coordinates>
    </Point>
  </Placemark><Placemark>
    <name>Grattavache, village</name>
    <Style><LineStyle><width>2</width></LineStyle></Style>
    <Point>
      <extrude>1</extrude>
      <tesselate>0</tesselate>
      <altitudeMode>relativeToGround</altitudeMode>
      <coordinates>6.91893, 46.595,20</coordinates>
    </Point>
  </Placemark><Placemark>
    <name>Crêt-près-S.,Champ-de-l'église</name>
    <Style><LineStyle><width>2</width></LineStyle></Style>
    <Point>
      <extrude>1</extrude>
      <tesselate>0</tesselate>
      <altitudeMode>relativeToGround</altitudeMode>
      <coordinates>6.92574, 46.5998,20</coordinates>
    </Point>
  </Placemark><Placemark>
    <name>Crêt-près-Semsales, église</name>
    <Style><LineStyle><width>2</width></LineStyle></Style>
    <Point>
      <extrude>1</extrude>
      <tesselate>0</tesselate>
      <altitudeMode>relativeToGround</altitudeMode>
      <coordinates>6.90966, 46.6089,20</coordinates>
    </Point>
  </Placemark><Placemark>
    <name>Semsales</name>
    <Style><LineStyle><width>2</width></LineStyle></Style>
    <Point>
      <extrude>1</extrude>
      <tesselate>0</tesselate>
      <altitudeMode>relativeToGround</altitudeMode>
      <coordinates>6.92679, 46.5733,20</coordinates>
    </Point>
  </Placemark><Placemark>
    <name>La Verrerie</name>
    <Style><LineStyle><width>2</width></LineStyle></Style>
    <Point>
      <extrude>1</extrude>
      <tesselate>0</tesselate>
      <altitudeMode>relativeToGround</altitudeMode>
      <coordinates>6.92509, 46.5873,20</coordinates>
    </Point>
  </Placemark><Placemark>
    <name>Vaulruz-Sud</name>
    <Style><LineStyle><width>2</width></LineStyle></Style>
    <Point>
      <extrude>1</extrude>
      <tesselate>0</tesselate>
      <altitudeMode>relativeToGround</altitudeMode>
      <coordinates>6.9904, 46.6191,20</coordinates>
    </Point>
  </Placemark><Placemark>
    <name>Peney-le-Jorat, collège</name>
    <Style><LineStyle><width>2</width></LineStyle></Style>
    <Point>
      <extrude>1</extrude>
      <tesselate>0</tesselate>
      <altitudeMode>relativeToGround</altitudeMode>
      <coordinates>6.72856, 46.6329,20</coordinates>
    </Point>
  </Placemark><Placemark>
    <name>Bussigny, collège</name>
    <Style><LineStyle><width>2</width></LineStyle></Style>
    <Point>
      <extrude>1</extrude>
      <tesselate>0</tesselate>
      <altitudeMode>relativeToGround</altitudeMode>
      <coordinates>6.86276, 46.5696,20</coordinates>
    </Point>
  </Placemark><Placemark>
    <name>Oron-la-Ville, collège</name>
    <Style><LineStyle><width>2</width></LineStyle></Style>
    <Point>
      <extrude>1</extrude>
      <tesselate>0</tesselate>
      <altitudeMode>relativeToGround</altitudeMode>
      <coordinates>6.82393, 46.5718,20</coordinates>
    </Point>
  </Placemark><Placemark>
    <name>Savigny, centre</name>
    <Style><LineStyle><width>2</width></LineStyle></Style>
    <Point>
      <extrude>1</extrude>
      <tesselate>0</tesselate>
      <altitudeMode>relativeToGround</altitudeMode>
      <coordinates>6.73078, 46.5378,20</coordinates>
    </Point>
  </Placemark><Placemark>
    <name>Palézieux, Zone ind. En Grivaz</name>
    <Style><LineStyle><width>2</width></LineStyle></Style>
    <Point>
      <extrude>1</extrude>
      <tesselate>0</tesselate>
      <altitudeMode>relativeToGround</altitudeMode>
      <coordinates>6.83041, 46.5464,20</coordinates>
    </Point>
  </Placemark><Placemark>
    <name>Peney-le-Jorat, Chalet Renards</name>
    <Style><LineStyle><width>2</width></LineStyle></Style>
    <Point>
      <extrude>1</extrude>
      <tesselate>0</tesselate>
      <altitudeMode>relativeToGround</altitudeMode>
      <coordinates>6.72207, 46.6297,20</coordinates>
    </Point>
  </Placemark><Placemark>
    <name>Peney-le-Jorat, poste</name>
    <Style><LineStyle><width>2</width></LineStyle></Style>
    <Point>
      <extrude>1</extrude>
      <tesselate>0</tesselate>
      <altitudeMode>relativeToGround</altitudeMode>
      <coordinates>6.72693, 46.6329,20</coordinates>
    </Point>
  </Placemark><Placemark>
    <name>Moudon, Belflori</name>
    <Style><LineStyle><width>2</width></LineStyle></Style>
    <Point>
      <extrude>1</extrude>
      <tesselate>0</tesselate>
      <altitudeMode>relativeToGround</altitudeMode>
      <coordinates>6.78244, 46.6589,20</coordinates>
    </Point>
  </Placemark><Placemark>
    <name>Rossenges, croisée</name>
    <Style><LineStyle><width>2</width></LineStyle></Style>
    <Point>
      <extrude>1</extrude>
      <tesselate>0</tesselate>
      <altitudeMode>relativeToGround</altitudeMode>
      <coordinates>6.77631, 46.6523,20</coordinates>
    </Point>
  </Placemark><Placemark>
    <name>Hermenches, Moille-Robert</name>
    <Style><LineStyle><width>2</width></LineStyle></Style>
    <Point>
      <extrude>1</extrude>
      <tesselate>0</tesselate>
      <altitudeMode>relativeToGround</altitudeMode>
      <coordinates>6.763, 46.6459,20</coordinates>
    </Point>
  </Placemark></Document>
</kml>
