<kml>
<Document>

<Region>
<LatLonAltBox>
<north>46.796500</north><south>46.730256</south><east>6.706347</east><west>6.554076</west>
<minAltitude>0.000000</minAltitude><maxAltitude>0.000000</maxAltitude>
</LatLonAltBox>
<minLodPixels>2048</minLodPixels><maxLodPixels>1000000000</maxLodPixels>
<minFadeExtent>0</minFadeExtent><maxFadeExtent>0</maxFadeExtent>
</Region>
<Placemark>
    <name>Pomy, Centre ORIPH</name>
    <Style><LineStyle><width>2</width></LineStyle></Style>
    <Point>
      <extrude>1</extrude>
      <tesselate>0</tesselate>
      <altitudeMode>relativeToGround</altitudeMode>
      <coordinates>6.65548, 46.7644,20</coordinates>
    </Point>
  </Placemark><Placemark>
    <name>Yverdon, CESSNOV</name>
    <Style><LineStyle><width>2</width></LineStyle></Style>
    <Point>
      <extrude>1</extrude>
      <tesselate>0</tesselate>
      <altitudeMode>relativeToGround</altitudeMode>
      <coordinates>6.66607, 46.7794,20</coordinates>
    </Point>
  </Placemark><Placemark>
    <name>Châtelard (Treycovagnes)</name>
    <Style><LineStyle><width>2</width></LineStyle></Style>
    <Point>
      <extrude>1</extrude>
      <tesselate>0</tesselate>
      <altitudeMode>relativeToGround</altitudeMode>
      <coordinates>6.61632, 46.7781,20</coordinates>
    </Point>
  </Placemark><Placemark>
    <name>Yverdon, Calamin</name>
    <Style><LineStyle><width>2</width></LineStyle></Style>
    <Point>
      <extrude>1</extrude>
      <tesselate>0</tesselate>
      <altitudeMode>relativeToGround</altitudeMode>
      <coordinates>6.65325, 46.7689,20</coordinates>
    </Point>
  </Placemark><Placemark>
    <name>Le Bas-des-Monts</name>
    <Style><LineStyle><width>2</width></LineStyle></Style>
    <Point>
      <extrude>1</extrude>
      <tesselate>0</tesselate>
      <altitudeMode>relativeToGround</altitudeMode>
      <coordinates>6.63894, 46.754,20</coordinates>
    </Point>
  </Placemark><Placemark>
    <name>Belmont-sur-Yverdon, poste</name>
    <Style><LineStyle><width>2</width></LineStyle></Style>
    <Point>
      <extrude>1</extrude>
      <tesselate>0</tesselate>
      <altitudeMode>relativeToGround</altitudeMode>
      <coordinates>6.62336, 46.746,20</coordinates>
    </Point>
  </Placemark><Placemark>
    <name>Cronay, poste</name>
    <Style><LineStyle><width>2</width></LineStyle></Style>
    <Point>
      <extrude>1</extrude>
      <tesselate>0</tesselate>
      <altitudeMode>relativeToGround</altitudeMode>
      <coordinates>6.69587, 46.7548,20</coordinates>
    </Point>
  </Placemark><Placemark>
    <name>Epautheyres, croisée</name>
    <Style><LineStyle><width>2</width></LineStyle></Style>
    <Point>
      <extrude>1</extrude>
      <tesselate>0</tesselate>
      <altitudeMode>relativeToGround</altitudeMode>
      <coordinates>6.64048, 46.7382,20</coordinates>
    </Point>
  </Placemark><Placemark>
    <name>La Brinaz</name>
    <Style><LineStyle><width>2</width></LineStyle></Style>
    <Point>
      <extrude>1</extrude>
      <tesselate>0</tesselate>
      <altitudeMode>relativeToGround</altitudeMode>
      <coordinates>6.62006, 46.7945,20</coordinates>
    </Point>
  </Placemark><Placemark>
    <name>Essert-sous-Champvent</name>
    <Style><LineStyle><width>2</width></LineStyle></Style>
    <Point>
      <extrude>1</extrude>
      <tesselate>0</tesselate>
      <altitudeMode>relativeToGround</altitudeMode>
      <coordinates>6.57983, 46.7953,20</coordinates>
    </Point>
  </Placemark><Placemark>
    <name>Champvent, Croix fédérale</name>
    <Style><LineStyle><width>2</width></LineStyle></Style>
    <Point>
      <extrude>1</extrude>
      <tesselate>0</tesselate>
      <altitudeMode>relativeToGround</altitudeMode>
      <coordinates>6.57239, 46.7825,20</coordinates>
    </Point>
  </Placemark><Placemark>
    <name>Cronay, Moulin du Pont</name>
    <Style><LineStyle><width>2</width></LineStyle></Style>
    <Point>
      <extrude>1</extrude>
      <tesselate>0</tesselate>
      <altitudeMode>relativeToGround</altitudeMode>
      <coordinates>6.70606, 46.7461,20</coordinates>
    </Point>
  </Placemark><Placemark>
    <name>Yverdon, Le Bey</name>
    <Style><LineStyle><width>2</width></LineStyle></Style>
    <Point>
      <extrude>1</extrude>
      <tesselate>0</tesselate>
      <altitudeMode>relativeToGround</altitudeMode>
      <coordinates>6.62817, 46.7912,20</coordinates>
    </Point>
  </Placemark><Placemark>
    <name>Pomy, croisée de Sermuz</name>
    <Style><LineStyle><width>2</width></LineStyle></Style>
    <Point>
      <extrude>1</extrude>
      <tesselate>0</tesselate>
      <altitudeMode>relativeToGround</altitudeMode>
      <coordinates>6.65442, 46.7606,20</coordinates>
    </Point>
  </Placemark><Placemark>
    <name>Yverdon, Rue de Fontenay</name>
    <Style><LineStyle><width>2</width></LineStyle></Style>
    <Point>
      <extrude>1</extrude>
      <tesselate>0</tesselate>
      <altitudeMode>relativeToGround</altitudeMode>
      <coordinates>6.63329, 46.7818,20</coordinates>
    </Point>
  </Placemark><Placemark>
    <name>Pomy, poste</name>
    <Style><LineStyle><width>2</width></LineStyle></Style>
    <Point>
      <extrude>1</extrude>
      <tesselate>0</tesselate>
      <altitudeMode>relativeToGround</altitudeMode>
      <coordinates>6.667, 46.7598,20</coordinates>
    </Point>
  </Placemark><Placemark>
    <name>Yverdon, Quai de la Thielle</name>
    <Style><LineStyle><width>2</width></LineStyle></Style>
    <Point>
      <extrude>1</extrude>
      <tesselate>0</tesselate>
      <altitudeMode>relativeToGround</altitudeMode>
      <coordinates>6.63656, 46.7821,20</coordinates>
    </Point>
  </Placemark><Placemark>
    <name>Yverdon-les-Bains</name>
    <Style><LineStyle><width>2</width></LineStyle></Style>
    <Point>
      <extrude>1</extrude>
      <tesselate>0</tesselate>
      <altitudeMode>relativeToGround</altitudeMode>
      <coordinates>6.64115, 46.7819,20</coordinates>
    </Point>
  </Placemark><Placemark>
    <name>Yverdon, Condémines</name>
    <Style><LineStyle><width>2</width></LineStyle></Style>
    <Point>
      <extrude>1</extrude>
      <tesselate>0</tesselate>
      <altitudeMode>relativeToGround</altitudeMode>
      <coordinates>6.65087, 46.7664,20</coordinates>
    </Point>
  </Placemark><Placemark>
    <name>Belmont-sur-Yverdon, Les Prés</name>
    <Style><LineStyle><width>2</width></LineStyle></Style>
    <Point>
      <extrude>1</extrude>
      <tesselate>0</tesselate>
      <altitudeMode>relativeToGround</altitudeMode>
      <coordinates>6.62148, 46.7404,20</coordinates>
    </Point>
  </Placemark><Placemark>
    <name>Villars-Epeney, Clar Chaney</name>
    <Style><LineStyle><width>2</width></LineStyle></Style>
    <Point>
      <extrude>1</extrude>
      <tesselate>0</tesselate>
      <altitudeMode>relativeToGround</altitudeMode>
      <coordinates>6.69414, 46.7852,20</coordinates>
    </Point>
  </Placemark><Placemark>
    <name>Cuarny, église</name>
    <Style><LineStyle><width>2</width></LineStyle></Style>
    <Point>
      <extrude>1</extrude>
      <tesselate>0</tesselate>
      <altitudeMode>relativeToGround</altitudeMode>
      <coordinates>6.68748, 46.7694,20</coordinates>
    </Point>
  </Placemark><Placemark>
    <name>Ependes VD, croisée</name>
    <Style><LineStyle><width>2</width></LineStyle></Style>
    <Point>
      <extrude>1</extrude>
      <tesselate>0</tesselate>
      <altitudeMode>relativeToGround</altitudeMode>
      <coordinates>6.60934, 46.743,20</coordinates>
    </Point>
  </Placemark><Placemark>
    <name>Gossens, La Cernia</name>
    <Style><LineStyle><width>2</width></LineStyle></Style>
    <Point>
      <extrude>1</extrude>
      <tesselate>0</tesselate>
      <altitudeMode>relativeToGround</altitudeMode>
      <coordinates>6.69779, 46.7339,20</coordinates>
    </Point>
  </Placemark><Placemark>
    <name>Yverdon William Barbey</name>
    <Style><LineStyle><width>2</width></LineStyle></Style>
    <Point>
      <extrude>1</extrude>
      <tesselate>0</tesselate>
      <altitudeMode>relativeToGround</altitudeMode>
      <coordinates>6.63163, 46.7888,20</coordinates>
    </Point>
  </Placemark><Placemark>
    <name>Cheseaux-Noréaz, Le Pré</name>
    <Style><LineStyle><width>2</width></LineStyle></Style>
    <Point>
      <extrude>1</extrude>
      <tesselate>0</tesselate>
      <altitudeMode>relativeToGround</altitudeMode>
      <coordinates>6.67335, 46.7828,20</coordinates>
    </Point>
  </Placemark><Placemark>
    <name>Yverdon, La Villette</name>
    <Style><LineStyle><width>2</width></LineStyle></Style>
    <Point>
      <extrude>1</extrude>
      <tesselate>0</tesselate>
      <altitudeMode>relativeToGround</altitudeMode>
      <coordinates>6.65789, 46.7791,20</coordinates>
    </Point>
  </Placemark><Placemark>
    <name>Villars-sous-Champvent</name>
    <Style><LineStyle><width>2</width></LineStyle></Style>
    <Point>
      <extrude>1</extrude>
      <tesselate>0</tesselate>
      <altitudeMode>relativeToGround</altitudeMode>
      <coordinates>6.58313, 46.7864,20</coordinates>
    </Point>
  </Placemark><Placemark>
    <name>Essert-sous-Champvent, gare</name>
    <Style><LineStyle><width>2</width></LineStyle></Style>
    <Point>
      <extrude>1</extrude>
      <tesselate>0</tesselate>
      <altitudeMode>relativeToGround</altitudeMode>
      <coordinates>6.57971, 46.7952,20</coordinates>
    </Point>
  </Placemark><Placemark>
    <name>Champvent, poste</name>
    <Style><LineStyle><width>2</width></LineStyle></Style>
    <Point>
      <extrude>1</extrude>
      <tesselate>0</tesselate>
      <altitudeMode>relativeToGround</altitudeMode>
      <coordinates>6.57531, 46.7841,20</coordinates>
    </Point>
  </Placemark><Placemark>
    <name>Yverdon-Champ Pittet</name>
    <Style><LineStyle><width>2</width></LineStyle></Style>
    <Point>
      <extrude>1</extrude>
      <tesselate>0</tesselate>
      <altitudeMode>relativeToGround</altitudeMode>
      <coordinates>6.66232, 46.7821,20</coordinates>
    </Point>
  </Placemark><Placemark>
    <name>Chamblon, village</name>
    <Style><LineStyle><width>2</width></LineStyle></Style>
    <Point>
      <extrude>1</extrude>
      <tesselate>0</tesselate>
      <altitudeMode>relativeToGround</altitudeMode>
      <coordinates>6.60585, 46.778,20</coordinates>
    </Point>
  </Placemark><Placemark>
    <name>Chamblon, Casernes</name>
    <Style><LineStyle><width>2</width></LineStyle></Style>
    <Point>
      <extrude>1</extrude>
      <tesselate>0</tesselate>
      <altitudeMode>relativeToGround</altitudeMode>
      <coordinates>6.59798, 46.7789,20</coordinates>
    </Point>
  </Placemark><Placemark>
    <name>Yverdon, gare</name>
    <Style><LineStyle><width>2</width></LineStyle></Style>
    <Point>
      <extrude>1</extrude>
      <tesselate>0</tesselate>
      <altitudeMode>relativeToGround</altitudeMode>
      <coordinates>6.64076, 46.7813,20</coordinates>
    </Point>
  </Placemark><Placemark>
    <name>Cheseaux-Noréaz, village</name>
    <Style><LineStyle><width>2</width></LineStyle></Style>
    <Point>
      <extrude>1</extrude>
      <tesselate>0</tesselate>
      <altitudeMode>relativeToGround</altitudeMode>
      <coordinates>6.6768, 46.7844,20</coordinates>
    </Point>
  </Placemark><Placemark>
    <name>Yverdon-les-Bains LNM</name>
    <Style><LineStyle><width>2</width></LineStyle></Style>
    <Point>
      <extrude>1</extrude>
      <tesselate>0</tesselate>
      <altitudeMode>relativeToGround</altitudeMode>
      <coordinates>6.64928, 46.7862,20</coordinates>
    </Point>
  </Placemark></Document>
</kml>
