<kml>
<Document>

<Region>
<LatLonAltBox>
<north>46.531525</north><south>46.266550</south><east>6.401805</east><west>5.792720</west>
<minAltitude>0.000000</minAltitude><maxAltitude>0.000000</maxAltitude>
</LatLonAltBox>
<minLodPixels>2048</minLodPixels><maxLodPixels>1000000000</maxLodPixels>
<minFadeExtent>0</minFadeExtent><maxFadeExtent>0</maxFadeExtent>
</Region>
<NetworkLink>
<name>02020</name>

<Region>
<LatLonAltBox>
<north>46.531525</north><south>46.399038</south><east>6.097262</east><west>5.792720</west>
<minAltitude>0.000000</minAltitude><maxAltitude>0.000000</maxAltitude>
</LatLonAltBox>
<minLodPixels>256</minLodPixels><maxLodPixels>1000000000</maxLodPixels>
<minFadeExtent>0</minFadeExtent><maxFadeExtent>0</maxFadeExtent>
</Region>
<Link>
<href>02020.kml</href><viewRefreshMode>onRegion</viewRefreshMode></Link>
</NetworkLink>
<NetworkLink>
<name>02021</name>

<Region>
<LatLonAltBox>
<north>46.531525</north><south>46.399038</south><east>6.401805</east><west>6.097262</west>
<minAltitude>0.000000</minAltitude><maxAltitude>0.000000</maxAltitude>
</LatLonAltBox>
<minLodPixels>256</minLodPixels><maxLodPixels>1000000000</maxLodPixels>
<minFadeExtent>0</minFadeExtent><maxFadeExtent>0</maxFadeExtent>
</Region>
<Link>
<href>02021.kml</href><viewRefreshMode>onRegion</viewRefreshMode></Link>
</NetworkLink>
<NetworkLink>
<name>02022</name>

<Region>
<LatLonAltBox>
<north>46.399038</north><south>46.266550</south><east>6.097262</east><west>5.792720</west>
<minAltitude>0.000000</minAltitude><maxAltitude>0.000000</maxAltitude>
</LatLonAltBox>
<minLodPixels>256</minLodPixels><maxLodPixels>1000000000</maxLodPixels>
<minFadeExtent>0</minFadeExtent><maxFadeExtent>0</maxFadeExtent>
</Region>
<Link>
<href>02022.kml</href><viewRefreshMode>onRegion</viewRefreshMode></Link>
</NetworkLink>
<NetworkLink>
<name>02023</name>

<Region>
<LatLonAltBox>
<north>46.399038</north><south>46.266550</south><east>6.401805</east><west>6.097262</west>
<minAltitude>0.000000</minAltitude><maxAltitude>0.000000</maxAltitude>
</LatLonAltBox>
<minLodPixels>256</minLodPixels><maxLodPixels>1000000000</maxLodPixels>
<minFadeExtent>0</minFadeExtent><maxFadeExtent>0</maxFadeExtent>
</Region>
<Link>
<href>02023.kml</href><viewRefreshMode>onRegion</viewRefreshMode></Link>
</NetworkLink>
<Placemark>
    <name>Prangins, poste</name>
    <Style><LineStyle><width>2</width></LineStyle></Style>
    <Point>
      <extrude>1</extrude>
      <tesselate>0</tesselate>
      <altitudeMode>relativeToGround</altitudeMode>
      <coordinates>6.24934, 46.3923,20</coordinates>
    </Point>
  </Placemark><Placemark>
    <name>Marchissy, village</name>
    <Style><LineStyle><width>2</width></LineStyle></Style>
    <Point>
      <extrude>1</extrude>
      <tesselate>0</tesselate>
      <altitudeMode>relativeToGround</altitudeMode>
      <coordinates>6.24691, 46.4878,20</coordinates>
    </Point>
  </Placemark><Placemark>
    <name>St-George, village</name>
    <Style><LineStyle><width>2</width></LineStyle></Style>
    <Point>
      <extrude>1</extrude>
      <tesselate>0</tesselate>
      <altitudeMode>relativeToGround</altitudeMode>
      <coordinates>6.261, 46.5139,20</coordinates>
    </Point>
  </Placemark><Placemark>
    <name>Le Vaud, poste</name>
    <Style><LineStyle><width>2</width></LineStyle></Style>
    <Point>
      <extrude>1</extrude>
      <tesselate>0</tesselate>
      <altitudeMode>relativeToGround</altitudeMode>
      <coordinates>6.23446, 46.4767,20</coordinates>
    </Point>
  </Placemark><Placemark>
    <name>Vich, poste</name>
    <Style><LineStyle><width>2</width></LineStyle></Style>
    <Point>
      <extrude>1</extrude>
      <tesselate>0</tesselate>
      <altitudeMode>relativeToGround</altitudeMode>
      <coordinates>6.24984, 46.4287,20</coordinates>
    </Point>
  </Placemark><Placemark>
    <name>Bassins, village</name>
    <Style><LineStyle><width>2</width></LineStyle></Style>
    <Point>
      <extrude>1</extrude>
      <tesselate>0</tesselate>
      <altitudeMode>relativeToGround</altitudeMode>
      <coordinates>6.23216, 46.4632,20</coordinates>
    </Point>
  </Placemark><Placemark>
    <name>Begnins, poste</name>
    <Style><LineStyle><width>2</width></LineStyle></Style>
    <Point>
      <extrude>1</extrude>
      <tesselate>0</tesselate>
      <altitudeMode>relativeToGround</altitudeMode>
      <coordinates>6.24763, 46.4404,20</coordinates>
    </Point>
  </Placemark><Placemark>
    <name>Burtigny, village</name>
    <Style><LineStyle><width>2</width></LineStyle></Style>
    <Point>
      <extrude>1</extrude>
      <tesselate>0</tesselate>
      <altitudeMode>relativeToGround</altitudeMode>
      <coordinates>6.25746, 46.467,20</coordinates>
    </Point>
  </Placemark><Placemark>
    <name>Longirod, village</name>
    <Style><LineStyle><width>2</width></LineStyle></Style>
    <Point>
      <extrude>1</extrude>
      <tesselate>0</tesselate>
      <altitudeMode>relativeToGround</altitudeMode>
      <coordinates>6.25847, 46.4954,20</coordinates>
    </Point>
  </Placemark><Placemark>
    <name>Gland, Route Suisse</name>
    <Style><LineStyle><width>2</width></LineStyle></Style>
    <Point>
      <extrude>1</extrude>
      <tesselate>0</tesselate>
      <altitudeMode>relativeToGround</altitudeMode>
      <coordinates>6.27493, 46.4117,20</coordinates>
    </Point>
  </Placemark><Placemark>
    <name>Prangins, Tour d'Eau</name>
    <Style><LineStyle><width>2</width></LineStyle></Style>
    <Point>
      <extrude>1</extrude>
      <tesselate>0</tesselate>
      <altitudeMode>relativeToGround</altitudeMode>
      <coordinates>6.24846, 46.4028,20</coordinates>
    </Point>
  </Placemark><Placemark>
    <name>Versoix CGN</name>
    <Style><LineStyle><width>2</width></LineStyle></Style>
    <Point>
      <extrude>1</extrude>
      <tesselate>0</tesselate>
      <altitudeMode>relativeToGround</altitudeMode>
      <coordinates>6.16971, 46.2775,20</coordinates>
    </Point>
  </Placemark><Placemark>
    <name>Rolle CGN</name>
    <Style><LineStyle><width>2</width></LineStyle></Style>
    <Point>
      <extrude>1</extrude>
      <tesselate>0</tesselate>
      <altitudeMode>relativeToGround</altitudeMode>
      <coordinates>6.33727, 46.455,20</coordinates>
    </Point>
  </Placemark><Placemark>
    <name>Essertines-s-Rolle, Le Pontet</name>
    <Style><LineStyle><width>2</width></LineStyle></Style>
    <Point>
      <extrude>1</extrude>
      <tesselate>0</tesselate>
      <altitudeMode>relativeToGround</altitudeMode>
      <coordinates>6.32332, 46.4933,20</coordinates>
    </Point>
  </Placemark><Placemark>
    <name>Mont-sur-Rolle, Sans Souci</name>
    <Style><LineStyle><width>2</width></LineStyle></Style>
    <Point>
      <extrude>1</extrude>
      <tesselate>0</tesselate>
      <altitudeMode>relativeToGround</altitudeMode>
      <coordinates>6.33595, 46.4811,20</coordinates>
    </Point>
  </Placemark><Placemark>
    <name>Collex, centre</name>
    <Style><LineStyle><width>2</width></LineStyle></Style>
    <Point>
      <extrude>1</extrude>
      <tesselate>0</tesselate>
      <altitudeMode>relativeToGround</altitudeMode>
      <coordinates>6.12196, 46.2696,20</coordinates>
    </Point>
  </Placemark><Placemark>
    <name>Rolle, La Pièce</name>
    <Style><LineStyle><width>2</width></LineStyle></Style>
    <Point>
      <extrude>1</extrude>
      <tesselate>0</tesselate>
      <altitudeMode>relativeToGround</altitudeMode>
      <coordinates>6.3191, 46.4611,20</coordinates>
    </Point>
  </Placemark><Placemark>
    <name>Gimel, Le Prunier</name>
    <Style><LineStyle><width>2</width></LineStyle></Style>
    <Point>
      <extrude>1</extrude>
      <tesselate>0</tesselate>
      <altitudeMode>relativeToGround</altitudeMode>
      <coordinates>6.31908, 46.5095,20</coordinates>
    </Point>
  </Placemark><Placemark>
    <name>Mont-sur-Rolle, Les Granges</name>
    <Style><LineStyle><width>2</width></LineStyle></Style>
    <Point>
      <extrude>1</extrude>
      <tesselate>0</tesselate>
      <altitudeMode>relativeToGround</altitudeMode>
      <coordinates>6.33816, 46.4845,20</coordinates>
    </Point>
  </Placemark><Placemark>
    <name>Aubonne, gare</name>
    <Style><LineStyle><width>2</width></LineStyle></Style>
    <Point>
      <extrude>1</extrude>
      <tesselate>0</tesselate>
      <altitudeMode>relativeToGround</altitudeMode>
      <coordinates>6.39301, 46.4938,20</coordinates>
    </Point>
  </Placemark><Placemark>
    <name>Montherod, village</name>
    <Style><LineStyle><width>2</width></LineStyle></Style>
    <Point>
      <extrude>1</extrude>
      <tesselate>0</tesselate>
      <altitudeMode>relativeToGround</altitudeMode>
      <coordinates>6.3654, 46.4899,20</coordinates>
    </Point>
  </Placemark><Placemark>
    <name>Chavannes-de-Bogis, Champs-Bl.</name>
    <Style><LineStyle><width>2</width></LineStyle></Style>
    <Point>
      <extrude>1</extrude>
      <tesselate>0</tesselate>
      <altitudeMode>relativeToGround</altitudeMode>
      <coordinates>6.16578, 46.3376,20</coordinates>
    </Point>
  </Placemark><Placemark>
    <name>Gland, Les Perrerets</name>
    <Style><LineStyle><width>2</width></LineStyle></Style>
    <Point>
      <extrude>1</extrude>
      <tesselate>0</tesselate>
      <altitudeMode>relativeToGround</altitudeMode>
      <coordinates>6.26119, 46.4244,20</coordinates>
    </Point>
  </Placemark><Placemark>
    <name>Gland, Jura</name>
    <Style><LineStyle><width>2</width></LineStyle></Style>
    <Point>
      <extrude>1</extrude>
      <tesselate>0</tesselate>
      <altitudeMode>relativeToGround</altitudeMode>
      <coordinates>6.264, 46.4239,20</coordinates>
    </Point>
  </Placemark><Placemark>
    <name>Gland, gare sud</name>
    <Style><LineStyle><width>2</width></LineStyle></Style>
    <Point>
      <extrude>1</extrude>
      <tesselate>0</tesselate>
      <altitudeMode>relativeToGround</altitudeMode>
      <coordinates>6.2711, 46.4201,20</coordinates>
    </Point>
  </Placemark><Placemark>
    <name>Gland, Perron</name>
    <Style><LineStyle><width>2</width></LineStyle></Style>
    <Point>
      <extrude>1</extrude>
      <tesselate>0</tesselate>
      <altitudeMode>relativeToGround</altitudeMode>
      <coordinates>6.27404, 46.4198,20</coordinates>
    </Point>
  </Placemark><Placemark>
    <name>Gimel, la Vernette</name>
    <Style><LineStyle><width>2</width></LineStyle></Style>
    <Point>
      <extrude>1</extrude>
      <tesselate>0</tesselate>
      <altitudeMode>relativeToGround</altitudeMode>
      <coordinates>6.30735, 46.5096,20</coordinates>
    </Point>
  </Placemark><Placemark>
    <name>Aubonne, Roveray</name>
    <Style><LineStyle><width>2</width></LineStyle></Style>
    <Point>
      <extrude>1</extrude>
      <tesselate>0</tesselate>
      <altitudeMode>relativeToGround</altitudeMode>
      <coordinates>6.4001, 46.4806,20</coordinates>
    </Point>
  </Placemark><Placemark>
    <name>Montherod, Battoir</name>
    <Style><LineStyle><width>2</width></LineStyle></Style>
    <Point>
      <extrude>1</extrude>
      <tesselate>0</tesselate>
      <altitudeMode>relativeToGround</altitudeMode>
      <coordinates>6.37043, 46.4992,20</coordinates>
    </Point>
  </Placemark><Placemark>
    <name>Begnins, scierie</name>
    <Style><LineStyle><width>2</width></LineStyle></Style>
    <Point>
      <extrude>1</extrude>
      <tesselate>0</tesselate>
      <altitudeMode>relativeToGround</altitudeMode>
      <coordinates>6.2391, 46.4435,20</coordinates>
    </Point>
  </Placemark><Placemark>
    <name>Begnins, La Cézille</name>
    <Style><LineStyle><width>2</width></LineStyle></Style>
    <Point>
      <extrude>1</extrude>
      <tesselate>0</tesselate>
      <altitudeMode>relativeToGround</altitudeMode>
      <coordinates>6.23285, 46.4465,20</coordinates>
    </Point>
  </Placemark><Placemark>
    <name>Le Vaud, Zoo</name>
    <Style><LineStyle><width>2</width></LineStyle></Style>
    <Point>
      <extrude>1</extrude>
      <tesselate>0</tesselate>
      <altitudeMode>relativeToGround</altitudeMode>
      <coordinates>6.24059, 46.4795,20</coordinates>
    </Point>
  </Placemark><Placemark>
    <name>St-George, Maison Neuve</name>
    <Style><LineStyle><width>2</width></LineStyle></Style>
    <Point>
      <extrude>1</extrude>
      <tesselate>0</tesselate>
      <altitudeMode>relativeToGround</altitudeMode>
      <coordinates>6.25787, 46.5082,20</coordinates>
    </Point>
  </Placemark><Placemark>
    <name>Coinsins, Mimorey</name>
    <Style><LineStyle><width>2</width></LineStyle></Style>
    <Point>
      <extrude>1</extrude>
      <tesselate>0</tesselate>
      <altitudeMode>relativeToGround</altitudeMode>
      <coordinates>6.22365, 46.4215,20</coordinates>
    </Point>
  </Placemark><Placemark>
    <name>Coinsins, Les Vettanes</name>
    <Style><LineStyle><width>2</width></LineStyle></Style>
    <Point>
      <extrude>1</extrude>
      <tesselate>0</tesselate>
      <altitudeMode>relativeToGround</altitudeMode>
      <coordinates>6.24432, 46.4282,20</coordinates>
    </Point>
  </Placemark><Placemark>
    <name>Begnins, Moulin du Creux</name>
    <Style><LineStyle><width>2</width></LineStyle></Style>
    <Point>
      <extrude>1</extrude>
      <tesselate>0</tesselate>
      <altitudeMode>relativeToGround</altitudeMode>
      <coordinates>6.24745, 46.4339,20</coordinates>
    </Point>
  </Placemark><Placemark>
    <name>Begnins, Charbonnier</name>
    <Style><LineStyle><width>2</width></LineStyle></Style>
    <Point>
      <extrude>1</extrude>
      <tesselate>0</tesselate>
      <altitudeMode>relativeToGround</altitudeMode>
      <coordinates>6.24965, 46.4375,20</coordinates>
    </Point>
  </Placemark><Placemark>
    <name>St-George, Côte-Malherbe</name>
    <Style><LineStyle><width>2</width></LineStyle></Style>
    <Point>
      <extrude>1</extrude>
      <tesselate>0</tesselate>
      <altitudeMode>relativeToGround</altitudeMode>
      <coordinates>6.27013, 46.5135,20</coordinates>
    </Point>
  </Placemark><Placemark>
    <name>Coinsins, Auberge</name>
    <Style><LineStyle><width>2</width></LineStyle></Style>
    <Point>
      <extrude>1</extrude>
      <tesselate>0</tesselate>
      <altitudeMode>relativeToGround</altitudeMode>
      <coordinates>6.23563, 46.4243,20</coordinates>
    </Point>
  </Placemark><Placemark>
    <name>Gland, Maison Commune</name>
    <Style><LineStyle><width>2</width></LineStyle></Style>
    <Point>
      <extrude>1</extrude>
      <tesselate>0</tesselate>
      <altitudeMode>relativeToGround</altitudeMode>
      <coordinates>6.26561, 46.4243,20</coordinates>
    </Point>
  </Placemark><Placemark>
    <name>Perroy, Couronnette</name>
    <Style><LineStyle><width>2</width></LineStyle></Style>
    <Point>
      <extrude>1</extrude>
      <tesselate>0</tesselate>
      <altitudeMode>relativeToGround</altitudeMode>
      <coordinates>6.35354, 46.4642,20</coordinates>
    </Point>
  </Placemark><Placemark>
    <name>Rolle, Bellefontaine</name>
    <Style><LineStyle><width>2</width></LineStyle></Style>
    <Point>
      <extrude>1</extrude>
      <tesselate>0</tesselate>
      <altitudeMode>relativeToGround</altitudeMode>
      <coordinates>6.34771, 46.4628,20</coordinates>
    </Point>
  </Placemark><Placemark>
    <name>Rolle, gare</name>
    <Style><LineStyle><width>2</width></LineStyle></Style>
    <Point>
      <extrude>1</extrude>
      <tesselate>0</tesselate>
      <altitudeMode>relativeToGround</altitudeMode>
      <coordinates>6.33666, 46.4622,20</coordinates>
    </Point>
  </Placemark><Placemark>
    <name>Rolle, Place des Tilleuls</name>
    <Style><LineStyle><width>2</width></LineStyle></Style>
    <Point>
      <extrude>1</extrude>
      <tesselate>0</tesselate>
      <altitudeMode>relativeToGround</altitudeMode>
      <coordinates>6.34093, 46.46,20</coordinates>
    </Point>
  </Placemark><Placemark>
    <name>Gland, Mont-Blanc</name>
    <Style><LineStyle><width>2</width></LineStyle></Style>
    <Point>
      <extrude>1</extrude>
      <tesselate>0</tesselate>
      <altitudeMode>relativeToGround</altitudeMode>
      <coordinates>6.26269, 46.4212,20</coordinates>
    </Point>
  </Placemark><Placemark>
    <name>Vich, La Bichette</name>
    <Style><LineStyle><width>2</width></LineStyle></Style>
    <Point>
      <extrude>1</extrude>
      <tesselate>0</tesselate>
      <altitudeMode>relativeToGround</altitudeMode>
      <coordinates>6.25478, 46.4261,20</coordinates>
    </Point>
  </Placemark><Placemark>
    <name>Gland, gare</name>
    <Style><LineStyle><width>2</width></LineStyle></Style>
    <Point>
      <extrude>1</extrude>
      <tesselate>0</tesselate>
      <altitudeMode>relativeToGround</altitudeMode>
      <coordinates>6.26889, 46.4202,20</coordinates>
    </Point>
  </Placemark><Placemark>
    <name>Gland, poste</name>
    <Style><LineStyle><width>2</width></LineStyle></Style>
    <Point>
      <extrude>1</extrude>
      <tesselate>0</tesselate>
      <altitudeMode>relativeToGround</altitudeMode>
      <coordinates>6.26726, 46.4204,20</coordinates>
    </Point>
  </Placemark><Placemark>
    <name>Signy, poste</name>
    <Style><LineStyle><width>2</width></LineStyle></Style>
    <Point>
      <extrude>1</extrude>
      <tesselate>0</tesselate>
      <altitudeMode>relativeToGround</altitudeMode>
      <coordinates>6.20225, 46.3904,20</coordinates>
    </Point>
  </Placemark></Document>
</kml>
