<kml>
<Document>

<Region>
<LatLonAltBox>
<north>46.531525</north><south>46.399038</south><east>6.401805</east><west>6.097262</west>
<minAltitude>0.000000</minAltitude><maxAltitude>0.000000</maxAltitude>
</LatLonAltBox>
<minLodPixels>2048</minLodPixels><maxLodPixels>1000000000</maxLodPixels>
<minFadeExtent>0</minFadeExtent><maxFadeExtent>0</maxFadeExtent>
</Region>
<NetworkLink>
<name>020211</name>

<Region>
<LatLonAltBox>
<north>46.531525</north><south>46.465281</south><east>6.401805</east><west>6.249534</west>
<minAltitude>0.000000</minAltitude><maxAltitude>0.000000</maxAltitude>
</LatLonAltBox>
<minLodPixels>256</minLodPixels><maxLodPixels>1000000000</maxLodPixels>
<minFadeExtent>0</minFadeExtent><maxFadeExtent>0</maxFadeExtent>
</Region>
<Link>
<href>020211.kml</href><viewRefreshMode>onRegion</viewRefreshMode></Link>
</NetworkLink>
<NetworkLink>
<name>020212</name>

<Region>
<LatLonAltBox>
<north>46.465281</north><south>46.399038</south><east>6.249534</east><west>6.097262</west>
<minAltitude>0.000000</minAltitude><maxAltitude>0.000000</maxAltitude>
</LatLonAltBox>
<minLodPixels>256</minLodPixels><maxLodPixels>1000000000</maxLodPixels>
<minFadeExtent>0</minFadeExtent><maxFadeExtent>0</maxFadeExtent>
</Region>
<Link>
<href>020212.kml</href><viewRefreshMode>onRegion</viewRefreshMode></Link>
</NetworkLink>
<NetworkLink>
<name>020213</name>

<Region>
<LatLonAltBox>
<north>46.465281</north><south>46.399038</south><east>6.401805</east><west>6.249534</west>
<minAltitude>0.000000</minAltitude><maxAltitude>0.000000</maxAltitude>
</LatLonAltBox>
<minLodPixels>256</minLodPixels><maxLodPixels>1000000000</maxLodPixels>
<minFadeExtent>0</minFadeExtent><maxFadeExtent>0</maxFadeExtent>
</Region>
<Link>
<href>020213.kml</href><viewRefreshMode>onRegion</viewRefreshMode></Link>
</NetworkLink>
<Placemark>
    <name>Bursins, village</name>
    <Style><LineStyle><width>2</width></LineStyle></Style>
    <Point>
      <extrude>1</extrude>
      <tesselate>0</tesselate>
      <altitudeMode>relativeToGround</altitudeMode>
      <coordinates>6.29065, 46.4523,20</coordinates>
    </Point>
  </Placemark><Placemark>
    <name>Rolle, Germagny</name>
    <Style><LineStyle><width>2</width></LineStyle></Style>
    <Point>
      <extrude>1</extrude>
      <tesselate>0</tesselate>
      <altitudeMode>relativeToGround</altitudeMode>
      <coordinates>6.33145, 46.4622,20</coordinates>
    </Point>
  </Placemark><Placemark>
    <name>Gilly, croisée de Vincy</name>
    <Style><LineStyle><width>2</width></LineStyle></Style>
    <Point>
      <extrude>1</extrude>
      <tesselate>0</tesselate>
      <altitudeMode>relativeToGround</altitudeMode>
      <coordinates>6.3051, 46.4615,20</coordinates>
    </Point>
  </Placemark><Placemark>
    <name>Nyon, Pont de la Redoute</name>
    <Style><LineStyle><width>2</width></LineStyle></Style>
    <Point>
      <extrude>1</extrude>
      <tesselate>0</tesselate>
      <altitudeMode>relativeToGround</altitudeMode>
      <coordinates>6.24136, 46.4001,20</coordinates>
    </Point>
  </Placemark><Placemark>
    <name>Prangins, Chemin des Chaux</name>
    <Style><LineStyle><width>2</width></LineStyle></Style>
    <Point>
      <extrude>1</extrude>
      <tesselate>0</tesselate>
      <altitudeMode>relativeToGround</altitudeMode>
      <coordinates>6.25273, 46.4004,20</coordinates>
    </Point>
  </Placemark><Placemark>
    <name>Mont-sur-Rolle,Maison de Ville</name>
    <Style><LineStyle><width>2</width></LineStyle></Style>
    <Point>
      <extrude>1</extrude>
      <tesselate>0</tesselate>
      <altitudeMode>relativeToGround</altitudeMode>
      <coordinates>6.33386, 46.4719,20</coordinates>
    </Point>
  </Placemark><Placemark>
    <name>Mont-sur-Rolle, Mont-dessus</name>
    <Style><LineStyle><width>2</width></LineStyle></Style>
    <Point>
      <extrude>1</extrude>
      <tesselate>0</tesselate>
      <altitudeMode>relativeToGround</altitudeMode>
      <coordinates>6.3302, 46.4754,20</coordinates>
    </Point>
  </Placemark><Placemark>
    <name>Gland, Meydez</name>
    <Style><LineStyle><width>2</width></LineStyle></Style>
    <Point>
      <extrude>1</extrude>
      <tesselate>0</tesselate>
      <altitudeMode>relativeToGround</altitudeMode>
      <coordinates>6.27787, 46.42,20</coordinates>
    </Point>
  </Placemark><Placemark>
    <name>Gland, La Lignère</name>
    <Style><LineStyle><width>2</width></LineStyle></Style>
    <Point>
      <extrude>1</extrude>
      <tesselate>0</tesselate>
      <altitudeMode>relativeToGround</altitudeMode>
      <coordinates>6.29185, 46.4263,20</coordinates>
    </Point>
  </Placemark><Placemark>
    <name>Gland, Mauverney</name>
    <Style><LineStyle><width>2</width></LineStyle></Style>
    <Point>
      <extrude>1</extrude>
      <tesselate>0</tesselate>
      <altitudeMode>relativeToGround</altitudeMode>
      <coordinates>6.27564, 46.4176,20</coordinates>
    </Point>
  </Placemark><Placemark>
    <name>Gland, Montoly</name>
    <Style><LineStyle><width>2</width></LineStyle></Style>
    <Point>
      <extrude>1</extrude>
      <tesselate>0</tesselate>
      <altitudeMode>relativeToGround</altitudeMode>
      <coordinates>6.27457, 46.4224,20</coordinates>
    </Point>
  </Placemark><Placemark>
    <name>Mont-sur-Rolle, La Ferme</name>
    <Style><LineStyle><width>2</width></LineStyle></Style>
    <Point>
      <extrude>1</extrude>
      <tesselate>0</tesselate>
      <altitudeMode>relativeToGround</altitudeMode>
      <coordinates>6.3351, 46.475,20</coordinates>
    </Point>
  </Placemark><Placemark>
    <name>Coinsins, école</name>
    <Style><LineStyle><width>2</width></LineStyle></Style>
    <Point>
      <extrude>1</extrude>
      <tesselate>0</tesselate>
      <altitudeMode>relativeToGround</altitudeMode>
      <coordinates>6.23658, 46.4252,20</coordinates>
    </Point>
  </Placemark><Placemark>
    <name>La Givrine</name>
    <Style><LineStyle><width>2</width></LineStyle></Style>
    <Point>
      <extrude>1</extrude>
      <tesselate>0</tesselate>
      <altitudeMode>relativeToGround</altitudeMode>
      <coordinates>6.11144, 46.4546,20</coordinates>
    </Point>
  </Placemark><Placemark>
    <name>Arzier</name>
    <Style><LineStyle><width>2</width></LineStyle></Style>
    <Point>
      <extrude>1</extrude>
      <tesselate>0</tesselate>
      <altitudeMode>relativeToGround</altitudeMode>
      <coordinates>6.21165, 46.4586,20</coordinates>
    </Point>
  </Placemark><Placemark>
    <name>St-Cergue</name>
    <Style><LineStyle><width>2</width></LineStyle></Style>
    <Point>
      <extrude>1</extrude>
      <tesselate>0</tesselate>
      <altitudeMode>relativeToGround</altitudeMode>
      <coordinates>6.16036, 46.4486,20</coordinates>
    </Point>
  </Placemark><Placemark>
    <name>Le Muids</name>
    <Style><LineStyle><width>2</width></LineStyle></Style>
    <Point>
      <extrude>1</extrude>
      <tesselate>0</tesselate>
      <altitudeMode>relativeToGround</altitudeMode>
      <coordinates>6.21543, 46.4543,20</coordinates>
    </Point>
  </Placemark><Placemark>
    <name>Bassins</name>
    <Style><LineStyle><width>2</width></LineStyle></Style>
    <Point>
      <extrude>1</extrude>
      <tesselate>0</tesselate>
      <altitudeMode>relativeToGround</altitudeMode>
      <coordinates>6.22231, 46.4606,20</coordinates>
    </Point>
  </Placemark><Placemark>
    <name>Givrins</name>
    <Style><LineStyle><width>2</width></LineStyle></Style>
    <Point>
      <extrude>1</extrude>
      <tesselate>0</tesselate>
      <altitudeMode>relativeToGround</altitudeMode>
      <coordinates>6.20522, 46.4288,20</coordinates>
    </Point>
  </Placemark><Placemark>
    <name>Genolier</name>
    <Style><LineStyle><width>2</width></LineStyle></Style>
    <Point>
      <extrude>1</extrude>
      <tesselate>0</tesselate>
      <altitudeMode>relativeToGround</altitudeMode>
      <coordinates>6.21457, 46.4362,20</coordinates>
    </Point>
  </Placemark><Placemark>
    <name>L'Asse</name>
    <Style><LineStyle><width>2</width></LineStyle></Style>
    <Point>
      <extrude>1</extrude>
      <tesselate>0</tesselate>
      <altitudeMode>relativeToGround</altitudeMode>
      <coordinates>6.21175, 46.4018,20</coordinates>
    </Point>
  </Placemark><Placemark>
    <name>Trélex</name>
    <Style><LineStyle><width>2</width></LineStyle></Style>
    <Point>
      <extrude>1</extrude>
      <tesselate>0</tesselate>
      <altitudeMode>relativeToGround</altitudeMode>
      <coordinates>6.20642, 46.4137,20</coordinates>
    </Point>
  </Placemark><Placemark>
    <name>Bursinel, village</name>
    <Style><LineStyle><width>2</width></LineStyle></Style>
    <Point>
      <extrude>1</extrude>
      <tesselate>0</tesselate>
      <altitudeMode>relativeToGround</altitudeMode>
      <coordinates>6.30557, 46.439,20</coordinates>
    </Point>
  </Placemark><Placemark>
    <name>Gland, Riant Coteau</name>
    <Style><LineStyle><width>2</width></LineStyle></Style>
    <Point>
      <extrude>1</extrude>
      <tesselate>0</tesselate>
      <altitudeMode>relativeToGround</altitudeMode>
      <coordinates>6.28264, 46.4191,20</coordinates>
    </Point>
  </Placemark><Placemark>
    <name>Gland, Malagny</name>
    <Style><LineStyle><width>2</width></LineStyle></Style>
    <Point>
      <extrude>1</extrude>
      <tesselate>0</tesselate>
      <altitudeMode>relativeToGround</altitudeMode>
      <coordinates>6.27696, 46.4168,20</coordinates>
    </Point>
  </Placemark><Placemark>
    <name>Aubonne, Le Bornalet</name>
    <Style><LineStyle><width>2</width></LineStyle></Style>
    <Point>
      <extrude>1</extrude>
      <tesselate>0</tesselate>
      <altitudeMode>relativeToGround</altitudeMode>
      <coordinates>6.39565, 46.492,20</coordinates>
    </Point>
  </Placemark><Placemark>
    <name>Pizy, Le Courtillet</name>
    <Style><LineStyle><width>2</width></LineStyle></Style>
    <Point>
      <extrude>1</extrude>
      <tesselate>0</tesselate>
      <altitudeMode>relativeToGround</altitudeMode>
      <coordinates>6.33849, 46.5005,20</coordinates>
    </Point>
  </Placemark><Placemark>
    <name>Begnins, Grange-Grèche</name>
    <Style><LineStyle><width>2</width></LineStyle></Style>
    <Point>
      <extrude>1</extrude>
      <tesselate>0</tesselate>
      <altitudeMode>relativeToGround</altitudeMode>
      <coordinates>6.25386, 46.4531,20</coordinates>
    </Point>
  </Placemark><Placemark>
    <name>Gilly-Bursinel, gare SUD</name>
    <Style><LineStyle><width>2</width></LineStyle></Style>
    <Point>
      <extrude>1</extrude>
      <tesselate>0</tesselate>
      <altitudeMode>relativeToGround</altitudeMode>
      <coordinates>6.3061, 46.4448,20</coordinates>
    </Point>
  </Placemark><Placemark>
    <name>Gland, Grand-Champ</name>
    <Style><LineStyle><width>2</width></LineStyle></Style>
    <Point>
      <extrude>1</extrude>
      <tesselate>0</tesselate>
      <altitudeMode>relativeToGround</altitudeMode>
      <coordinates>6.2594, 46.4228,20</coordinates>
    </Point>
  </Placemark><Placemark>
    <name>Gland, Pont Farbel</name>
    <Style><LineStyle><width>2</width></LineStyle></Style>
    <Point>
      <extrude>1</extrude>
      <tesselate>0</tesselate>
      <altitudeMode>relativeToGround</altitudeMode>
      <coordinates>6.2553, 46.4142,20</coordinates>
    </Point>
  </Placemark><Placemark>
    <name>Prangins, Les Morettes</name>
    <Style><LineStyle><width>2</width></LineStyle></Style>
    <Point>
      <extrude>1</extrude>
      <tesselate>0</tesselate>
      <altitudeMode>relativeToGround</altitudeMode>
      <coordinates>6.25243, 46.3993,20</coordinates>
    </Point>
  </Placemark><Placemark>
    <name>Aubonne, La Levette</name>
    <Style><LineStyle><width>2</width></LineStyle></Style>
    <Point>
      <extrude>1</extrude>
      <tesselate>0</tesselate>
      <altitudeMode>relativeToGround</altitudeMode>
      <coordinates>6.40034, 46.4851,20</coordinates>
    </Point>
  </Placemark><Placemark>
    <name>Essertines-s-Rolle, village</name>
    <Style><LineStyle><width>2</width></LineStyle></Style>
    <Point>
      <extrude>1</extrude>
      <tesselate>0</tesselate>
      <altitudeMode>relativeToGround</altitudeMode>
      <coordinates>6.3145, 46.4948,20</coordinates>
    </Point>
  </Placemark><Placemark>
    <name>St-Oyens, église</name>
    <Style><LineStyle><width>2</width></LineStyle></Style>
    <Point>
      <extrude>1</extrude>
      <tesselate>0</tesselate>
      <altitudeMode>relativeToGround</altitudeMode>
      <coordinates>6.30922, 46.4984,20</coordinates>
    </Point>
  </Placemark><Placemark>
    <name>Signal-de-Bougy, Parc Pré Vert</name>
    <Style><LineStyle><width>2</width></LineStyle></Style>
    <Point>
      <extrude>1</extrude>
      <tesselate>0</tesselate>
      <altitudeMode>relativeToGround</altitudeMode>
      <coordinates>6.35099, 46.4943,20</coordinates>
    </Point>
  </Placemark><Placemark>
    <name>Aubonne, Bougy-St-Martin</name>
    <Style><LineStyle><width>2</width></LineStyle></Style>
    <Point>
      <extrude>1</extrude>
      <tesselate>0</tesselate>
      <altitudeMode>relativeToGround</altitudeMode>
      <coordinates>6.38487, 46.4937,20</coordinates>
    </Point>
  </Placemark><Placemark>
    <name>Aubonne, La Praz</name>
    <Style><LineStyle><width>2</width></LineStyle></Style>
    <Point>
      <extrude>1</extrude>
      <tesselate>0</tesselate>
      <altitudeMode>relativeToGround</altitudeMode>
      <coordinates>6.39961, 46.4889,20</coordinates>
    </Point>
  </Placemark><Placemark>
    <name>Gimel, Café de la Gare</name>
    <Style><LineStyle><width>2</width></LineStyle></Style>
    <Point>
      <extrude>1</extrude>
      <tesselate>0</tesselate>
      <altitudeMode>relativeToGround</altitudeMode>
      <coordinates>6.31128, 46.5085,20</coordinates>
    </Point>
  </Placemark><Placemark>
    <name>Allaman, gare</name>
    <Style><LineStyle><width>2</width></LineStyle></Style>
    <Point>
      <extrude>1</extrude>
      <tesselate>0</tesselate>
      <altitudeMode>relativeToGround</altitudeMode>
      <coordinates>6.39952, 46.4768,20</coordinates>
    </Point>
  </Placemark><Placemark>
    <name>Gland, La Combe</name>
    <Style><LineStyle><width>2</width></LineStyle></Style>
    <Point>
      <extrude>1</extrude>
      <tesselate>0</tesselate>
      <altitudeMode>relativeToGround</altitudeMode>
      <coordinates>6.26502, 46.4189,20</coordinates>
    </Point>
  </Placemark><Placemark>
    <name>Changins</name>
    <Style><LineStyle><width>2</width></LineStyle></Style>
    <Point>
      <extrude>1</extrude>
      <tesselate>0</tesselate>
      <altitudeMode>relativeToGround</altitudeMode>
      <coordinates>6.23486, 46.4002,20</coordinates>
    </Point>
  </Placemark><Placemark>
    <name>Duillier, croisée de Trélex</name>
    <Style><LineStyle><width>2</width></LineStyle></Style>
    <Point>
      <extrude>1</extrude>
      <tesselate>0</tesselate>
      <altitudeMode>relativeToGround</altitudeMode>
      <coordinates>6.22742, 46.4132,20</coordinates>
    </Point>
  </Placemark><Placemark>
    <name>Gland, Rue du Midi</name>
    <Style><LineStyle><width>2</width></LineStyle></Style>
    <Point>
      <extrude>1</extrude>
      <tesselate>0</tesselate>
      <altitudeMode>relativeToGround</altitudeMode>
      <coordinates>6.27148, 46.4177,20</coordinates>
    </Point>
  </Placemark><Placemark>
    <name>Duillier, poste</name>
    <Style><LineStyle><width>2</width></LineStyle></Style>
    <Point>
      <extrude>1</extrude>
      <tesselate>0</tesselate>
      <altitudeMode>relativeToGround</altitudeMode>
      <coordinates>6.23396, 46.4115,20</coordinates>
    </Point>
  </Placemark><Placemark>
    <name>Gland, Borgeaud</name>
    <Style><LineStyle><width>2</width></LineStyle></Style>
    <Point>
      <extrude>1</extrude>
      <tesselate>0</tesselate>
      <altitudeMode>relativeToGround</altitudeMode>
      <coordinates>6.26269, 46.4242,20</coordinates>
    </Point>
  </Placemark><Placemark>
    <name>Gimel, Le Signal</name>
    <Style><LineStyle><width>2</width></LineStyle></Style>
    <Point>
      <extrude>1</extrude>
      <tesselate>0</tesselate>
      <altitudeMode>relativeToGround</altitudeMode>
      <coordinates>6.30251, 46.5073,20</coordinates>
    </Point>
  </Placemark><Placemark>
    <name>Gimel, Côte Réviol</name>
    <Style><LineStyle><width>2</width></LineStyle></Style>
    <Point>
      <extrude>1</extrude>
      <tesselate>0</tesselate>
      <altitudeMode>relativeToGround</altitudeMode>
      <coordinates>6.28387, 46.5109,20</coordinates>
    </Point>
  </Placemark><Placemark>
    <name>Begnins, Bellevue</name>
    <Style><LineStyle><width>2</width></LineStyle></Style>
    <Point>
      <extrude>1</extrude>
      <tesselate>0</tesselate>
      <altitudeMode>relativeToGround</altitudeMode>
      <coordinates>6.24725, 46.4431,20</coordinates>
    </Point>
  </Placemark></Document>
</kml>
