<kml>
<Document>

<Region>
<LatLonAltBox>
<north>46.531525</north><south>46.465281</south><east>6.858619</east><west>6.706347</west>
<minAltitude>0.000000</minAltitude><maxAltitude>0.000000</maxAltitude>
</LatLonAltBox>
<minLodPixels>2048</minLodPixels><maxLodPixels>1000000000</maxLodPixels>
<minFadeExtent>0</minFadeExtent><maxFadeExtent>0</maxFadeExtent>
</Region>
<Placemark>
    <name>Cully CGN</name>
    <Style><LineStyle><width>2</width></LineStyle></Style>
    <Point>
      <extrude>1</extrude>
      <tesselate>0</tesselate>
      <altitudeMode>relativeToGround</altitudeMode>
      <coordinates>6.73161, 46.4875,20</coordinates>
    </Point>
  </Placemark><Placemark>
    <name>Villette VD</name>
    <Style><LineStyle><width>2</width></LineStyle></Style>
    <Point>
      <extrude>1</extrude>
      <tesselate>0</tesselate>
      <altitudeMode>relativeToGround</altitudeMode>
      <coordinates>6.70728, 46.4953,20</coordinates>
    </Point>
  </Placemark><Placemark>
    <name>Cully</name>
    <Style><LineStyle><width>2</width></LineStyle></Style>
    <Point>
      <extrude>1</extrude>
      <tesselate>0</tesselate>
      <altitudeMode>relativeToGround</altitudeMode>
      <coordinates>6.72714, 46.4885,20</coordinates>
    </Point>
  </Placemark><Placemark>
    <name>Epesses</name>
    <Style><LineStyle><width>2</width></LineStyle></Style>
    <Point>
      <extrude>1</extrude>
      <tesselate>0</tesselate>
      <altitudeMode>relativeToGround</altitudeMode>
      <coordinates>6.74516, 46.4893,20</coordinates>
    </Point>
  </Placemark><Placemark>
    <name>Rivaz</name>
    <Style><LineStyle><width>2</width></LineStyle></Style>
    <Point>
      <extrude>1</extrude>
      <tesselate>0</tesselate>
      <altitudeMode>relativeToGround</altitudeMode>
      <coordinates>6.78458, 46.4742,20</coordinates>
    </Point>
  </Placemark><Placemark>
    <name>St-Saphorin</name>
    <Style><LineStyle><width>2</width></LineStyle></Style>
    <Point>
      <extrude>1</extrude>
      <tesselate>0</tesselate>
      <altitudeMode>relativeToGround</altitudeMode>
      <coordinates>6.79702, 46.4726,20</coordinates>
    </Point>
  </Placemark><Placemark>
    <name>Nant VD</name>
    <Style><LineStyle><width>2</width></LineStyle></Style>
    <Point>
      <extrude>1</extrude>
      <tesselate>0</tesselate>
      <altitudeMode>relativeToGround</altitudeMode>
      <coordinates>6.85266, 46.4782,20</coordinates>
    </Point>
  </Placemark><Placemark>
    <name>Moreillon</name>
    <Style><LineStyle><width>2</width></LineStyle></Style>
    <Point>
      <extrude>1</extrude>
      <tesselate>0</tesselate>
      <altitudeMode>relativeToGround</altitudeMode>
      <coordinates>6.78564, 46.5084,20</coordinates>
    </Point>
  </Placemark><Placemark>
    <name>Vevey-Funi</name>
    <Style><LineStyle><width>2</width></LineStyle></Style>
    <Point>
      <extrude>1</extrude>
      <tesselate>0</tesselate>
      <altitudeMode>relativeToGround</altitudeMode>
      <coordinates>6.83543, 46.4683,20</coordinates>
    </Point>
  </Placemark><Placemark>
    <name>Chexbres-Village</name>
    <Style><LineStyle><width>2</width></LineStyle></Style>
    <Point>
      <extrude>1</extrude>
      <tesselate>0</tesselate>
      <altitudeMode>relativeToGround</altitudeMode>
      <coordinates>6.77854, 46.481,20</coordinates>
    </Point>
  </Placemark><Placemark>
    <name>Puidoux-Chexbres</name>
    <Style><LineStyle><width>2</width></LineStyle></Style>
    <Point>
      <extrude>1</extrude>
      <tesselate>0</tesselate>
      <altitudeMode>relativeToGround</altitudeMode>
      <coordinates>6.76568, 46.4938,20</coordinates>
    </Point>
  </Placemark><Placemark>
    <name>Grandvaux</name>
    <Style><LineStyle><width>2</width></LineStyle></Style>
    <Point>
      <extrude>1</extrude>
      <tesselate>0</tesselate>
      <altitudeMode>relativeToGround</altitudeMode>
      <coordinates>6.72264, 46.4969,20</coordinates>
    </Point>
  </Placemark><Placemark>
    <name>Chexbres, poste</name>
    <Style><LineStyle><width>2</width></LineStyle></Style>
    <Point>
      <extrude>1</extrude>
      <tesselate>0</tesselate>
      <altitudeMode>relativeToGround</altitudeMode>
      <coordinates>6.77644, 46.482,20</coordinates>
    </Point>
  </Placemark><Placemark>
    <name>Puidoux, Logis du Pont</name>
    <Style><LineStyle><width>2</width></LineStyle></Style>
    <Point>
      <extrude>1</extrude>
      <tesselate>0</tesselate>
      <altitudeMode>relativeToGround</altitudeMode>
      <coordinates>6.76908, 46.4982,20</coordinates>
    </Point>
  </Placemark><Placemark>
    <name>Puidoux, village</name>
    <Style><LineStyle><width>2</width></LineStyle></Style>
    <Point>
      <extrude>1</extrude>
      <tesselate>0</tesselate>
      <altitudeMode>relativeToGround</altitudeMode>
      <coordinates>6.78206, 46.5021,20</coordinates>
    </Point>
  </Placemark><Placemark>
    <name>Chexbres-Village, gare</name>
    <Style><LineStyle><width>2</width></LineStyle></Style>
    <Point>
      <extrude>1</extrude>
      <tesselate>0</tesselate>
      <altitudeMode>relativeToGround</altitudeMode>
      <coordinates>6.77873, 46.4812,20</coordinates>
    </Point>
  </Placemark><Placemark>
    <name>Chexbres, Les Pergolas</name>
    <Style><LineStyle><width>2</width></LineStyle></Style>
    <Point>
      <extrude>1</extrude>
      <tesselate>0</tesselate>
      <altitudeMode>relativeToGround</altitudeMode>
      <coordinates>6.77413, 46.4843,20</coordinates>
    </Point>
  </Placemark><Placemark>
    <name>Puidoux, Cité-de-Sully</name>
    <Style><LineStyle><width>2</width></LineStyle></Style>
    <Point>
      <extrude>1</extrude>
      <tesselate>0</tesselate>
      <altitudeMode>relativeToGround</altitudeMode>
      <coordinates>6.76882, 46.4926,20</coordinates>
    </Point>
  </Placemark><Placemark>
    <name>Puidoux-Chexbres, gare</name>
    <Style><LineStyle><width>2</width></LineStyle></Style>
    <Point>
      <extrude>1</extrude>
      <tesselate>0</tesselate>
      <altitudeMode>relativeToGround</altitudeMode>
      <coordinates>6.76523, 46.4937,20</coordinates>
    </Point>
  </Placemark><Placemark>
    <name>Epesses, Crêt-Dessus</name>
    <Style><LineStyle><width>2</width></LineStyle></Style>
    <Point>
      <extrude>1</extrude>
      <tesselate>0</tesselate>
      <altitudeMode>relativeToGround</altitudeMode>
      <coordinates>6.74375, 46.4924,20</coordinates>
    </Point>
  </Placemark><Placemark>
    <name>Epesses, village</name>
    <Style><LineStyle><width>2</width></LineStyle></Style>
    <Point>
      <extrude>1</extrude>
      <tesselate>0</tesselate>
      <altitudeMode>relativeToGround</altitudeMode>
      <coordinates>6.74701, 46.4918,20</coordinates>
    </Point>
  </Placemark><Placemark>
    <name>Epesses, Chapotannaz</name>
    <Style><LineStyle><width>2</width></LineStyle></Style>
    <Point>
      <extrude>1</extrude>
      <tesselate>0</tesselate>
      <altitudeMode>relativeToGround</altitudeMode>
      <coordinates>6.75882, 46.4849,20</coordinates>
    </Point>
  </Placemark><Placemark>
    <name>Chexbres, Bellevue</name>
    <Style><LineStyle><width>2</width></LineStyle></Style>
    <Point>
      <extrude>1</extrude>
      <tesselate>0</tesselate>
      <altitudeMode>relativeToGround</altitudeMode>
      <coordinates>6.77353, 46.4807,20</coordinates>
    </Point>
  </Placemark><Placemark>
    <name>Corseaux, Les Gonelles</name>
    <Style><LineStyle><width>2</width></LineStyle></Style>
    <Point>
      <extrude>1</extrude>
      <tesselate>0</tesselate>
      <altitudeMode>relativeToGround</altitudeMode>
      <coordinates>6.81238, 46.4708,20</coordinates>
    </Point>
  </Placemark><Placemark>
    <name>Corseaux, La Donnaz</name>
    <Style><LineStyle><width>2</width></LineStyle></Style>
    <Point>
      <extrude>1</extrude>
      <tesselate>0</tesselate>
      <altitudeMode>relativeToGround</altitudeMode>
      <coordinates>6.82932, 46.47,20</coordinates>
    </Point>
  </Placemark><Placemark>
    <name>Corseaux, collège</name>
    <Style><LineStyle><width>2</width></LineStyle></Style>
    <Point>
      <extrude>1</extrude>
      <tesselate>0</tesselate>
      <altitudeMode>relativeToGround</altitudeMode>
      <coordinates>6.8293, 46.4718,20</coordinates>
    </Point>
  </Placemark><Placemark>
    <name>Corseaux, village</name>
    <Style><LineStyle><width>2</width></LineStyle></Style>
    <Point>
      <extrude>1</extrude>
      <tesselate>0</tesselate>
      <altitudeMode>relativeToGround</altitudeMode>
      <coordinates>6.8319, 46.4718,20</coordinates>
    </Point>
  </Placemark><Placemark>
    <name>Bossonnens, village</name>
    <Style><LineStyle><width>2</width></LineStyle></Style>
    <Point>
      <extrude>1</extrude>
      <tesselate>0</tesselate>
      <altitudeMode>relativeToGround</altitudeMode>
      <coordinates>6.84829, 46.5214,20</coordinates>
    </Point>
  </Placemark><Placemark>
    <name>Bossonnens, gare</name>
    <Style><LineStyle><width>2</width></LineStyle></Style>
    <Point>
      <extrude>1</extrude>
      <tesselate>0</tesselate>
      <altitudeMode>relativeToGround</altitudeMode>
      <coordinates>6.85216, 46.525,20</coordinates>
    </Point>
  </Placemark><Placemark>
    <name>Clies</name>
    <Style><LineStyle><width>2</width></LineStyle></Style>
    <Point>
      <extrude>1</extrude>
      <tesselate>0</tesselate>
      <altitudeMode>relativeToGround</altitudeMode>
      <coordinates>6.85491, 46.4677,20</coordinates>
    </Point>
  </Placemark><Placemark>
    <name>Gilamont</name>
    <Style><LineStyle><width>2</width></LineStyle></Style>
    <Point>
      <extrude>1</extrude>
      <tesselate>0</tesselate>
      <altitudeMode>relativeToGround</altitudeMode>
      <coordinates>6.85497, 46.4677,20</coordinates>
    </Point>
  </Placemark><Placemark>
    <name>Granges (Veveyse), village</name>
    <Style><LineStyle><width>2</width></LineStyle></Style>
    <Point>
      <extrude>1</extrude>
      <tesselate>0</tesselate>
      <altitudeMode>relativeToGround</altitudeMode>
      <coordinates>6.83127, 46.5285,20</coordinates>
    </Point>
  </Placemark><Placemark>
    <name>Rivaz-St-Saphorin</name>
    <Style><LineStyle><width>2</width></LineStyle></Style>
    <Point>
      <extrude>1</extrude>
      <tesselate>0</tesselate>
      <altitudeMode>relativeToGround</altitudeMode>
      <coordinates>6.78403, 46.4736,20</coordinates>
    </Point>
  </Placemark></Document>
</kml>
