<kml>
<Document>

<Region>
<LatLonAltBox>
<north>46.796500</north><south>46.266550</south><east>8.229060</east><west>7.010890</west>
<minAltitude>0.000000</minAltitude><maxAltitude>0.000000</maxAltitude>
</LatLonAltBox>
<minLodPixels>2048</minLodPixels><maxLodPixels>1000000000</maxLodPixels>
<minFadeExtent>0</minFadeExtent><maxFadeExtent>0</maxFadeExtent>
</Region>
<NetworkLink>
<name>0210</name>

<Region>
<LatLonAltBox>
<north>46.796500</north><south>46.531525</south><east>7.619975</east><west>7.010890</west>
<minAltitude>0.000000</minAltitude><maxAltitude>0.000000</maxAltitude>
</LatLonAltBox>
<minLodPixels>256</minLodPixels><maxLodPixels>1000000000</maxLodPixels>
<minFadeExtent>0</minFadeExtent><maxFadeExtent>0</maxFadeExtent>
</Region>
<Link>
<href>0210.kml</href><viewRefreshMode>onRegion</viewRefreshMode></Link>
</NetworkLink>
<NetworkLink>
<name>0211</name>

<Region>
<LatLonAltBox>
<north>46.796500</north><south>46.531525</south><east>8.229060</east><west>7.619975</west>
<minAltitude>0.000000</minAltitude><maxAltitude>0.000000</maxAltitude>
</LatLonAltBox>
<minLodPixels>256</minLodPixels><maxLodPixels>1000000000</maxLodPixels>
<minFadeExtent>0</minFadeExtent><maxFadeExtent>0</maxFadeExtent>
</Region>
<Link>
<href>0211.kml</href><viewRefreshMode>onRegion</viewRefreshMode></Link>
</NetworkLink>
<NetworkLink>
<name>0212</name>

<Region>
<LatLonAltBox>
<north>46.531525</north><south>46.266550</south><east>7.619975</east><west>7.010890</west>
<minAltitude>0.000000</minAltitude><maxAltitude>0.000000</maxAltitude>
</LatLonAltBox>
<minLodPixels>256</minLodPixels><maxLodPixels>1000000000</maxLodPixels>
<minFadeExtent>0</minFadeExtent><maxFadeExtent>0</maxFadeExtent>
</Region>
<Link>
<href>0212.kml</href><viewRefreshMode>onRegion</viewRefreshMode></Link>
</NetworkLink>
<NetworkLink>
<name>0213</name>

<Region>
<LatLonAltBox>
<north>46.531525</north><south>46.266550</south><east>8.229060</east><west>7.619975</west>
<minAltitude>0.000000</minAltitude><maxAltitude>0.000000</maxAltitude>
</LatLonAltBox>
<minLodPixels>256</minLodPixels><maxLodPixels>1000000000</maxLodPixels>
<minFadeExtent>0</minFadeExtent><maxFadeExtent>0</maxFadeExtent>
</Region>
<Link>
<href>0213.kml</href><viewRefreshMode>onRegion</viewRefreshMode></Link>
</NetworkLink>
<Placemark>
    <name>Visp, Fassji</name>
    <Style><LineStyle><width>2</width></LineStyle></Style>
    <Point>
      <extrude>1</extrude>
      <tesselate>0</tesselate>
      <altitudeMode>relativeToGround</altitudeMode>
      <coordinates>7.87637, 46.2988,20</coordinates>
    </Point>
  </Placemark><Placemark>
    <name>Visp, Kleegärten</name>
    <Style><LineStyle><width>2</width></LineStyle></Style>
    <Point>
      <extrude>1</extrude>
      <tesselate>0</tesselate>
      <altitudeMode>relativeToGround</altitudeMode>
      <coordinates>7.87864, 46.2972,20</coordinates>
    </Point>
  </Placemark><Placemark>
    <name>Raron, Grund</name>
    <Style><LineStyle><width>2</width></LineStyle></Style>
    <Point>
      <extrude>1</extrude>
      <tesselate>0</tesselate>
      <altitudeMode>relativeToGround</altitudeMode>
      <coordinates>7.8256, 46.3072,20</coordinates>
    </Point>
  </Placemark><Placemark>
    <name>Raron, zur Brücke</name>
    <Style><LineStyle><width>2</width></LineStyle></Style>
    <Point>
      <extrude>1</extrude>
      <tesselate>0</tesselate>
      <altitudeMode>relativeToGround</altitudeMode>
      <coordinates>7.82735, 46.3088,20</coordinates>
    </Point>
  </Placemark><Placemark>
    <name>Moléson-sur-Gruyères TMPF/TPFM</name>
    <Style><LineStyle><width>2</width></LineStyle></Style>
    <Point>
      <extrude>1</extrude>
      <tesselate>0</tesselate>
      <altitudeMode>relativeToGround</altitudeMode>
      <coordinates>7.03838, 46.5601,20</coordinates>
    </Point>
  </Placemark><Placemark>
    <name>Icogne, poste</name>
    <Style><LineStyle><width>2</width></LineStyle></Style>
    <Point>
      <extrude>1</extrude>
      <tesselate>0</tesselate>
      <altitudeMode>relativeToGround</altitudeMode>
      <coordinates>7.43932, 46.2909,20</coordinates>
    </Point>
  </Placemark><Placemark>
    <name>Icogne, Prasserin</name>
    <Style><LineStyle><width>2</width></LineStyle></Style>
    <Point>
      <extrude>1</extrude>
      <tesselate>0</tesselate>
      <altitudeMode>relativeToGround</altitudeMode>
      <coordinates>7.43557, 46.2904,20</coordinates>
    </Point>
  </Placemark><Placemark>
    <name>Reutigen, Dorf</name>
    <Style><LineStyle><width>2</width></LineStyle></Style>
    <Point>
      <extrude>1</extrude>
      <tesselate>0</tesselate>
      <altitudeMode>relativeToGround</altitudeMode>
      <coordinates>7.62036, 46.6928,20</coordinates>
    </Point>
  </Placemark><Placemark>
    <name>Sierre/Siders, gare CFF</name>
    <Style><LineStyle><width>2</width></LineStyle></Style>
    <Point>
      <extrude>1</extrude>
      <tesselate>0</tesselate>
      <altitudeMode>relativeToGround</altitudeMode>
      <coordinates>7.53207, 46.2917,20</coordinates>
    </Point>
  </Placemark><Placemark>
    <name>Berisal, Brände</name>
    <Style><LineStyle><width>2</width></LineStyle></Style>
    <Point>
      <extrude>1</extrude>
      <tesselate>0</tesselate>
      <altitudeMode>relativeToGround</altitudeMode>
      <coordinates>8.05785, 46.294,20</coordinates>
    </Point>
  </Placemark><Placemark>
    <name>Berisal, Eggen</name>
    <Style><LineStyle><width>2</width></LineStyle></Style>
    <Point>
      <extrude>1</extrude>
      <tesselate>0</tesselate>
      <altitudeMode>relativeToGround</altitudeMode>
      <coordinates>8.04462, 46.2883,20</coordinates>
    </Point>
  </Placemark><Placemark>
    <name>Rothwald, Ganterwald</name>
    <Style><LineStyle><width>2</width></LineStyle></Style>
    <Point>
      <extrude>1</extrude>
      <tesselate>0</tesselate>
      <altitudeMode>relativeToGround</altitudeMode>
      <coordinates>8.03743, 46.2834,20</coordinates>
    </Point>
  </Placemark><Placemark>
    <name>Naters, Bine</name>
    <Style><LineStyle><width>2</width></LineStyle></Style>
    <Point>
      <extrude>1</extrude>
      <tesselate>0</tesselate>
      <altitudeMode>relativeToGround</altitudeMode>
      <coordinates>7.98901, 46.3231,20</coordinates>
    </Point>
  </Placemark><Placemark>
    <name>Eisten, Ganterbrücke</name>
    <Style><LineStyle><width>2</width></LineStyle></Style>
    <Point>
      <extrude>1</extrude>
      <tesselate>0</tesselate>
      <altitudeMode>relativeToGround</altitudeMode>
      <coordinates>8.05546, 46.2951,20</coordinates>
    </Point>
  </Placemark><Placemark>
    <name>Eyholz</name>
    <Style><LineStyle><width>2</width></LineStyle></Style>
    <Point>
      <extrude>1</extrude>
      <tesselate>0</tesselate>
      <altitudeMode>relativeToGround</altitudeMode>
      <coordinates>7.90656, 46.2959,20</coordinates>
    </Point>
  </Placemark><Placemark>
    <name>Interlaken Harderbahn</name>
    <Style><LineStyle><width>2</width></LineStyle></Style>
    <Point>
      <extrude>1</extrude>
      <tesselate>0</tesselate>
      <altitudeMode>relativeToGround</altitudeMode>
      <coordinates>7.86539, 46.691,20</coordinates>
    </Point>
  </Placemark><Placemark>
    <name>Harder Kulm</name>
    <Style><LineStyle><width>2</width></LineStyle></Style>
    <Point>
      <extrude>1</extrude>
      <tesselate>0</tesselate>
      <altitudeMode>relativeToGround</altitudeMode>
      <coordinates>7.85489, 46.6983,20</coordinates>
    </Point>
  </Placemark><Placemark>
    <name>Jungfraujoch</name>
    <Style><LineStyle><width>2</width></LineStyle></Style>
    <Point>
      <extrude>1</extrude>
      <tesselate>0</tesselate>
      <altitudeMode>relativeToGround</altitudeMode>
      <coordinates>7.98208, 46.5474,20</coordinates>
    </Point>
  </Placemark><Placemark>
    <name>Heimwehfluh</name>
    <Style><LineStyle><width>2</width></LineStyle></Style>
    <Point>
      <extrude>1</extrude>
      <tesselate>0</tesselate>
      <altitudeMode>relativeToGround</altitudeMode>
      <coordinates>7.85032, 46.6758,20</coordinates>
    </Point>
  </Placemark><Placemark>
    <name>Eigergletscher</name>
    <Style><LineStyle><width>2</width></LineStyle></Style>
    <Point>
      <extrude>1</extrude>
      <tesselate>0</tesselate>
      <altitudeMode>relativeToGround</altitudeMode>
      <coordinates>7.97408, 46.5748,20</coordinates>
    </Point>
  </Placemark><Placemark>
    <name>Hasliberg Goldern, Sandhubel</name>
    <Style><LineStyle><width>2</width></LineStyle></Style>
    <Point>
      <extrude>1</extrude>
      <tesselate>0</tesselate>
      <altitudeMode>relativeToGround</altitudeMode>
      <coordinates>8.20273, 46.7356,20</coordinates>
    </Point>
  </Placemark><Placemark>
    <name>Hasliberg Hohfluh, Weisstannen</name>
    <Style><LineStyle><width>2</width></LineStyle></Style>
    <Point>
      <extrude>1</extrude>
      <tesselate>0</tesselate>
      <altitudeMode>relativeToGround</altitudeMode>
      <coordinates>8.18654, 46.7476,20</coordinates>
    </Point>
  </Placemark><Placemark>
    <name>Hasliberg Hohfluh, Wetterhorn</name>
    <Style><LineStyle><width>2</width></LineStyle></Style>
    <Point>
      <extrude>1</extrude>
      <tesselate>0</tesselate>
      <altitudeMode>relativeToGround</altitudeMode>
      <coordinates>8.167, 46.7538,20</coordinates>
    </Point>
  </Placemark><Placemark>
    <name>Thun</name>
    <Style><LineStyle><width>2</width></LineStyle></Style>
    <Point>
      <extrude>1</extrude>
      <tesselate>0</tesselate>
      <altitudeMode>relativeToGround</altitudeMode>
      <coordinates>7.6296, 46.7548,20</coordinates>
    </Point>
  </Placemark><Placemark>
    <name>Homberg bei Thun, Hüttacker</name>
    <Style><LineStyle><width>2</width></LineStyle></Style>
    <Point>
      <extrude>1</extrude>
      <tesselate>0</tesselate>
      <altitudeMode>relativeToGround</altitudeMode>
      <coordinates>7.67464, 46.7754,20</coordinates>
    </Point>
  </Placemark><Placemark>
    <name>Schwendi b. Thun, Alpenblick</name>
    <Style><LineStyle><width>2</width></LineStyle></Style>
    <Point>
      <extrude>1</extrude>
      <tesselate>0</tesselate>
      <altitudeMode>relativeToGround</altitudeMode>
      <coordinates>7.68598, 46.7493,20</coordinates>
    </Point>
  </Placemark><Placemark>
    <name>Homberg bei Thun, Post</name>
    <Style><LineStyle><width>2</width></LineStyle></Style>
    <Point>
      <extrude>1</extrude>
      <tesselate>0</tesselate>
      <altitudeMode>relativeToGround</altitudeMode>
      <coordinates>7.6802, 46.7734,20</coordinates>
    </Point>
  </Placemark><Placemark>
    <name>Homberg bei Thun, Käserei</name>
    <Style><LineStyle><width>2</width></LineStyle></Style>
    <Point>
      <extrude>1</extrude>
      <tesselate>0</tesselate>
      <altitudeMode>relativeToGround</altitudeMode>
      <coordinates>7.6861, 46.7745,20</coordinates>
    </Point>
  </Placemark><Placemark>
    <name>Homberg bei Thun, Kreuz</name>
    <Style><LineStyle><width>2</width></LineStyle></Style>
    <Point>
      <extrude>1</extrude>
      <tesselate>0</tesselate>
      <altitudeMode>relativeToGround</altitudeMode>
      <coordinates>7.68642, 46.7745,20</coordinates>
    </Point>
  </Placemark><Placemark>
    <name>Adelboden, Schlegeli Hari</name>
    <Style><LineStyle><width>2</width></LineStyle></Style>
    <Point>
      <extrude>1</extrude>
      <tesselate>0</tesselate>
      <altitudeMode>relativeToGround</altitudeMode>
      <coordinates>7.56499, 46.4958,20</coordinates>
    </Point>
  </Placemark><Placemark>
    <name>Leissigen ThS</name>
    <Style><LineStyle><width>2</width></LineStyle></Style>
    <Point>
      <extrude>1</extrude>
      <tesselate>0</tesselate>
      <altitudeMode>relativeToGround</altitudeMode>
      <coordinates>7.77051, 46.6554,20</coordinates>
    </Point>
  </Placemark><Placemark>
    <name>Itramen, Habsucht</name>
    <Style><LineStyle><width>2</width></LineStyle></Style>
    <Point>
      <extrude>1</extrude>
      <tesselate>0</tesselate>
      <altitudeMode>relativeToGround</altitudeMode>
      <coordinates>7.99381, 46.6173,20</coordinates>
    </Point>
  </Placemark><Placemark>
    <name>Hasliberg Reuti MHB</name>
    <Style><LineStyle><width>2</width></LineStyle></Style>
    <Point>
      <extrude>1</extrude>
      <tesselate>0</tesselate>
      <altitudeMode>relativeToGround</altitudeMode>
      <coordinates>8.20921, 46.7329,20</coordinates>
    </Point>
  </Placemark><Placemark>
    <name>Bidmi MHB</name>
    <Style><LineStyle><width>2</width></LineStyle></Style>
    <Point>
      <extrude>1</extrude>
      <tesselate>0</tesselate>
      <altitudeMode>relativeToGround</altitudeMode>
      <coordinates>8.21943, 46.7442,20</coordinates>
    </Point>
  </Placemark><Placemark>
    <name>Meiringen RfB</name>
    <Style><LineStyle><width>2</width></LineStyle></Style>
    <Point>
      <extrude>1</extrude>
      <tesselate>0</tesselate>
      <altitudeMode>relativeToGround</altitudeMode>
      <coordinates>8.18774, 46.7194,20</coordinates>
    </Point>
  </Placemark><Placemark>
    <name>Reichenbachfall</name>
    <Style><LineStyle><width>2</width></LineStyle></Style>
    <Point>
      <extrude>1</extrude>
      <tesselate>0</tesselate>
      <altitudeMode>relativeToGround</altitudeMode>
      <coordinates>8.18289, 46.7145,20</coordinates>
    </Point>
  </Placemark><Placemark>
    <name>Meiringen MHB</name>
    <Style><LineStyle><width>2</width></LineStyle></Style>
    <Point>
      <extrude>1</extrude>
      <tesselate>0</tesselate>
      <altitudeMode>relativeToGround</altitudeMode>
      <coordinates>8.19211, 46.7283,20</coordinates>
    </Point>
  </Placemark><Placemark>
    <name>Zeneggen, Alt Zeneggen</name>
    <Style><LineStyle><width>2</width></LineStyle></Style>
    <Point>
      <extrude>1</extrude>
      <tesselate>0</tesselate>
      <altitudeMode>relativeToGround</altitudeMode>
      <coordinates>7.86076, 46.2779,20</coordinates>
    </Point>
  </Placemark><Placemark>
    <name>Corjolens, Maison Rouge</name>
    <Style><LineStyle><width>2</width></LineStyle></Style>
    <Point>
      <extrude>1</extrude>
      <tesselate>0</tesselate>
      <altitudeMode>relativeToGround</altitudeMode>
      <coordinates>7.03757, 46.7873,20</coordinates>
    </Point>
  </Placemark><Placemark>
    <name>Corjolens, La Croisée</name>
    <Style><LineStyle><width>2</width></LineStyle></Style>
    <Point>
      <extrude>1</extrude>
      <tesselate>0</tesselate>
      <altitudeMode>relativeToGround</altitudeMode>
      <coordinates>7.04805, 46.7858,20</coordinates>
    </Point>
  </Placemark><Placemark>
    <name>Rosé, gare</name>
    <Style><LineStyle><width>2</width></LineStyle></Style>
    <Point>
      <extrude>1</extrude>
      <tesselate>0</tesselate>
      <altitudeMode>relativeToGround</altitudeMode>
      <coordinates>7.06215, 46.7829,20</coordinates>
    </Point>
  </Placemark><Placemark>
    <name>Bluche, village</name>
    <Style><LineStyle><width>2</width></LineStyle></Style>
    <Point>
      <extrude>1</extrude>
      <tesselate>0</tesselate>
      <altitudeMode>relativeToGround</altitudeMode>
      <coordinates>7.49575, 46.3097,20</coordinates>
    </Point>
  </Placemark><Placemark>
    <name>Gryon Bois-Gentil</name>
    <Style><LineStyle><width>2</width></LineStyle></Style>
    <Point>
      <extrude>1</extrude>
      <tesselate>0</tesselate>
      <altitudeMode>relativeToGround</altitudeMode>
      <coordinates>7.06755, 46.2777,20</coordinates>
    </Point>
  </Placemark><Placemark>
    <name>Anzère, télécabine</name>
    <Style><LineStyle><width>2</width></LineStyle></Style>
    <Point>
      <extrude>1</extrude>
      <tesselate>0</tesselate>
      <altitudeMode>relativeToGround</altitudeMode>
      <coordinates>7.39547, 46.2941,20</coordinates>
    </Point>
  </Placemark><Placemark>
    <name>Bitsch, Mehrzweckanlage</name>
    <Style><LineStyle><width>2</width></LineStyle></Style>
    <Point>
      <extrude>1</extrude>
      <tesselate>0</tesselate>
      <altitudeMode>relativeToGround</altitudeMode>
      <coordinates>8.01544, 46.3356,20</coordinates>
    </Point>
  </Placemark><Placemark>
    <name>Lax, Abzw. Ernen</name>
    <Style><LineStyle><width>2</width></LineStyle></Style>
    <Point>
      <extrude>1</extrude>
      <tesselate>0</tesselate>
      <altitudeMode>relativeToGround</altitudeMode>
      <coordinates>8.12428, 46.3926,20</coordinates>
    </Point>
  </Placemark><Placemark>
    <name>Fiesch, Bahnhof</name>
    <Style><LineStyle><width>2</width></LineStyle></Style>
    <Point>
      <extrude>1</extrude>
      <tesselate>0</tesselate>
      <altitudeMode>relativeToGround</altitudeMode>
      <coordinates>8.13298, 46.403,20</coordinates>
    </Point>
  </Placemark><Placemark>
    <name>Gandegg</name>
    <Style><LineStyle><width>2</width></LineStyle></Style>
    <Point>
      <extrude>1</extrude>
      <tesselate>0</tesselate>
      <altitudeMode>relativeToGround</altitudeMode>
      <coordinates>7.75823, 46.4255,20</coordinates>
    </Point>
  </Placemark><Placemark>
    <name>Avry-sur-Matran, bif.</name>
    <Style><LineStyle><width>2</width></LineStyle></Style>
    <Point>
      <extrude>1</extrude>
      <tesselate>0</tesselate>
      <altitudeMode>relativeToGround</altitudeMode>
      <coordinates>7.07457, 46.7868,20</coordinates>
    </Point>
  </Placemark></Document>
</kml>
