<kml>
<Document>

<Region>
<LatLonAltBox>
<north>46.597769</north><south>46.531525</south><east>7.772246</east><west>7.619975</west>
<minAltitude>0.000000</minAltitude><maxAltitude>0.000000</maxAltitude>
</LatLonAltBox>
<minLodPixels>2048</minLodPixels><maxLodPixels>1000000000</maxLodPixels>
<minFadeExtent>0</minFadeExtent><maxFadeExtent>0</maxFadeExtent>
</Region>
<Placemark>
    <name>Blausee BE</name>
    <Style><LineStyle><width>2</width></LineStyle></Style>
    <Point>
      <extrude>1</extrude>
      <tesselate>0</tesselate>
      <altitudeMode>relativeToGround</altitudeMode>
      <coordinates>7.66825, 46.5343,20</coordinates>
    </Point>
  </Placemark><Placemark>
    <name>Frutigen, Heilsarmee</name>
    <Style><LineStyle><width>2</width></LineStyle></Style>
    <Point>
      <extrude>1</extrude>
      <tesselate>0</tesselate>
      <altitudeMode>relativeToGround</altitudeMode>
      <coordinates>7.65013, 46.5842,20</coordinates>
    </Point>
  </Placemark><Placemark>
    <name>Frutigen, Verkehrsbüro</name>
    <Style><LineStyle><width>2</width></LineStyle></Style>
    <Point>
      <extrude>1</extrude>
      <tesselate>0</tesselate>
      <altitudeMode>relativeToGround</altitudeMode>
      <coordinates>7.64558, 46.5885,20</coordinates>
    </Point>
  </Placemark><Placemark>
    <name>Frutigen, Ischlag</name>
    <Style><LineStyle><width>2</width></LineStyle></Style>
    <Point>
      <extrude>1</extrude>
      <tesselate>0</tesselate>
      <altitudeMode>relativeToGround</altitudeMode>
      <coordinates>7.64911, 46.5911,20</coordinates>
    </Point>
  </Placemark><Placemark>
    <name>Kiental, Rest. Alpenruhe</name>
    <Style><LineStyle><width>2</width></LineStyle></Style>
    <Point>
      <extrude>1</extrude>
      <tesselate>0</tesselate>
      <altitudeMode>relativeToGround</altitudeMode>
      <coordinates>7.73858, 46.5596,20</coordinates>
    </Point>
  </Placemark><Placemark>
    <name>Kiental, Tschingel</name>
    <Style><LineStyle><width>2</width></LineStyle></Style>
    <Point>
      <extrude>1</extrude>
      <tesselate>0</tesselate>
      <altitudeMode>relativeToGround</altitudeMode>
      <coordinates>7.75678, 46.5485,20</coordinates>
    </Point>
  </Placemark><Placemark>
    <name>Kiental, Abzw. Spiggengrund</name>
    <Style><LineStyle><width>2</width></LineStyle></Style>
    <Point>
      <extrude>1</extrude>
      <tesselate>0</tesselate>
      <altitudeMode>relativeToGround</altitudeMode>
      <coordinates>7.73375, 46.57,20</coordinates>
    </Point>
  </Placemark><Placemark>
    <name>Kiental, Faulbrunni</name>
    <Style><LineStyle><width>2</width></LineStyle></Style>
    <Point>
      <extrude>1</extrude>
      <tesselate>0</tesselate>
      <altitudeMode>relativeToGround</altitudeMode>
      <coordinates>7.73405, 46.565,20</coordinates>
    </Point>
  </Placemark><Placemark>
    <name>Kiental, Schönegg Kurhaus</name>
    <Style><LineStyle><width>2</width></LineStyle></Style>
    <Point>
      <extrude>1</extrude>
      <tesselate>0</tesselate>
      <altitudeMode>relativeToGround</altitudeMode>
      <coordinates>7.71658, 46.592,20</coordinates>
    </Point>
  </Placemark><Placemark>
    <name>Kiental, Loosplattenalp</name>
    <Style><LineStyle><width>2</width></LineStyle></Style>
    <Point>
      <extrude>1</extrude>
      <tesselate>0</tesselate>
      <altitudeMode>relativeToGround</altitudeMode>
      <coordinates>7.7315, 46.576,20</coordinates>
    </Point>
  </Placemark><Placemark>
    <name>Scharnachtal, Haus Lengacher</name>
    <Style><LineStyle><width>2</width></LineStyle></Style>
    <Point>
      <extrude>1</extrude>
      <tesselate>0</tesselate>
      <altitudeMode>relativeToGround</altitudeMode>
      <coordinates>7.71658, 46.5918,20</coordinates>
    </Point>
  </Placemark><Placemark>
    <name>Frutigen, Achere</name>
    <Style><LineStyle><width>2</width></LineStyle></Style>
    <Point>
      <extrude>1</extrude>
      <tesselate>0</tesselate>
      <altitudeMode>relativeToGround</altitudeMode>
      <coordinates>7.65132, 46.5893,20</coordinates>
    </Point>
  </Placemark><Placemark>
    <name>Frutigen, Amtshaus</name>
    <Style><LineStyle><width>2</width></LineStyle></Style>
    <Point>
      <extrude>1</extrude>
      <tesselate>0</tesselate>
      <altitudeMode>relativeToGround</altitudeMode>
      <coordinates>7.64612, 46.5938,20</coordinates>
    </Point>
  </Placemark><Placemark>
    <name>Frutigen, Rybrügg</name>
    <Style><LineStyle><width>2</width></LineStyle></Style>
    <Point>
      <extrude>1</extrude>
      <tesselate>0</tesselate>
      <altitudeMode>relativeToGround</altitudeMode>
      <coordinates>7.65386, 46.572,20</coordinates>
    </Point>
  </Placemark><Placemark>
    <name>Griesalp, Kurhaus</name>
    <Style><LineStyle><width>2</width></LineStyle></Style>
    <Point>
      <extrude>1</extrude>
      <tesselate>0</tesselate>
      <altitudeMode>relativeToGround</altitudeMode>
      <coordinates>7.76166, 46.5474,20</coordinates>
    </Point>
  </Placemark><Placemark>
    <name>Kandergrund</name>
    <Style><LineStyle><width>2</width></LineStyle></Style>
    <Point>
      <extrude>1</extrude>
      <tesselate>0</tesselate>
      <altitudeMode>relativeToGround</altitudeMode>
      <coordinates>7.66266, 46.5578,20</coordinates>
    </Point>
  </Placemark><Placemark>
    <name>Frutigen</name>
    <Style><LineStyle><width>2</width></LineStyle></Style>
    <Point>
      <extrude>1</extrude>
      <tesselate>0</tesselate>
      <altitudeMode>relativeToGround</altitudeMode>
      <coordinates>7.6516, 46.5888,20</coordinates>
    </Point>
  </Placemark></Document>
</kml>
