<kml>
<Document>

<Region>
<LatLonAltBox>
<north>46.399038</north><south>46.332794</south><east>8.076789</east><west>7.924518</west>
<minAltitude>0.000000</minAltitude><maxAltitude>0.000000</maxAltitude>
</LatLonAltBox>
<minLodPixels>2048</minLodPixels><maxLodPixels>1000000000</maxLodPixels>
<minFadeExtent>0</minFadeExtent><maxFadeExtent>0</maxFadeExtent>
</Region>
<Placemark>
    <name>Naters, Rafji</name>
    <Style><LineStyle><width>2</width></LineStyle></Style>
    <Point>
      <extrude>1</extrude>
      <tesselate>0</tesselate>
      <altitudeMode>relativeToGround</altitudeMode>
      <coordinates>7.98163, 46.3475,20</coordinates>
    </Point>
  </Placemark><Placemark>
    <name>Naters, Ahorn</name>
    <Style><LineStyle><width>2</width></LineStyle></Style>
    <Point>
      <extrude>1</extrude>
      <tesselate>0</tesselate>
      <altitudeMode>relativeToGround</altitudeMode>
      <coordinates>7.9804, 46.3543,20</coordinates>
    </Point>
  </Placemark><Placemark>
    <name>Naters, Mehlbaum</name>
    <Style><LineStyle><width>2</width></LineStyle></Style>
    <Point>
      <extrude>1</extrude>
      <tesselate>0</tesselate>
      <altitudeMode>relativeToGround</altitudeMode>
      <coordinates>7.98175, 46.3492,20</coordinates>
    </Point>
  </Placemark><Placemark>
    <name>Naters, Bitschji</name>
    <Style><LineStyle><width>2</width></LineStyle></Style>
    <Point>
      <extrude>1</extrude>
      <tesselate>0</tesselate>
      <altitudeMode>relativeToGround</altitudeMode>
      <coordinates>7.98376, 46.3409,20</coordinates>
    </Point>
  </Placemark><Placemark>
    <name>Blatten b. Naters, Eija</name>
    <Style><LineStyle><width>2</width></LineStyle></Style>
    <Point>
      <extrude>1</extrude>
      <tesselate>0</tesselate>
      <altitudeMode>relativeToGround</altitudeMode>
      <coordinates>7.97994, 46.3568,20</coordinates>
    </Point>
  </Placemark><Placemark>
    <name>Riederalp West</name>
    <Style><LineStyle><width>2</width></LineStyle></Style>
    <Point>
      <extrude>1</extrude>
      <tesselate>0</tesselate>
      <altitudeMode>relativeToGround</altitudeMode>
      <coordinates>8.02601, 46.3759,20</coordinates>
    </Point>
  </Placemark><Placemark>
    <name>Hegdorn</name>
    <Style><LineStyle><width>2</width></LineStyle></Style>
    <Point>
      <extrude>1</extrude>
      <tesselate>0</tesselate>
      <altitudeMode>relativeToGround</altitudeMode>
      <coordinates>7.98988, 46.3351,20</coordinates>
    </Point>
  </Placemark><Placemark>
    <name>Geimen</name>
    <Style><LineStyle><width>2</width></LineStyle></Style>
    <Point>
      <extrude>1</extrude>
      <tesselate>0</tesselate>
      <altitudeMode>relativeToGround</altitudeMode>
      <coordinates>7.98429, 46.3435,20</coordinates>
    </Point>
  </Placemark><Placemark>
    <name>Blatten b. Naters, Post</name>
    <Style><LineStyle><width>2</width></LineStyle></Style>
    <Point>
      <extrude>1</extrude>
      <tesselate>0</tesselate>
      <altitudeMode>relativeToGround</altitudeMode>
      <coordinates>7.98407, 46.3588,20</coordinates>
    </Point>
  </Placemark><Placemark>
    <name>Bitsch, Bitschschlüecht</name>
    <Style><LineStyle><width>2</width></LineStyle></Style>
    <Point>
      <extrude>1</extrude>
      <tesselate>0</tesselate>
      <altitudeMode>relativeToGround</altitudeMode>
      <coordinates>8.01407, 46.337,20</coordinates>
    </Point>
  </Placemark><Placemark>
    <name>Bitsch, Schulhaus</name>
    <Style><LineStyle><width>2</width></LineStyle></Style>
    <Point>
      <extrude>1</extrude>
      <tesselate>0</tesselate>
      <altitudeMode>relativeToGround</altitudeMode>
      <coordinates>8.01539, 46.3365,20</coordinates>
    </Point>
  </Placemark><Placemark>
    <name>Bitsch, Sattel</name>
    <Style><LineStyle><width>2</width></LineStyle></Style>
    <Point>
      <extrude>1</extrude>
      <tesselate>0</tesselate>
      <altitudeMode>relativeToGround</altitudeMode>
      <coordinates>8.01851, 46.3404,20</coordinates>
    </Point>
  </Placemark><Placemark>
    <name>Riederalp Mitte</name>
    <Style><LineStyle><width>2</width></LineStyle></Style>
    <Point>
      <extrude>1</extrude>
      <tesselate>0</tesselate>
      <altitudeMode>relativeToGround</altitudeMode>
      <coordinates>8.03321, 46.378,20</coordinates>
    </Point>
  </Placemark><Placemark>
    <name>Mörel, Schulhaus</name>
    <Style><LineStyle><width>2</width></LineStyle></Style>
    <Point>
      <extrude>1</extrude>
      <tesselate>0</tesselate>
      <altitudeMode>relativeToGround</altitudeMode>
      <coordinates>8.04819, 46.3577,20</coordinates>
    </Point>
  </Placemark><Placemark>
    <name>Moosfluh</name>
    <Style><LineStyle><width>2</width></LineStyle></Style>
    <Point>
      <extrude>1</extrude>
      <tesselate>0</tesselate>
      <altitudeMode>relativeToGround</altitudeMode>
      <coordinates>8.04822, 46.3958,20</coordinates>
    </Point>
  </Placemark><Placemark>
    <name>Riederalp ARBAG (Hohfluh)</name>
    <Style><LineStyle><width>2</width></LineStyle></Style>
    <Point>
      <extrude>1</extrude>
      <tesselate>0</tesselate>
      <altitudeMode>relativeToGround</altitudeMode>
      <coordinates>8.02702, 46.3777,20</coordinates>
    </Point>
  </Placemark><Placemark>
    <name>Hohfluh ARBAG</name>
    <Style><LineStyle><width>2</width></LineStyle></Style>
    <Point>
      <extrude>1</extrude>
      <tesselate>0</tesselate>
      <altitudeMode>relativeToGround</altitudeMode>
      <coordinates>8.02784, 46.3861,20</coordinates>
    </Point>
  </Placemark><Placemark>
    <name>Betten Talstation</name>
    <Style><LineStyle><width>2</width></LineStyle></Style>
    <Point>
      <extrude>1</extrude>
      <tesselate>0</tesselate>
      <altitudeMode>relativeToGround</altitudeMode>
      <coordinates>8.07663, 46.371,20</coordinates>
    </Point>
  </Placemark><Placemark>
    <name>Mörel</name>
    <Style><LineStyle><width>2</width></LineStyle></Style>
    <Point>
      <extrude>1</extrude>
      <tesselate>0</tesselate>
      <altitudeMode>relativeToGround</altitudeMode>
      <coordinates>8.04736, 46.3563,20</coordinates>
    </Point>
  </Placemark><Placemark>
    <name>Bitsch</name>
    <Style><LineStyle><width>2</width></LineStyle></Style>
    <Point>
      <extrude>1</extrude>
      <tesselate>0</tesselate>
      <altitudeMode>relativeToGround</altitudeMode>
      <coordinates>8.01679, 46.3356,20</coordinates>
    </Point>
  </Placemark><Placemark>
    <name>Riederalp ARBAG (Moosfluh)</name>
    <Style><LineStyle><width>2</width></LineStyle></Style>
    <Point>
      <extrude>1</extrude>
      <tesselate>0</tesselate>
      <altitudeMode>relativeToGround</altitudeMode>
      <coordinates>8.03986, 46.3812,20</coordinates>
    </Point>
  </Placemark></Document>
</kml>
