<kml>
<Document>

<Region>
<LatLonAltBox>
<north>46.332794</north><south>46.266550</south><east>8.076789</east><west>7.924518</west>
<minAltitude>0.000000</minAltitude><maxAltitude>0.000000</maxAltitude>
</LatLonAltBox>
<minLodPixels>2048</minLodPixels><maxLodPixels>1000000000</maxLodPixels>
<minFadeExtent>0</minFadeExtent><maxFadeExtent>0</maxFadeExtent>
</Region>
<NetworkLink>
<name>0213320</name>

<Region>
<LatLonAltBox>
<north>46.332794</north><south>46.299672</south><east>8.000653</east><west>7.924518</west>
<minAltitude>0.000000</minAltitude><maxAltitude>0.000000</maxAltitude>
</LatLonAltBox>
<minLodPixels>256</minLodPixels><maxLodPixels>1000000000</maxLodPixels>
<minFadeExtent>0</minFadeExtent><maxFadeExtent>0</maxFadeExtent>
</Region>
<Link>
<href>0213320.kml</href><viewRefreshMode>onRegion</viewRefreshMode></Link>
</NetworkLink>
<NetworkLink>
<name>0213321</name>

<Region>
<LatLonAltBox>
<north>46.332794</north><south>46.299672</south><east>8.076789</east><west>8.000653</west>
<minAltitude>0.000000</minAltitude><maxAltitude>0.000000</maxAltitude>
</LatLonAltBox>
<minLodPixels>256</minLodPixels><maxLodPixels>1000000000</maxLodPixels>
<minFadeExtent>0</minFadeExtent><maxFadeExtent>0</maxFadeExtent>
</Region>
<Link>
<href>0213321.kml</href><viewRefreshMode>onRegion</viewRefreshMode></Link>
</NetworkLink>
<Placemark>
    <name>Brig, Termerweg</name>
    <Style><LineStyle><width>2</width></LineStyle></Style>
    <Point>
      <extrude>1</extrude>
      <tesselate>0</tesselate>
      <altitudeMode>relativeToGround</altitudeMode>
      <coordinates>7.9969, 46.3166,20</coordinates>
    </Point>
  </Placemark><Placemark>
    <name>Brig, Kollegium</name>
    <Style><LineStyle><width>2</width></LineStyle></Style>
    <Point>
      <extrude>1</extrude>
      <tesselate>0</tesselate>
      <altitudeMode>relativeToGround</altitudeMode>
      <coordinates>7.99462, 46.316,20</coordinates>
    </Point>
  </Placemark><Placemark>
    <name>Glis, Napoleon</name>
    <Style><LineStyle><width>2</width></LineStyle></Style>
    <Point>
      <extrude>1</extrude>
      <tesselate>0</tesselate>
      <altitudeMode>relativeToGround</altitudeMode>
      <coordinates>7.98256, 46.3104,20</coordinates>
    </Point>
  </Placemark><Placemark>
    <name>Glis, Holzji</name>
    <Style><LineStyle><width>2</width></LineStyle></Style>
    <Point>
      <extrude>1</extrude>
      <tesselate>0</tesselate>
      <altitudeMode>relativeToGround</altitudeMode>
      <coordinates>7.98218, 46.3052,20</coordinates>
    </Point>
  </Placemark><Placemark>
    <name>Naters, Weingarten</name>
    <Style><LineStyle><width>2</width></LineStyle></Style>
    <Point>
      <extrude>1</extrude>
      <tesselate>0</tesselate>
      <altitudeMode>relativeToGround</altitudeMode>
      <coordinates>8.00806, 46.328,20</coordinates>
    </Point>
  </Placemark><Placemark>
    <name>Mund, untere Wartfluh</name>
    <Style><LineStyle><width>2</width></LineStyle></Style>
    <Point>
      <extrude>1</extrude>
      <tesselate>0</tesselate>
      <altitudeMode>relativeToGround</altitudeMode>
      <coordinates>7.94722, 46.3153,20</coordinates>
    </Point>
  </Placemark><Placemark>
    <name>Birgisch, Brunnuschiirli</name>
    <Style><LineStyle><width>2</width></LineStyle></Style>
    <Point>
      <extrude>1</extrude>
      <tesselate>0</tesselate>
      <altitudeMode>relativeToGround</altitudeMode>
      <coordinates>7.95884, 46.3167,20</coordinates>
    </Point>
  </Placemark><Placemark>
    <name>Gamsen, Boccalino</name>
    <Style><LineStyle><width>2</width></LineStyle></Style>
    <Point>
      <extrude>1</extrude>
      <tesselate>0</tesselate>
      <altitudeMode>relativeToGround</altitudeMode>
      <coordinates>7.94889, 46.3046,20</coordinates>
    </Point>
  </Placemark><Placemark>
    <name>Glis, Heilpädagogische Schule</name>
    <Style><LineStyle><width>2</width></LineStyle></Style>
    <Point>
      <extrude>1</extrude>
      <tesselate>0</tesselate>
      <altitudeMode>relativeToGround</altitudeMode>
      <coordinates>7.97087, 46.3102,20</coordinates>
    </Point>
  </Placemark><Placemark>
    <name>Glis, Romantica</name>
    <Style><LineStyle><width>2</width></LineStyle></Style>
    <Point>
      <extrude>1</extrude>
      <tesselate>0</tesselate>
      <altitudeMode>relativeToGround</altitudeMode>
      <coordinates>7.98261, 46.3156,20</coordinates>
    </Point>
  </Placemark><Placemark>
    <name>Glis, Spital</name>
    <Style><LineStyle><width>2</width></LineStyle></Style>
    <Point>
      <extrude>1</extrude>
      <tesselate>0</tesselate>
      <altitudeMode>relativeToGround</altitudeMode>
      <coordinates>7.98303, 46.317,20</coordinates>
    </Point>
  </Placemark><Placemark>
    <name>Naters, Venezia</name>
    <Style><LineStyle><width>2</width></LineStyle></Style>
    <Point>
      <extrude>1</extrude>
      <tesselate>0</tesselate>
      <altitudeMode>relativeToGround</altitudeMode>
      <coordinates>8.0035, 46.3267,20</coordinates>
    </Point>
  </Placemark><Placemark>
    <name>Gamsen, Gewerbez. Olympica</name>
    <Style><LineStyle><width>2</width></LineStyle></Style>
    <Point>
      <extrude>1</extrude>
      <tesselate>0</tesselate>
      <altitudeMode>relativeToGround</altitudeMode>
      <coordinates>7.96184, 46.3069,20</coordinates>
    </Point>
  </Placemark><Placemark>
    <name>Naters, Panorama</name>
    <Style><LineStyle><width>2</width></LineStyle></Style>
    <Point>
      <extrude>1</extrude>
      <tesselate>0</tesselate>
      <altitudeMode>relativeToGround</altitudeMode>
      <coordinates>7.99619, 46.3291,20</coordinates>
    </Point>
  </Placemark><Placemark>
    <name>Naters, Marktplatz</name>
    <Style><LineStyle><width>2</width></LineStyle></Style>
    <Point>
      <extrude>1</extrude>
      <tesselate>0</tesselate>
      <altitudeMode>relativeToGround</altitudeMode>
      <coordinates>7.9891, 46.3256,20</coordinates>
    </Point>
  </Placemark><Placemark>
    <name>Naters, Rottubrigga</name>
    <Style><LineStyle><width>2</width></LineStyle></Style>
    <Point>
      <extrude>1</extrude>
      <tesselate>0</tesselate>
      <altitudeMode>relativeToGround</altitudeMode>
      <coordinates>7.98643, 46.3209,20</coordinates>
    </Point>
  </Placemark><Placemark>
    <name>Mund, Brunnen</name>
    <Style><LineStyle><width>2</width></LineStyle></Style>
    <Point>
      <extrude>1</extrude>
      <tesselate>0</tesselate>
      <altitudeMode>relativeToGround</altitudeMode>
      <coordinates>7.9437, 46.3151,20</coordinates>
    </Point>
  </Placemark><Placemark>
    <name>Birgisch, Bord</name>
    <Style><LineStyle><width>2</width></LineStyle></Style>
    <Point>
      <extrude>1</extrude>
      <tesselate>0</tesselate>
      <altitudeMode>relativeToGround</altitudeMode>
      <coordinates>7.96113, 46.3172,20</coordinates>
    </Point>
  </Placemark><Placemark>
    <name>Naters, Kelchbach</name>
    <Style><LineStyle><width>2</width></LineStyle></Style>
    <Point>
      <extrude>1</extrude>
      <tesselate>0</tesselate>
      <altitudeMode>relativeToGround</altitudeMode>
      <coordinates>7.98855, 46.325,20</coordinates>
    </Point>
  </Placemark><Placemark>
    <name>Naters, Fiischter-Fäld</name>
    <Style><LineStyle><width>2</width></LineStyle></Style>
    <Point>
      <extrude>1</extrude>
      <tesselate>0</tesselate>
      <altitudeMode>relativeToGround</altitudeMode>
      <coordinates>8.00089, 46.3258,20</coordinates>
    </Point>
  </Placemark><Placemark>
    <name>Glis, untere Briggasse</name>
    <Style><LineStyle><width>2</width></LineStyle></Style>
    <Point>
      <extrude>1</extrude>
      <tesselate>0</tesselate>
      <altitudeMode>relativeToGround</altitudeMode>
      <coordinates>7.9845, 46.3097,20</coordinates>
    </Point>
  </Placemark><Placemark>
    <name>Naters, Bammatte</name>
    <Style><LineStyle><width>2</width></LineStyle></Style>
    <Point>
      <extrude>1</extrude>
      <tesselate>0</tesselate>
      <altitudeMode>relativeToGround</altitudeMode>
      <coordinates>7.98861, 46.325,20</coordinates>
    </Point>
  </Placemark><Placemark>
    <name>Naters, Saaser Müra</name>
    <Style><LineStyle><width>2</width></LineStyle></Style>
    <Point>
      <extrude>1</extrude>
      <tesselate>0</tesselate>
      <altitudeMode>relativeToGround</altitudeMode>
      <coordinates>8.00675, 46.3271,20</coordinates>
    </Point>
  </Placemark><Placemark>
    <name>Naters, Sportplatz</name>
    <Style><LineStyle><width>2</width></LineStyle></Style>
    <Point>
      <extrude>1</extrude>
      <tesselate>0</tesselate>
      <altitudeMode>relativeToGround</altitudeMode>
      <coordinates>8.00479, 46.3263,20</coordinates>
    </Point>
  </Placemark><Placemark>
    <name>Glis, obere Haselgasse</name>
    <Style><LineStyle><width>2</width></LineStyle></Style>
    <Point>
      <extrude>1</extrude>
      <tesselate>0</tesselate>
      <altitudeMode>relativeToGround</altitudeMode>
      <coordinates>7.98837, 46.3074,20</coordinates>
    </Point>
  </Placemark><Placemark>
    <name>Brig</name>
    <Style><LineStyle><width>2</width></LineStyle></Style>
    <Point>
      <extrude>1</extrude>
      <tesselate>0</tesselate>
      <altitudeMode>relativeToGround</altitudeMode>
      <coordinates>7.98809, 46.3194,20</coordinates>
    </Point>
  </Placemark><Placemark>
    <name>Brig, altes Spital</name>
    <Style><LineStyle><width>2</width></LineStyle></Style>
    <Point>
      <extrude>1</extrude>
      <tesselate>0</tesselate>
      <altitudeMode>relativeToGround</altitudeMode>
      <coordinates>7.98457, 46.319,20</coordinates>
    </Point>
  </Placemark><Placemark>
    <name>Glis, Wickert</name>
    <Style><LineStyle><width>2</width></LineStyle></Style>
    <Point>
      <extrude>1</extrude>
      <tesselate>0</tesselate>
      <altitudeMode>relativeToGround</altitudeMode>
      <coordinates>7.98511, 46.3061,20</coordinates>
    </Point>
  </Placemark><Placemark>
    <name>Naters, Missione</name>
    <Style><LineStyle><width>2</width></LineStyle></Style>
    <Point>
      <extrude>1</extrude>
      <tesselate>0</tesselate>
      <altitudeMode>relativeToGround</altitudeMode>
      <coordinates>7.99083, 46.3257,20</coordinates>
    </Point>
  </Placemark><Placemark>
    <name>Brig, Haus Schönstatt</name>
    <Style><LineStyle><width>2</width></LineStyle></Style>
    <Point>
      <extrude>1</extrude>
      <tesselate>0</tesselate>
      <altitudeMode>relativeToGround</altitudeMode>
      <coordinates>7.9972, 46.3142,20</coordinates>
    </Point>
  </Placemark><Placemark>
    <name>Brig, Bachji</name>
    <Style><LineStyle><width>2</width></LineStyle></Style>
    <Point>
      <extrude>1</extrude>
      <tesselate>0</tesselate>
      <altitudeMode>relativeToGround</altitudeMode>
      <coordinates>7.99459, 46.3128,20</coordinates>
    </Point>
  </Placemark><Placemark>
    <name>Mund, Kummegga</name>
    <Style><LineStyle><width>2</width></LineStyle></Style>
    <Point>
      <extrude>1</extrude>
      <tesselate>0</tesselate>
      <altitudeMode>relativeToGround</altitudeMode>
      <coordinates>7.9419, 46.3133,20</coordinates>
    </Point>
  </Placemark><Placemark>
    <name>Glis, Dorf</name>
    <Style><LineStyle><width>2</width></LineStyle></Style>
    <Point>
      <extrude>1</extrude>
      <tesselate>0</tesselate>
      <altitudeMode>relativeToGround</altitudeMode>
      <coordinates>7.97676, 46.3104,20</coordinates>
    </Point>
  </Placemark><Placemark>
    <name>Brig, Geschina</name>
    <Style><LineStyle><width>2</width></LineStyle></Style>
    <Point>
      <extrude>1</extrude>
      <tesselate>0</tesselate>
      <altitudeMode>relativeToGround</altitudeMode>
      <coordinates>7.99157, 46.3132,20</coordinates>
    </Point>
  </Placemark><Placemark>
    <name>Gamsen, Kantonsstrasse</name>
    <Style><LineStyle><width>2</width></LineStyle></Style>
    <Point>
      <extrude>1</extrude>
      <tesselate>0</tesselate>
      <altitudeMode>relativeToGround</altitudeMode>
      <coordinates>7.9527, 46.3058,20</coordinates>
    </Point>
  </Placemark><Placemark>
    <name>Termen, Dorfplatz</name>
    <Style><LineStyle><width>2</width></LineStyle></Style>
    <Point>
      <extrude>1</extrude>
      <tesselate>0</tesselate>
      <altitudeMode>relativeToGround</altitudeMode>
      <coordinates>8.02224, 46.3278,20</coordinates>
    </Point>
  </Placemark><Placemark>
    <name>Schallberg</name>
    <Style><LineStyle><width>2</width></LineStyle></Style>
    <Point>
      <extrude>1</extrude>
      <tesselate>0</tesselate>
      <altitudeMode>relativeToGround</altitudeMode>
      <coordinates>8.02286, 46.2938,20</coordinates>
    </Point>
  </Placemark><Placemark>
    <name>Brig, Stützen</name>
    <Style><LineStyle><width>2</width></LineStyle></Style>
    <Point>
      <extrude>1</extrude>
      <tesselate>0</tesselate>
      <altitudeMode>relativeToGround</altitudeMode>
      <coordinates>7.99978, 46.3104,20</coordinates>
    </Point>
  </Placemark><Placemark>
    <name>Schlucht</name>
    <Style><LineStyle><width>2</width></LineStyle></Style>
    <Point>
      <extrude>1</extrude>
      <tesselate>0</tesselate>
      <altitudeMode>relativeToGround</altitudeMode>
      <coordinates>7.96697, 46.3186,20</coordinates>
    </Point>
  </Placemark><Placemark>
    <name>Eisten, Ganter</name>
    <Style><LineStyle><width>2</width></LineStyle></Style>
    <Point>
      <extrude>1</extrude>
      <tesselate>0</tesselate>
      <altitudeMode>relativeToGround</altitudeMode>
      <coordinates>8.04586, 46.2977,20</coordinates>
    </Point>
  </Placemark><Placemark>
    <name>Ried-Brig, Brei</name>
    <Style><LineStyle><width>2</width></LineStyle></Style>
    <Point>
      <extrude>1</extrude>
      <tesselate>0</tesselate>
      <altitudeMode>relativeToGround</altitudeMode>
      <coordinates>8.00969, 46.3083,20</coordinates>
    </Point>
  </Placemark><Placemark>
    <name>Ried-Brig, Lingwurm</name>
    <Style><LineStyle><width>2</width></LineStyle></Style>
    <Point>
      <extrude>1</extrude>
      <tesselate>0</tesselate>
      <altitudeMode>relativeToGround</altitudeMode>
      <coordinates>8.00333, 46.3101,20</coordinates>
    </Point>
  </Placemark><Placemark>
    <name>Brig, Spital Regionalschulhaus</name>
    <Style><LineStyle><width>2</width></LineStyle></Style>
    <Point>
      <extrude>1</extrude>
      <tesselate>0</tesselate>
      <altitudeMode>relativeToGround</altitudeMode>
      <coordinates>7.98151, 46.315,20</coordinates>
    </Point>
  </Placemark><Placemark>
    <name>Brig, Bahnhof</name>
    <Style><LineStyle><width>2</width></LineStyle></Style>
    <Point>
      <extrude>1</extrude>
      <tesselate>0</tesselate>
      <altitudeMode>relativeToGround</altitudeMode>
      <coordinates>7.98827, 46.3189,20</coordinates>
    </Point>
  </Placemark><Placemark>
    <name>Glis, Holowistrasse</name>
    <Style><LineStyle><width>2</width></LineStyle></Style>
    <Point>
      <extrude>1</extrude>
      <tesselate>0</tesselate>
      <altitudeMode>relativeToGround</altitudeMode>
      <coordinates>7.97216, 46.3093,20</coordinates>
    </Point>
  </Placemark><Placemark>
    <name>Ried-Brig, Bleiken</name>
    <Style><LineStyle><width>2</width></LineStyle></Style>
    <Point>
      <extrude>1</extrude>
      <tesselate>0</tesselate>
      <altitudeMode>relativeToGround</altitudeMode>
      <coordinates>8.00825, 46.3065,20</coordinates>
    </Point>
  </Placemark><Placemark>
    <name>Brig, Weri</name>
    <Style><LineStyle><width>2</width></LineStyle></Style>
    <Point>
      <extrude>1</extrude>
      <tesselate>0</tesselate>
      <altitudeMode>relativeToGround</altitudeMode>
      <coordinates>7.99038, 46.3137,20</coordinates>
    </Point>
  </Placemark><Placemark>
    <name>Glis, Kapuzinerkloster</name>
    <Style><LineStyle><width>2</width></LineStyle></Style>
    <Point>
      <extrude>1</extrude>
      <tesselate>0</tesselate>
      <altitudeMode>relativeToGround</altitudeMode>
      <coordinates>7.98746, 46.3137,20</coordinates>
    </Point>
  </Placemark><Placemark>
    <name>Naters, Bahnhofstrasse</name>
    <Style><LineStyle><width>2</width></LineStyle></Style>
    <Point>
      <extrude>1</extrude>
      <tesselate>0</tesselate>
      <altitudeMode>relativeToGround</altitudeMode>
      <coordinates>7.98528, 46.3232,20</coordinates>
    </Point>
  </Placemark></Document>
</kml>
