<kml>
<Document>

<Region>
<LatLonAltBox>
<north>46.299672</north><south>46.266550</south><east>7.924518</east><west>7.848382</west>
<minAltitude>0.000000</minAltitude><maxAltitude>0.000000</maxAltitude>
</LatLonAltBox>
<minLodPixels>2048</minLodPixels><maxLodPixels>1000000000</maxLodPixels>
<minFadeExtent>0</minFadeExtent><maxFadeExtent>0</maxFadeExtent>
</Region>
<Placemark>
    <name>Visp, Hohlegasse</name>
    <Style><LineStyle><width>2</width></LineStyle></Style>
    <Point>
      <extrude>1</extrude>
      <tesselate>0</tesselate>
      <altitudeMode>relativeToGround</altitudeMode>
      <coordinates>7.87638, 46.2918,20</coordinates>
    </Point>
  </Placemark><Placemark>
    <name>Visp, Schlüsselacker</name>
    <Style><LineStyle><width>2</width></LineStyle></Style>
    <Point>
      <extrude>1</extrude>
      <tesselate>0</tesselate>
      <altitudeMode>relativeToGround</altitudeMode>
      <coordinates>7.87429, 46.2917,20</coordinates>
    </Point>
  </Placemark><Placemark>
    <name>Visp, Untere Albe</name>
    <Style><LineStyle><width>2</width></LineStyle></Style>
    <Point>
      <extrude>1</extrude>
      <tesselate>0</tesselate>
      <altitudeMode>relativeToGround</altitudeMode>
      <coordinates>7.87087, 46.2926,20</coordinates>
    </Point>
  </Placemark><Placemark>
    <name>Visp, Albe</name>
    <Style><LineStyle><width>2</width></LineStyle></Style>
    <Point>
      <extrude>1</extrude>
      <tesselate>0</tesselate>
      <altitudeMode>relativeToGround</altitudeMode>
      <coordinates>7.85521, 46.2917,20</coordinates>
    </Point>
  </Placemark><Placemark>
    <name>Bürchen, Abzw. Zeneggen</name>
    <Style><LineStyle><width>2</width></LineStyle></Style>
    <Point>
      <extrude>1</extrude>
      <tesselate>0</tesselate>
      <altitudeMode>relativeToGround</altitudeMode>
      <coordinates>7.85004, 46.2917,20</coordinates>
    </Point>
  </Placemark><Placemark>
    <name>Visp, Bahnhof Nord</name>
    <Style><LineStyle><width>2</width></LineStyle></Style>
    <Point>
      <extrude>1</extrude>
      <tesselate>0</tesselate>
      <altitudeMode>relativeToGround</altitudeMode>
      <coordinates>7.88193, 46.2949,20</coordinates>
    </Point>
  </Placemark></Document>
</kml>
