<kml>
<Document>

<Region>
<LatLonAltBox>
<north>46.531525</north><south>46.399038</south><east>8.229060</east><west>7.924518</west>
<minAltitude>0.000000</minAltitude><maxAltitude>0.000000</maxAltitude>
</LatLonAltBox>
<minLodPixels>2048</minLodPixels><maxLodPixels>1000000000</maxLodPixels>
<minFadeExtent>0</minFadeExtent><maxFadeExtent>0</maxFadeExtent>
</Region>
<Placemark>
    <name>Mühlebach (Goms), Brücke</name>
    <Style><LineStyle><width>2</width></LineStyle></Style>
    <Point>
      <extrude>1</extrude>
      <tesselate>0</tesselate>
      <altitudeMode>relativeToGround</altitudeMode>
      <coordinates>8.15447, 46.4066,20</coordinates>
    </Point>
  </Placemark><Placemark>
    <name>Blitzingen</name>
    <Style><LineStyle><width>2</width></LineStyle></Style>
    <Point>
      <extrude>1</extrude>
      <tesselate>0</tesselate>
      <altitudeMode>relativeToGround</altitudeMode>
      <coordinates>8.205, 46.4446,20</coordinates>
    </Point>
  </Placemark><Placemark>
    <name>Biel (Goms)</name>
    <Style><LineStyle><width>2</width></LineStyle></Style>
    <Point>
      <extrude>1</extrude>
      <tesselate>0</tesselate>
      <altitudeMode>relativeToGround</altitudeMode>
      <coordinates>8.21945, 46.4549,20</coordinates>
    </Point>
  </Placemark><Placemark>
    <name>Bellwald SBR</name>
    <Style><LineStyle><width>2</width></LineStyle></Style>
    <Point>
      <extrude>1</extrude>
      <tesselate>0</tesselate>
      <altitudeMode>relativeToGround</altitudeMode>
      <coordinates>8.16129, 46.4278,20</coordinates>
    </Point>
  </Placemark><Placemark>
    <name>Richinen</name>
    <Style><LineStyle><width>2</width></LineStyle></Style>
    <Point>
      <extrude>1</extrude>
      <tesselate>0</tesselate>
      <altitudeMode>relativeToGround</altitudeMode>
      <coordinates>8.16687, 46.4414,20</coordinates>
    </Point>
  </Placemark><Placemark>
    <name>Fürgangen LFüB</name>
    <Style><LineStyle><width>2</width></LineStyle></Style>
    <Point>
      <extrude>1</extrude>
      <tesselate>0</tesselate>
      <altitudeMode>relativeToGround</altitudeMode>
      <coordinates>8.15232, 46.4119,20</coordinates>
    </Point>
  </Placemark><Placemark>
    <name>Bellwald LFüB</name>
    <Style><LineStyle><width>2</width></LineStyle></Style>
    <Point>
      <extrude>1</extrude>
      <tesselate>0</tesselate>
      <altitudeMode>relativeToGround</altitudeMode>
      <coordinates>8.16066, 46.423,20</coordinates>
    </Point>
  </Placemark><Placemark>
    <name>Steibenkreuz</name>
    <Style><LineStyle><width>2</width></LineStyle></Style>
    <Point>
      <extrude>1</extrude>
      <tesselate>0</tesselate>
      <altitudeMode>relativeToGround</altitudeMode>
      <coordinates>8.16397, 46.4499,20</coordinates>
    </Point>
  </Placemark><Placemark>
    <name>Fiesch FE</name>
    <Style><LineStyle><width>2</width></LineStyle></Style>
    <Point>
      <extrude>1</extrude>
      <tesselate>0</tesselate>
      <altitudeMode>relativeToGround</altitudeMode>
      <coordinates>8.13671, 46.4051,20</coordinates>
    </Point>
  </Placemark><Placemark>
    <name>Niederwald</name>
    <Style><LineStyle><width>2</width></LineStyle></Style>
    <Point>
      <extrude>1</extrude>
      <tesselate>0</tesselate>
      <altitudeMode>relativeToGround</altitudeMode>
      <coordinates>8.19039, 46.4352,20</coordinates>
    </Point>
  </Placemark><Placemark>
    <name>Fürgangen-Bellwald</name>
    <Style><LineStyle><width>2</width></LineStyle></Style>
    <Point>
      <extrude>1</extrude>
      <tesselate>0</tesselate>
      <altitudeMode>relativeToGround</altitudeMode>
      <coordinates>8.15242, 46.4119,20</coordinates>
    </Point>
  </Placemark><Placemark>
    <name>Fiesch</name>
    <Style><LineStyle><width>2</width></LineStyle></Style>
    <Point>
      <extrude>1</extrude>
      <tesselate>0</tesselate>
      <altitudeMode>relativeToGround</altitudeMode>
      <coordinates>8.13263, 46.403,20</coordinates>
    </Point>
  </Placemark><Placemark>
    <name>Fiescheralp</name>
    <Style><LineStyle><width>2</width></LineStyle></Style>
    <Point>
      <extrude>1</extrude>
      <tesselate>0</tesselate>
      <altitudeMode>relativeToGround</altitudeMode>
      <coordinates>8.10339, 46.413,20</coordinates>
    </Point>
  </Placemark><Placemark>
    <name>Eggishorn</name>
    <Style><LineStyle><width>2</width></LineStyle></Style>
    <Point>
      <extrude>1</extrude>
      <tesselate>0</tesselate>
      <altitudeMode>relativeToGround</altitudeMode>
      <coordinates>8.09341, 46.4271,20</coordinates>
    </Point>
  </Placemark></Document>
</kml>
