<kml>
<Document>

<Region>
<LatLonAltBox>
<north>46.266550</north><south>46.200306</south><east>7.163161</east><west>7.010890</west>
<minAltitude>0.000000</minAltitude><maxAltitude>0.000000</maxAltitude>
</LatLonAltBox>
<minLodPixels>2048</minLodPixels><maxLodPixels>1000000000</maxLodPixels>
<minFadeExtent>0</minFadeExtent><maxFadeExtent>0</maxFadeExtent>
</Region>
<Placemark>
    <name>Lavey-les-Bains, Et. Thermal</name>
    <Style><LineStyle><width>2</width></LineStyle></Style>
    <Point>
      <extrude>1</extrude>
      <tesselate>0</tesselate>
      <altitudeMode>relativeToGround</altitudeMode>
      <coordinates>7.01336, 46.203,20</coordinates>
    </Point>
  </Placemark><Placemark>
    <name>Lavey-les-Bains, place</name>
    <Style><LineStyle><width>2</width></LineStyle></Style>
    <Point>
      <extrude>1</extrude>
      <tesselate>0</tesselate>
      <altitudeMode>relativeToGround</altitudeMode>
      <coordinates>7.01658, 46.2053,20</coordinates>
    </Point>
  </Placemark><Placemark>
    <name>Fenalet-sur-Bex, Le Chêne</name>
    <Style><LineStyle><width>2</width></LineStyle></Style>
    <Point>
      <extrude>1</extrude>
      <tesselate>0</tesselate>
      <altitudeMode>relativeToGround</altitudeMode>
      <coordinates>7.02746, 46.266,20</coordinates>
    </Point>
  </Placemark><Placemark>
    <name>Bex, rte des Monts bif.</name>
    <Style><LineStyle><width>2</width></LineStyle></Style>
    <Point>
      <extrude>1</extrude>
      <tesselate>0</tesselate>
      <altitudeMode>relativeToGround</altitudeMode>
      <coordinates>7.03655, 46.2649,20</coordinates>
    </Point>
  </Placemark><Placemark>
    <name>Le Bévieux</name>
    <Style><LineStyle><width>2</width></LineStyle></Style>
    <Point>
      <extrude>1</extrude>
      <tesselate>0</tesselate>
      <altitudeMode>relativeToGround</altitudeMode>
      <coordinates>7.03077, 46.2581,20</coordinates>
    </Point>
  </Placemark><Placemark>
    <name>Fenalet-sur-Bex, Les Luisances</name>
    <Style><LineStyle><width>2</width></LineStyle></Style>
    <Point>
      <extrude>1</extrude>
      <tesselate>0</tesselate>
      <altitudeMode>relativeToGround</altitudeMode>
      <coordinates>7.0291, 46.2637,20</coordinates>
    </Point>
  </Placemark><Placemark>
    <name>Les Plans-sur-Bex, le Chamois</name>
    <Style><LineStyle><width>2</width></LineStyle></Style>
    <Point>
      <extrude>1</extrude>
      <tesselate>0</tesselate>
      <altitudeMode>relativeToGround</altitudeMode>
      <coordinates>7.09077, 46.2549,20</coordinates>
    </Point>
  </Placemark><Placemark>
    <name>Bex, Les Véneresses</name>
    <Style><LineStyle><width>2</width></LineStyle></Style>
    <Point>
      <extrude>1</extrude>
      <tesselate>0</tesselate>
      <altitudeMode>relativeToGround</altitudeMode>
      <coordinates>7.05828, 46.2638,20</coordinates>
    </Point>
  </Placemark><Placemark>
    <name>Lavey, Front Bastionné</name>
    <Style><LineStyle><width>2</width></LineStyle></Style>
    <Point>
      <extrude>1</extrude>
      <tesselate>0</tesselate>
      <altitudeMode>relativeToGround</altitudeMode>
      <coordinates>7.01429, 46.2084,20</coordinates>
    </Point>
  </Placemark><Placemark>
    <name>Les Plans-sur-Bex, poste</name>
    <Style><LineStyle><width>2</width></LineStyle></Style>
    <Point>
      <extrude>1</extrude>
      <tesselate>0</tesselate>
      <altitudeMode>relativeToGround</altitudeMode>
      <coordinates>7.09399, 46.2572,20</coordinates>
    </Point>
  </Placemark><Placemark>
    <name>Bex-Place-du-Marché</name>
    <Style><LineStyle><width>2</width></LineStyle></Style>
    <Point>
      <extrude>1</extrude>
      <tesselate>0</tesselate>
      <altitudeMode>relativeToGround</altitudeMode>
      <coordinates>7.0126, 46.2513,20</coordinates>
    </Point>
  </Placemark><Placemark>
    <name>Bévieux</name>
    <Style><LineStyle><width>2</width></LineStyle></Style>
    <Point>
      <extrude>1</extrude>
      <tesselate>0</tesselate>
      <altitudeMode>relativeToGround</altitudeMode>
      <coordinates>7.03088, 46.259,20</coordinates>
    </Point>
  </Placemark><Placemark>
    <name>Bex Pont-Neuf</name>
    <Style><LineStyle><width>2</width></LineStyle></Style>
    <Point>
      <extrude>1</extrude>
      <tesselate>0</tesselate>
      <altitudeMode>relativeToGround</altitudeMode>
      <coordinates>7.02378, 46.2527,20</coordinates>
    </Point>
  </Placemark><Placemark>
    <name>Foyer Dents-du-Midi TPC-bvb</name>
    <Style><LineStyle><width>2</width></LineStyle></Style>
    <Point>
      <extrude>1</extrude>
      <tesselate>0</tesselate>
      <altitudeMode>relativeToGround</altitudeMode>
      <coordinates>7.02984, 46.2564,20</coordinates>
    </Point>
  </Placemark></Document>
</kml>
