<kml>
<Document>

<Region>
<LatLonAltBox>
<north>46.266550</north><south>46.134062</south><east>7.315433</east><west>7.010890</west>
<minAltitude>0.000000</minAltitude><maxAltitude>0.000000</maxAltitude>
</LatLonAltBox>
<minLodPixels>2048</minLodPixels><maxLodPixels>1000000000</maxLodPixels>
<minFadeExtent>0</minFadeExtent><maxFadeExtent>0</maxFadeExtent>
</Region>
<NetworkLink>
<name>023000</name>

<Region>
<LatLonAltBox>
<north>46.266550</north><south>46.200306</south><east>7.163161</east><west>7.010890</west>
<minAltitude>0.000000</minAltitude><maxAltitude>0.000000</maxAltitude>
</LatLonAltBox>
<minLodPixels>256</minLodPixels><maxLodPixels>1000000000</maxLodPixels>
<minFadeExtent>0</minFadeExtent><maxFadeExtent>0</maxFadeExtent>
</Region>
<Link>
<href>023000.kml</href><viewRefreshMode>onRegion</viewRefreshMode></Link>
</NetworkLink>
<NetworkLink>
<name>023001</name>

<Region>
<LatLonAltBox>
<north>46.266550</north><south>46.200306</south><east>7.315433</east><west>7.163161</west>
<minAltitude>0.000000</minAltitude><maxAltitude>0.000000</maxAltitude>
</LatLonAltBox>
<minLodPixels>256</minLodPixels><maxLodPixels>1000000000</maxLodPixels>
<minFadeExtent>0</minFadeExtent><maxFadeExtent>0</maxFadeExtent>
</Region>
<Link>
<href>023001.kml</href><viewRefreshMode>onRegion</viewRefreshMode></Link>
</NetworkLink>
<NetworkLink>
<name>023002</name>

<Region>
<LatLonAltBox>
<north>46.200306</north><south>46.134062</south><east>7.163161</east><west>7.010890</west>
<minAltitude>0.000000</minAltitude><maxAltitude>0.000000</maxAltitude>
</LatLonAltBox>
<minLodPixels>256</minLodPixels><maxLodPixels>1000000000</maxLodPixels>
<minFadeExtent>0</minFadeExtent><maxFadeExtent>0</maxFadeExtent>
</Region>
<Link>
<href>023002.kml</href><viewRefreshMode>onRegion</viewRefreshMode></Link>
</NetworkLink>
<NetworkLink>
<name>023003</name>

<Region>
<LatLonAltBox>
<north>46.200306</north><south>46.134062</south><east>7.315433</east><west>7.163161</west>
<minAltitude>0.000000</minAltitude><maxAltitude>0.000000</maxAltitude>
</LatLonAltBox>
<minLodPixels>256</minLodPixels><maxLodPixels>1000000000</maxLodPixels>
<minFadeExtent>0</minFadeExtent><maxFadeExtent>0</maxFadeExtent>
</Region>
<Link>
<href>023003.kml</href><viewRefreshMode>onRegion</viewRefreshMode></Link>
</NetworkLink>
<Placemark>
    <name>Mayens-de-Chamoson,Prili-Plane</name>
    <Style><LineStyle><width>2</width></LineStyle></Style>
    <Point>
      <extrude>1</extrude>
      <tesselate>0</tesselate>
      <altitudeMode>relativeToGround</altitudeMode>
      <coordinates>7.18568, 46.2069,20</coordinates>
    </Point>
  </Placemark><Placemark>
    <name>Mayens-de-Chamoson, Ravoire</name>
    <Style><LineStyle><width>2</width></LineStyle></Style>
    <Point>
      <extrude>1</extrude>
      <tesselate>0</tesselate>
      <altitudeMode>relativeToGround</altitudeMode>
      <coordinates>7.19319, 46.2058,20</coordinates>
    </Point>
  </Placemark><Placemark>
    <name>Haute-Nendaz, Chalet Dardel</name>
    <Style><LineStyle><width>2</width></LineStyle></Style>
    <Point>
      <extrude>1</extrude>
      <tesselate>0</tesselate>
      <altitudeMode>relativeToGround</altitudeMode>
      <coordinates>7.31284, 46.1785,20</coordinates>
    </Point>
  </Placemark><Placemark>
    <name>Haute-Nendaz, bif. Pattier</name>
    <Style><LineStyle><width>2</width></LineStyle></Style>
    <Point>
      <extrude>1</extrude>
      <tesselate>0</tesselate>
      <altitudeMode>relativeToGround</altitudeMode>
      <coordinates>7.30437, 46.1808,20</coordinates>
    </Point>
  </Placemark><Placemark>
    <name>Bex, Servanne</name>
    <Style><LineStyle><width>2</width></LineStyle></Style>
    <Point>
      <extrude>1</extrude>
      <tesselate>0</tesselate>
      <altitudeMode>relativeToGround</altitudeMode>
      <coordinates>7.01338, 46.2505,20</coordinates>
    </Point>
  </Placemark><Placemark>
    <name>St-Maurice VS, cantine</name>
    <Style><LineStyle><width>2</width></LineStyle></Style>
    <Point>
      <extrude>1</extrude>
      <tesselate>0</tesselate>
      <altitudeMode>relativeToGround</altitudeMode>
      <coordinates>7.01517, 46.197,20</coordinates>
    </Point>
  </Placemark><Placemark>
    <name>Mazembroz</name>
    <Style><LineStyle><width>2</width></LineStyle></Style>
    <Point>
      <extrude>1</extrude>
      <tesselate>0</tesselate>
      <altitudeMode>relativeToGround</altitudeMode>
      <coordinates>7.13972, 46.1499,20</coordinates>
    </Point>
  </Placemark><Placemark>
    <name>Mayens-de-Chamoson, Chapelle</name>
    <Style><LineStyle><width>2</width></LineStyle></Style>
    <Point>
      <extrude>1</extrude>
      <tesselate>0</tesselate>
      <altitudeMode>relativeToGround</altitudeMode>
      <coordinates>7.18108, 46.206,20</coordinates>
    </Point>
  </Placemark><Placemark>
    <name>Chamoson, église</name>
    <Style><LineStyle><width>2</width></LineStyle></Style>
    <Point>
      <extrude>1</extrude>
      <tesselate>0</tesselate>
      <altitudeMode>relativeToGround</altitudeMode>
      <coordinates>7.22568, 46.2017,20</coordinates>
    </Point>
  </Placemark><Placemark>
    <name>St-Pierre-de-Clages, école</name>
    <Style><LineStyle><width>2</width></LineStyle></Style>
    <Point>
      <extrude>1</extrude>
      <tesselate>0</tesselate>
      <altitudeMode>relativeToGround</altitudeMode>
      <coordinates>7.23524, 46.193,20</coordinates>
    </Point>
  </Placemark><Placemark>
    <name>Ardon, poste</name>
    <Style><LineStyle><width>2</width></LineStyle></Style>
    <Point>
      <extrude>1</extrude>
      <tesselate>0</tesselate>
      <altitudeMode>relativeToGround</altitudeMode>
      <coordinates>7.25802, 46.2116,20</coordinates>
    </Point>
  </Placemark><Placemark>
    <name>Haute-Nendaz, station/poste</name>
    <Style><LineStyle><width>2</width></LineStyle></Style>
    <Point>
      <extrude>1</extrude>
      <tesselate>0</tesselate>
      <altitudeMode>relativeToGround</altitudeMode>
      <coordinates>7.29452, 46.1815,20</coordinates>
    </Point>
  </Placemark><Placemark>
    <name>Isérables</name>
    <Style><LineStyle><width>2</width></LineStyle></Style>
    <Point>
      <extrude>1</extrude>
      <tesselate>0</tesselate>
      <altitudeMode>relativeToGround</altitudeMode>
      <coordinates>7.24397, 46.1643,20</coordinates>
    </Point>
  </Placemark><Placemark>
    <name>Isérables, téléphérique</name>
    <Style><LineStyle><width>2</width></LineStyle></Style>
    <Point>
      <extrude>1</extrude>
      <tesselate>0</tesselate>
      <altitudeMode>relativeToGround</altitudeMode>
      <coordinates>7.24379, 46.1642,20</coordinates>
    </Point>
  </Placemark><Placemark>
    <name>La Tzoumaz, télécabine</name>
    <Style><LineStyle><width>2</width></LineStyle></Style>
    <Point>
      <extrude>1</extrude>
      <tesselate>0</tesselate>
      <altitudeMode>relativeToGround</altitudeMode>
      <coordinates>7.23314, 46.145,20</coordinates>
    </Point>
  </Placemark><Placemark>
    <name>Riddes, Rosselin (bifurcation)</name>
    <Style><LineStyle><width>2</width></LineStyle></Style>
    <Point>
      <extrude>1</extrude>
      <tesselate>0</tesselate>
      <altitudeMode>relativeToGround</altitudeMode>
      <coordinates>7.22956, 46.1608,20</coordinates>
    </Point>
  </Placemark><Placemark>
    <name>Isérables, parc</name>
    <Style><LineStyle><width>2</width></LineStyle></Style>
    <Point>
      <extrude>1</extrude>
      <tesselate>0</tesselate>
      <altitudeMode>relativeToGround</altitudeMode>
      <coordinates>7.24518, 46.1601,20</coordinates>
    </Point>
  </Placemark><Placemark>
    <name>Riddes TRI</name>
    <Style><LineStyle><width>2</width></LineStyle></Style>
    <Point>
      <extrude>1</extrude>
      <tesselate>0</tesselate>
      <altitudeMode>relativeToGround</altitudeMode>
      <coordinates>7.22148, 46.1711,20</coordinates>
    </Point>
  </Placemark><Placemark>
    <name>Pont-de-la-Morge, centre</name>
    <Style><LineStyle><width>2</width></LineStyle></Style>
    <Point>
      <extrude>1</extrude>
      <tesselate>0</tesselate>
      <altitudeMode>relativeToGround</altitudeMode>
      <coordinates>7.31384, 46.2247,20</coordinates>
    </Point>
  </Placemark><Placemark>
    <name>Conthey, bif. Conthey-Plan</name>
    <Style><LineStyle><width>2</width></LineStyle></Style>
    <Point>
      <extrude>1</extrude>
      <tesselate>0</tesselate>
      <altitudeMode>relativeToGround</altitudeMode>
      <coordinates>7.30292, 46.2241,20</coordinates>
    </Point>
  </Placemark><Placemark>
    <name>La Tzoumaz, Villy</name>
    <Style><LineStyle><width>2</width></LineStyle></Style>
    <Point>
      <extrude>1</extrude>
      <tesselate>0</tesselate>
      <altitudeMode>relativeToGround</altitudeMode>
      <coordinates>7.23028, 46.1541,20</coordinates>
    </Point>
  </Placemark><Placemark>
    <name>Riddes, Pré de foire</name>
    <Style><LineStyle><width>2</width></LineStyle></Style>
    <Point>
      <extrude>1</extrude>
      <tesselate>0</tesselate>
      <altitudeMode>relativeToGround</altitudeMode>
      <coordinates>7.22098, 46.171,20</coordinates>
    </Point>
  </Placemark><Placemark>
    <name>La Ruaz TPC-bvb</name>
    <Style><LineStyle><width>2</width></LineStyle></Style>
    <Point>
      <extrude>1</extrude>
      <tesselate>0</tesselate>
      <altitudeMode>relativeToGround</altitudeMode>
      <coordinates>7.0126, 46.2513,20</coordinates>
    </Point>
  </Placemark><Placemark>
    <name>Dorénaz, école</name>
    <Style><LineStyle><width>2</width></LineStyle></Style>
    <Point>
      <extrude>1</extrude>
      <tesselate>0</tesselate>
      <altitudeMode>relativeToGround</altitudeMode>
      <coordinates>7.04254, 46.1489,20</coordinates>
    </Point>
  </Placemark><Placemark>
    <name>Conthey, Bourg</name>
    <Style><LineStyle><width>2</width></LineStyle></Style>
    <Point>
      <extrude>1</extrude>
      <tesselate>0</tesselate>
      <altitudeMode>relativeToGround</altitudeMode>
      <coordinates>7.30283, 46.2325,20</coordinates>
    </Point>
  </Placemark><Placemark>
    <name>Vens (Conthey)</name>
    <Style><LineStyle><width>2</width></LineStyle></Style>
    <Point>
      <extrude>1</extrude>
      <tesselate>0</tesselate>
      <altitudeMode>relativeToGround</altitudeMode>
      <coordinates>7.31037, 46.2336,20</coordinates>
    </Point>
  </Placemark><Placemark>
    <name>Conthey, Cave Provins</name>
    <Style><LineStyle><width>2</width></LineStyle></Style>
    <Point>
      <extrude>1</extrude>
      <tesselate>0</tesselate>
      <altitudeMode>relativeToGround</altitudeMode>
      <coordinates>7.31163, 46.2299,20</coordinates>
    </Point>
  </Placemark><Placemark>
    <name>Erde, Madouc</name>
    <Style><LineStyle><width>2</width></LineStyle></Style>
    <Point>
      <extrude>1</extrude>
      <tesselate>0</tesselate>
      <altitudeMode>relativeToGround</altitudeMode>
      <coordinates>7.25236, 46.249,20</coordinates>
    </Point>
  </Placemark><Placemark>
    <name>Aven, village</name>
    <Style><LineStyle><width>2</width></LineStyle></Style>
    <Point>
      <extrude>1</extrude>
      <tesselate>0</tesselate>
      <altitudeMode>relativeToGround</altitudeMode>
      <coordinates>7.27116, 46.2358,20</coordinates>
    </Point>
  </Placemark><Placemark>
    <name>St-Séverin, Sensine</name>
    <Style><LineStyle><width>2</width></LineStyle></Style>
    <Point>
      <extrude>1</extrude>
      <tesselate>0</tesselate>
      <altitudeMode>relativeToGround</altitudeMode>
      <coordinates>7.3064, 46.2413,20</coordinates>
    </Point>
  </Placemark><Placemark>
    <name>St-Séverin, poste</name>
    <Style><LineStyle><width>2</width></LineStyle></Style>
    <Point>
      <extrude>1</extrude>
      <tesselate>0</tesselate>
      <altitudeMode>relativeToGround</altitudeMode>
      <coordinates>7.30508, 46.2346,20</coordinates>
    </Point>
  </Placemark><Placemark>
    <name>Leytron, anc. poste</name>
    <Style><LineStyle><width>2</width></LineStyle></Style>
    <Point>
      <extrude>1</extrude>
      <tesselate>0</tesselate>
      <altitudeMode>relativeToGround</altitudeMode>
      <coordinates>7.20793, 46.1852,20</coordinates>
    </Point>
  </Placemark><Placemark>
    <name>Basse-Nendaz, village</name>
    <Style><LineStyle><width>2</width></LineStyle></Style>
    <Point>
      <extrude>1</extrude>
      <tesselate>0</tesselate>
      <altitudeMode>relativeToGround</altitudeMode>
      <coordinates>7.31365, 46.1875,20</coordinates>
    </Point>
  </Placemark><Placemark>
    <name>Isérables, Auddes</name>
    <Style><LineStyle><width>2</width></LineStyle></Style>
    <Point>
      <extrude>1</extrude>
      <tesselate>0</tesselate>
      <altitudeMode>relativeToGround</altitudeMode>
      <coordinates>7.24383, 46.1543,20</coordinates>
    </Point>
  </Placemark><Placemark>
    <name>Chamoson</name>
    <Style><LineStyle><width>2</width></LineStyle></Style>
    <Point>
      <extrude>1</extrude>
      <tesselate>0</tesselate>
      <altitudeMode>relativeToGround</altitudeMode>
      <coordinates>7.24109, 46.1888,20</coordinates>
    </Point>
  </Placemark><Placemark>
    <name>Ardon</name>
    <Style><LineStyle><width>2</width></LineStyle></Style>
    <Point>
      <extrude>1</extrude>
      <tesselate>0</tesselate>
      <altitudeMode>relativeToGround</altitudeMode>
      <coordinates>7.27093, 46.2086,20</coordinates>
    </Point>
  </Placemark><Placemark>
    <name>Saxon</name>
    <Style><LineStyle><width>2</width></LineStyle></Style>
    <Point>
      <extrude>1</extrude>
      <tesselate>0</tesselate>
      <altitudeMode>relativeToGround</altitudeMode>
      <coordinates>7.17342, 46.1494,20</coordinates>
    </Point>
  </Placemark><Placemark>
    <name>Riddes</name>
    <Style><LineStyle><width>2</width></LineStyle></Style>
    <Point>
      <extrude>1</extrude>
      <tesselate>0</tesselate>
      <altitudeMode>relativeToGround</altitudeMode>
      <coordinates>7.21784, 46.1725,20</coordinates>
    </Point>
  </Placemark><Placemark>
    <name>Erde, poste</name>
    <Style><LineStyle><width>2</width></LineStyle></Style>
    <Point>
      <extrude>1</extrude>
      <tesselate>0</tesselate>
      <altitudeMode>relativeToGround</altitudeMode>
      <coordinates>7.29283, 46.2375,20</coordinates>
    </Point>
  </Placemark><Placemark>
    <name>Riddes, gare</name>
    <Style><LineStyle><width>2</width></LineStyle></Style>
    <Point>
      <extrude>1</extrude>
      <tesselate>0</tesselate>
      <altitudeMode>relativeToGround</altitudeMode>
      <coordinates>7.21812, 46.1726,20</coordinates>
    </Point>
  </Placemark><Placemark>
    <name>Saillon, St-Laurent</name>
    <Style><LineStyle><width>2</width></LineStyle></Style>
    <Point>
      <extrude>1</extrude>
      <tesselate>0</tesselate>
      <altitudeMode>relativeToGround</altitudeMode>
      <coordinates>7.1957, 46.1778,20</coordinates>
    </Point>
  </Placemark><Placemark>
    <name>Saillon, le Canal</name>
    <Style><LineStyle><width>2</width></LineStyle></Style>
    <Point>
      <extrude>1</extrude>
      <tesselate>0</tesselate>
      <altitudeMode>relativeToGround</altitudeMode>
      <coordinates>7.19172, 46.1762,20</coordinates>
    </Point>
  </Placemark><Placemark>
    <name>Saillon, les Moilles</name>
    <Style><LineStyle><width>2</width></LineStyle></Style>
    <Point>
      <extrude>1</extrude>
      <tesselate>0</tesselate>
      <altitudeMode>relativeToGround</altitudeMode>
      <coordinates>7.1831, 46.1689,20</coordinates>
    </Point>
  </Placemark><Placemark>
    <name>Dugny</name>
    <Style><LineStyle><width>2</width></LineStyle></Style>
    <Point>
      <extrude>1</extrude>
      <tesselate>0</tesselate>
      <altitudeMode>relativeToGround</altitudeMode>
      <coordinates>7.18261, 46.189,20</coordinates>
    </Point>
  </Placemark><Placemark>
    <name>Morthey, En Rion</name>
    <Style><LineStyle><width>2</width></LineStyle></Style>
    <Point>
      <extrude>1</extrude>
      <tesselate>0</tesselate>
      <altitudeMode>relativeToGround</altitudeMode>
      <coordinates>7.17755, 46.1937,20</coordinates>
    </Point>
  </Placemark><Placemark>
    <name>Evionnaz, Labyrinthe</name>
    <Style><LineStyle><width>2</width></LineStyle></Style>
    <Point>
      <extrude>1</extrude>
      <tesselate>0</tesselate>
      <altitudeMode>relativeToGround</altitudeMode>
      <coordinates>7.02983, 46.1644,20</coordinates>
    </Point>
  </Placemark><Placemark>
    <name>Conthey, centre commercial</name>
    <Style><LineStyle><width>2</width></LineStyle></Style>
    <Point>
      <extrude>1</extrude>
      <tesselate>0</tesselate>
      <altitudeMode>relativeToGround</altitudeMode>
      <coordinates>7.29631, 46.2248,20</coordinates>
    </Point>
  </Placemark><Placemark>
    <name>Saxé, Café des Amis</name>
    <Style><LineStyle><width>2</width></LineStyle></Style>
    <Point>
      <extrude>1</extrude>
      <tesselate>0</tesselate>
      <altitudeMode>relativeToGround</altitudeMode>
      <coordinates>7.13605, 46.1484,20</coordinates>
    </Point>
  </Placemark><Placemark>
    <name>Fully, poste</name>
    <Style><LineStyle><width>2</width></LineStyle></Style>
    <Point>
      <extrude>1</extrude>
      <tesselate>0</tesselate>
      <altitudeMode>relativeToGround</altitudeMode>
      <coordinates>7.11651, 46.1369,20</coordinates>
    </Point>
  </Placemark></Document>
</kml>
