<kml>
<Document>

<Region>
<LatLonAltBox>
<north>46.134062</north><south>46.001575</south><east>7.315433</east><west>7.010890</west>
<minAltitude>0.000000</minAltitude><maxAltitude>0.000000</maxAltitude>
</LatLonAltBox>
<minLodPixels>2048</minLodPixels><maxLodPixels>1000000000</maxLodPixels>
<minFadeExtent>0</minFadeExtent><maxFadeExtent>0</maxFadeExtent>
</Region>
<NetworkLink>
<name>023020</name>

<Region>
<LatLonAltBox>
<north>46.134062</north><south>46.067819</south><east>7.163161</east><west>7.010890</west>
<minAltitude>0.000000</minAltitude><maxAltitude>0.000000</maxAltitude>
</LatLonAltBox>
<minLodPixels>256</minLodPixels><maxLodPixels>1000000000</maxLodPixels>
<minFadeExtent>0</minFadeExtent><maxFadeExtent>0</maxFadeExtent>
</Region>
<Link>
<href>023020.kml</href><viewRefreshMode>onRegion</viewRefreshMode></Link>
</NetworkLink>
<NetworkLink>
<name>023021</name>

<Region>
<LatLonAltBox>
<north>46.134062</north><south>46.067819</south><east>7.315433</east><west>7.163161</west>
<minAltitude>0.000000</minAltitude><maxAltitude>0.000000</maxAltitude>
</LatLonAltBox>
<minLodPixels>256</minLodPixels><maxLodPixels>1000000000</maxLodPixels>
<minFadeExtent>0</minFadeExtent><maxFadeExtent>0</maxFadeExtent>
</Region>
<Link>
<href>023021.kml</href><viewRefreshMode>onRegion</viewRefreshMode></Link>
</NetworkLink>
<NetworkLink>
<name>023022</name>

<Region>
<LatLonAltBox>
<north>46.067819</north><south>46.001575</south><east>7.163161</east><west>7.010890</west>
<minAltitude>0.000000</minAltitude><maxAltitude>0.000000</maxAltitude>
</LatLonAltBox>
<minLodPixels>256</minLodPixels><maxLodPixels>1000000000</maxLodPixels>
<minFadeExtent>0</minFadeExtent><maxFadeExtent>0</maxFadeExtent>
</Region>
<Link>
<href>023022.kml</href><viewRefreshMode>onRegion</viewRefreshMode></Link>
</NetworkLink>
<NetworkLink>
<name>023023</name>

<Region>
<LatLonAltBox>
<north>46.067819</north><south>46.001575</south><east>7.315433</east><west>7.163161</west>
<minAltitude>0.000000</minAltitude><maxAltitude>0.000000</maxAltitude>
</LatLonAltBox>
<minLodPixels>256</minLodPixels><maxLodPixels>1000000000</maxLodPixels>
<minFadeExtent>0</minFadeExtent><maxFadeExtent>0</maxFadeExtent>
</Region>
<Link>
<href>023023.kml</href><viewRefreshMode>onRegion</viewRefreshMode></Link>
</NetworkLink>
<Placemark>
    <name>Ravoire, colonie</name>
    <Style><LineStyle><width>2</width></LineStyle></Style>
    <Point>
      <extrude>1</extrude>
      <tesselate>0</tesselate>
      <altitudeMode>relativeToGround</altitudeMode>
      <coordinates>7.04666, 46.0969,20</coordinates>
    </Point>
  </Placemark><Placemark>
    <name>Etiez</name>
    <Style><LineStyle><width>2</width></LineStyle></Style>
    <Point>
      <extrude>1</extrude>
      <tesselate>0</tesselate>
      <altitudeMode>relativeToGround</altitudeMode>
      <coordinates>7.16255, 46.0828,20</coordinates>
    </Point>
  </Placemark><Placemark>
    <name>Branson, Pont du Rhône</name>
    <Style><LineStyle><width>2</width></LineStyle></Style>
    <Point>
      <extrude>1</extrude>
      <tesselate>0</tesselate>
      <altitudeMode>relativeToGround</altitudeMode>
      <coordinates>7.08552, 46.1244,20</coordinates>
    </Point>
  </Placemark><Placemark>
    <name>Verbier, Savoleyres</name>
    <Style><LineStyle><width>2</width></LineStyle></Style>
    <Point>
      <extrude>1</extrude>
      <tesselate>0</tesselate>
      <altitudeMode>relativeToGround</altitudeMode>
      <coordinates>7.22493, 46.1035,20</coordinates>
    </Point>
  </Placemark><Placemark>
    <name>Le Châble VS, poste</name>
    <Style><LineStyle><width>2</width></LineStyle></Style>
    <Point>
      <extrude>1</extrude>
      <tesselate>0</tesselate>
      <altitudeMode>relativeToGround</altitudeMode>
      <coordinates>7.21436, 46.0805,20</coordinates>
    </Point>
  </Placemark><Placemark>
    <name>Verbier, Médran</name>
    <Style><LineStyle><width>2</width></LineStyle></Style>
    <Point>
      <extrude>1</extrude>
      <tesselate>0</tesselate>
      <altitudeMode>relativeToGround</altitudeMode>
      <coordinates>7.23305, 46.0936,20</coordinates>
    </Point>
  </Placemark><Placemark>
    <name>Lourtier, Le Mayen-du-Revers</name>
    <Style><LineStyle><width>2</width></LineStyle></Style>
    <Point>
      <extrude>1</extrude>
      <tesselate>0</tesselate>
      <altitudeMode>relativeToGround</altitudeMode>
      <coordinates>7.29511, 46.034,20</coordinates>
    </Point>
  </Placemark><Placemark>
    <name>Dorénaz, Les Follatères</name>
    <Style><LineStyle><width>2</width></LineStyle></Style>
    <Point>
      <extrude>1</extrude>
      <tesselate>0</tesselate>
      <altitudeMode>relativeToGround</altitudeMode>
      <coordinates>7.06769, 46.1229,20</coordinates>
    </Point>
  </Placemark><Placemark>
    <name>Martigny, gare</name>
    <Style><LineStyle><width>2</width></LineStyle></Style>
    <Point>
      <extrude>1</extrude>
      <tesselate>0</tesselate>
      <altitudeMode>relativeToGround</altitudeMode>
      <coordinates>7.07934, 46.1055,20</coordinates>
    </Point>
  </Placemark><Placemark>
    <name>Martigny-Ville, poste</name>
    <Style><LineStyle><width>2</width></LineStyle></Style>
    <Point>
      <extrude>1</extrude>
      <tesselate>0</tesselate>
      <altitudeMode>relativeToGround</altitudeMode>
      <coordinates>7.07628, 46.1031,20</coordinates>
    </Point>
  </Placemark><Placemark>
    <name>Martigny, Fond. Gianadda</name>
    <Style><LineStyle><width>2</width></LineStyle></Style>
    <Point>
      <extrude>1</extrude>
      <tesselate>0</tesselate>
      <altitudeMode>relativeToGround</altitudeMode>
      <coordinates>7.06912, 46.097,20</coordinates>
    </Point>
  </Placemark><Placemark>
    <name>Martigny-Bourg, poste</name>
    <Style><LineStyle><width>2</width></LineStyle></Style>
    <Point>
      <extrude>1</extrude>
      <tesselate>0</tesselate>
      <altitudeMode>relativeToGround</altitudeMode>
      <coordinates>7.06487, 46.092,20</coordinates>
    </Point>
  </Placemark><Placemark>
    <name>Martigny-Croix, poste</name>
    <Style><LineStyle><width>2</width></LineStyle></Style>
    <Point>
      <extrude>1</extrude>
      <tesselate>0</tesselate>
      <altitudeMode>relativeToGround</altitudeMode>
      <coordinates>7.05594, 46.0866,20</coordinates>
    </Point>
  </Placemark><Placemark>
    <name>Le Brocard</name>
    <Style><LineStyle><width>2</width></LineStyle></Style>
    <Point>
      <extrude>1</extrude>
      <tesselate>0</tesselate>
      <altitudeMode>relativeToGround</altitudeMode>
      <coordinates>7.05161, 46.0773,20</coordinates>
    </Point>
  </Placemark><Placemark>
    <name>Les Rappes VS</name>
    <Style><LineStyle><width>2</width></LineStyle></Style>
    <Point>
      <extrude>1</extrude>
      <tesselate>0</tesselate>
      <altitudeMode>relativeToGround</altitudeMode>
      <coordinates>7.04728, 46.082,20</coordinates>
    </Point>
  </Placemark><Placemark>
    <name>Martigny-Combe,Pied-du-Château</name>
    <Style><LineStyle><width>2</width></LineStyle></Style>
    <Point>
      <extrude>1</extrude>
      <tesselate>0</tesselate>
      <altitudeMode>relativeToGround</altitudeMode>
      <coordinates>7.04416, 46.0808,20</coordinates>
    </Point>
  </Placemark><Placemark>
    <name>La Fontaine, hameau</name>
    <Style><LineStyle><width>2</width></LineStyle></Style>
    <Point>
      <extrude>1</extrude>
      <tesselate>0</tesselate>
      <altitudeMode>relativeToGround</altitudeMode>
      <coordinates>7.03954, 46.0796,20</coordinates>
    </Point>
  </Placemark><Placemark>
    <name>Le Cergneux</name>
    <Style><LineStyle><width>2</width></LineStyle></Style>
    <Point>
      <extrude>1</extrude>
      <tesselate>0</tesselate>
      <altitudeMode>relativeToGround</altitudeMode>
      <coordinates>7.03567, 46.0784,20</coordinates>
    </Point>
  </Placemark><Placemark>
    <name>Le Fays, bif.</name>
    <Style><LineStyle><width>2</width></LineStyle></Style>
    <Point>
      <extrude>1</extrude>
      <tesselate>0</tesselate>
      <altitudeMode>relativeToGround</altitudeMode>
      <coordinates>7.02883, 46.0761,20</coordinates>
    </Point>
  </Placemark><Placemark>
    <name>Martigny</name>
    <Style><LineStyle><width>2</width></LineStyle></Style>
    <Point>
      <extrude>1</extrude>
      <tesselate>0</tesselate>
      <altitudeMode>relativeToGround</altitudeMode>
      <coordinates>7.07911, 46.1058,20</coordinates>
    </Point>
  </Placemark><Placemark>
    <name>Charrat-Fully</name>
    <Style><LineStyle><width>2</width></LineStyle></Style>
    <Point>
      <extrude>1</extrude>
      <tesselate>0</tesselate>
      <altitudeMode>relativeToGround</altitudeMode>
      <coordinates>7.12646, 46.1268,20</coordinates>
    </Point>
  </Placemark><Placemark>
    <name>Bruson, village</name>
    <Style><LineStyle><width>2</width></LineStyle></Style>
    <Point>
      <extrude>1</extrude>
      <tesselate>0</tesselate>
      <altitudeMode>relativeToGround</altitudeMode>
      <coordinates>7.21931, 46.0664,20</coordinates>
    </Point>
  </Placemark><Placemark>
    <name>Fionnay</name>
    <Style><LineStyle><width>2</width></LineStyle></Style>
    <Point>
      <extrude>1</extrude>
      <tesselate>0</tesselate>
      <altitudeMode>relativeToGround</altitudeMode>
      <coordinates>7.30749, 46.033,20</coordinates>
    </Point>
  </Placemark><Placemark>
    <name>La Bâtiaz</name>
    <Style><LineStyle><width>2</width></LineStyle></Style>
    <Point>
      <extrude>1</extrude>
      <tesselate>0</tesselate>
      <altitudeMode>relativeToGround</altitudeMode>
      <coordinates>7.06972, 46.1073,20</coordinates>
    </Point>
  </Placemark><Placemark>
    <name>Vernayaz MC</name>
    <Style><LineStyle><width>2</width></LineStyle></Style>
    <Point>
      <extrude>1</extrude>
      <tesselate>0</tesselate>
      <altitudeMode>relativeToGround</altitudeMode>
      <coordinates>7.04492, 46.1301,20</coordinates>
    </Point>
  </Placemark><Placemark>
    <name>Salvan</name>
    <Style><LineStyle><width>2</width></LineStyle></Style>
    <Point>
      <extrude>1</extrude>
      <tesselate>0</tesselate>
      <altitudeMode>relativeToGround</altitudeMode>
      <coordinates>7.02103, 46.1216,20</coordinates>
    </Point>
  </Placemark><Placemark>
    <name>Les Marécottes</name>
    <Style><LineStyle><width>2</width></LineStyle></Style>
    <Point>
      <extrude>1</extrude>
      <tesselate>0</tesselate>
      <altitudeMode>relativeToGround</altitudeMode>
      <coordinates>7.01168, 46.1123,20</coordinates>
    </Point>
  </Placemark><Placemark>
    <name>Verbier, station poste</name>
    <Style><LineStyle><width>2</width></LineStyle></Style>
    <Point>
      <extrude>1</extrude>
      <tesselate>0</tesselate>
      <altitudeMode>relativeToGround</altitudeMode>
      <coordinates>7.22814, 46.0963,20</coordinates>
    </Point>
  </Placemark><Placemark>
    <name>Verbier, fromagerie</name>
    <Style><LineStyle><width>2</width></LineStyle></Style>
    <Point>
      <extrude>1</extrude>
      <tesselate>0</tesselate>
      <altitudeMode>relativeToGround</altitudeMode>
      <coordinates>7.21806, 46.0949,20</coordinates>
    </Point>
  </Placemark><Placemark>
    <name>Bruson, la Pleyeuse</name>
    <Style><LineStyle><width>2</width></LineStyle></Style>
    <Point>
      <extrude>1</extrude>
      <tesselate>0</tesselate>
      <altitudeMode>relativeToGround</altitudeMode>
      <coordinates>7.20759, 46.0585,20</coordinates>
    </Point>
  </Placemark><Placemark>
    <name>Branson, village</name>
    <Style><LineStyle><width>2</width></LineStyle></Style>
    <Point>
      <extrude>1</extrude>
      <tesselate>0</tesselate>
      <altitudeMode>relativeToGround</altitudeMode>
      <coordinates>7.08914, 46.1267,20</coordinates>
    </Point>
  </Placemark><Placemark>
    <name>Fully, Pont de la Louye</name>
    <Style><LineStyle><width>2</width></LineStyle></Style>
    <Point>
      <extrude>1</extrude>
      <tesselate>0</tesselate>
      <altitudeMode>relativeToGround</altitudeMode>
      <coordinates>7.10577, 46.1316,20</coordinates>
    </Point>
  </Placemark><Placemark>
    <name>Lourtier, village</name>
    <Style><LineStyle><width>2</width></LineStyle></Style>
    <Point>
      <extrude>1</extrude>
      <tesselate>0</tesselate>
      <altitudeMode>relativeToGround</altitudeMode>
      <coordinates>7.25552, 46.0478,20</coordinates>
    </Point>
  </Placemark><Placemark>
    <name>Champsec</name>
    <Style><LineStyle><width>2</width></LineStyle></Style>
    <Point>
      <extrude>1</extrude>
      <tesselate>0</tesselate>
      <altitudeMode>relativeToGround</altitudeMode>
      <coordinates>7.24398, 46.057,20</coordinates>
    </Point>
  </Placemark><Placemark>
    <name>Sembrancher, gare</name>
    <Style><LineStyle><width>2</width></LineStyle></Style>
    <Point>
      <extrude>1</extrude>
      <tesselate>0</tesselate>
      <altitudeMode>relativeToGround</altitudeMode>
      <coordinates>7.14665, 46.0772,20</coordinates>
    </Point>
  </Placemark><Placemark>
    <name>Levron</name>
    <Style><LineStyle><width>2</width></LineStyle></Style>
    <Point>
      <extrude>1</extrude>
      <tesselate>0</tesselate>
      <altitudeMode>relativeToGround</altitudeMode>
      <coordinates>7.16334, 46.0975,20</coordinates>
    </Point>
  </Placemark><Placemark>
    <name>Champex, télé</name>
    <Style><LineStyle><width>2</width></LineStyle></Style>
    <Point>
      <extrude>1</extrude>
      <tesselate>0</tesselate>
      <altitudeMode>relativeToGround</altitudeMode>
      <coordinates>7.10672, 46.0312,20</coordinates>
    </Point>
  </Placemark><Placemark>
    <name>Médières</name>
    <Style><LineStyle><width>2</width></LineStyle></Style>
    <Point>
      <extrude>1</extrude>
      <tesselate>0</tesselate>
      <altitudeMode>relativeToGround</altitudeMode>
      <coordinates>7.22218, 46.0907,20</coordinates>
    </Point>
  </Placemark><Placemark>
    <name>Le Châble VS,Fontenelle-Dessou</name>
    <Style><LineStyle><width>2</width></LineStyle></Style>
    <Point>
      <extrude>1</extrude>
      <tesselate>0</tesselate>
      <altitudeMode>relativeToGround</altitudeMode>
      <coordinates>7.21471, 46.087,20</coordinates>
    </Point>
  </Placemark><Placemark>
    <name>Cotterg</name>
    <Style><LineStyle><width>2</width></LineStyle></Style>
    <Point>
      <extrude>1</extrude>
      <tesselate>0</tesselate>
      <altitudeMode>relativeToGround</altitudeMode>
      <coordinates>7.20871, 46.0855,20</coordinates>
    </Point>
  </Placemark><Placemark>
    <name>Le Châble VS, Le Sapey</name>
    <Style><LineStyle><width>2</width></LineStyle></Style>
    <Point>
      <extrude>1</extrude>
      <tesselate>0</tesselate>
      <altitudeMode>relativeToGround</altitudeMode>
      <coordinates>7.21566, 46.0724,20</coordinates>
    </Point>
  </Placemark><Placemark>
    <name>Vollèges, poste</name>
    <Style><LineStyle><width>2</width></LineStyle></Style>
    <Point>
      <extrude>1</extrude>
      <tesselate>0</tesselate>
      <altitudeMode>relativeToGround</altitudeMode>
      <coordinates>7.16992, 46.0871,20</coordinates>
    </Point>
  </Placemark><Placemark>
    <name>Martigny, Portes du Rhône</name>
    <Style><LineStyle><width>2</width></LineStyle></Style>
    <Point>
      <extrude>1</extrude>
      <tesselate>0</tesselate>
      <altitudeMode>relativeToGround</altitudeMode>
      <coordinates>7.07724, 46.111,20</coordinates>
    </Point>
  </Placemark><Placemark>
    <name>Champex, Lac</name>
    <Style><LineStyle><width>2</width></LineStyle></Style>
    <Point>
      <extrude>1</extrude>
      <tesselate>0</tesselate>
      <altitudeMode>relativeToGround</altitudeMode>
      <coordinates>7.11706, 46.0295,20</coordinates>
    </Point>
  </Placemark><Placemark>
    <name>Chemin, contour du Botzaz</name>
    <Style><LineStyle><width>2</width></LineStyle></Style>
    <Point>
      <extrude>1</extrude>
      <tesselate>0</tesselate>
      <altitudeMode>relativeToGround</altitudeMode>
      <coordinates>7.08633, 46.089,20</coordinates>
    </Point>
  </Placemark><Placemark>
    <name>Chemin, Ecotteaux bif.</name>
    <Style><LineStyle><width>2</width></LineStyle></Style>
    <Point>
      <extrude>1</extrude>
      <tesselate>0</tesselate>
      <altitudeMode>relativeToGround</altitudeMode>
      <coordinates>7.08024, 46.0903,20</coordinates>
    </Point>
  </Placemark><Placemark>
    <name>Chemin-Dessus</name>
    <Style><LineStyle><width>2</width></LineStyle></Style>
    <Point>
      <extrude>1</extrude>
      <tesselate>0</tesselate>
      <altitudeMode>relativeToGround</altitudeMode>
      <coordinates>7.09491, 46.0896,20</coordinates>
    </Point>
  </Placemark><Placemark>
    <name>Chemin, Trois Limites</name>
    <Style><LineStyle><width>2</width></LineStyle></Style>
    <Point>
      <extrude>1</extrude>
      <tesselate>0</tesselate>
      <altitudeMode>relativeToGround</altitudeMode>
      <coordinates>7.0887, 46.0887,20</coordinates>
    </Point>
  </Placemark><Placemark>
    <name>Chemin, rte du Planard</name>
    <Style><LineStyle><width>2</width></LineStyle></Style>
    <Point>
      <extrude>1</extrude>
      <tesselate>0</tesselate>
      <altitudeMode>relativeToGround</altitudeMode>
      <coordinates>7.12014, 46.0967,20</coordinates>
    </Point>
  </Placemark></Document>
</kml>
