<kml>
<Document>

<Region>
<LatLonAltBox>
<north>46.200306</north><south>46.134062</south><east>7.619975</east><west>7.467704</west>
<minAltitude>0.000000</minAltitude><maxAltitude>0.000000</maxAltitude>
</LatLonAltBox>
<minLodPixels>2048</minLodPixels><maxLodPixels>1000000000</maxLodPixels>
<minFadeExtent>0</minFadeExtent><maxFadeExtent>0</maxFadeExtent>
</Region>
<Placemark>
    <name>Grimentz, Roua</name>
    <Style><LineStyle><width>2</width></LineStyle></Style>
    <Point>
      <extrude>1</extrude>
      <tesselate>0</tesselate>
      <altitudeMode>relativeToGround</altitudeMode>
      <coordinates>7.58048, 46.1844,20</coordinates>
    </Point>
  </Placemark><Placemark>
    <name>Grimentz, télécabine</name>
    <Style><LineStyle><width>2</width></LineStyle></Style>
    <Point>
      <extrude>1</extrude>
      <tesselate>0</tesselate>
      <altitudeMode>relativeToGround</altitudeMode>
      <coordinates>7.57384, 46.1758,20</coordinates>
    </Point>
  </Placemark><Placemark>
    <name>St-Jean VS, les Aires</name>
    <Style><LineStyle><width>2</width></LineStyle></Style>
    <Point>
      <extrude>1</extrude>
      <tesselate>0</tesselate>
      <altitudeMode>relativeToGround</altitudeMode>
      <coordinates>7.58078, 46.1834,20</coordinates>
    </Point>
  </Placemark><Placemark>
    <name>Grimentz, Torrent</name>
    <Style><LineStyle><width>2</width></LineStyle></Style>
    <Point>
      <extrude>1</extrude>
      <tesselate>0</tesselate>
      <altitudeMode>relativeToGround</altitudeMode>
      <coordinates>7.57009, 46.1405,20</coordinates>
    </Point>
  </Placemark><Placemark>
    <name>St-Jean VS, village</name>
    <Style><LineStyle><width>2</width></LineStyle></Style>
    <Point>
      <extrude>1</extrude>
      <tesselate>0</tesselate>
      <altitudeMode>relativeToGround</altitudeMode>
      <coordinates>7.58629, 46.1976,20</coordinates>
    </Point>
  </Placemark><Placemark>
    <name>Ayer, Val d'Uccle</name>
    <Style><LineStyle><width>2</width></LineStyle></Style>
    <Point>
      <extrude>1</extrude>
      <tesselate>0</tesselate>
      <altitudeMode>relativeToGround</altitudeMode>
      <coordinates>7.59598, 46.1844,20</coordinates>
    </Point>
  </Placemark><Placemark>
    <name>Grimentz, Carovilla</name>
    <Style><LineStyle><width>2</width></LineStyle></Style>
    <Point>
      <extrude>1</extrude>
      <tesselate>0</tesselate>
      <altitudeMode>relativeToGround</altitudeMode>
      <coordinates>7.57644, 46.1805,20</coordinates>
    </Point>
  </Placemark><Placemark>
    <name>Moiry VS, barrage</name>
    <Style><LineStyle><width>2</width></LineStyle></Style>
    <Point>
      <extrude>1</extrude>
      <tesselate>0</tesselate>
      <altitudeMode>relativeToGround</altitudeMode>
      <coordinates>7.57436, 46.1383,20</coordinates>
    </Point>
  </Placemark><Placemark>
    <name>Ayer, poste</name>
    <Style><LineStyle><width>2</width></LineStyle></Style>
    <Point>
      <extrude>1</extrude>
      <tesselate>0</tesselate>
      <altitudeMode>relativeToGround</altitudeMode>
      <coordinates>7.60442, 46.1771,20</coordinates>
    </Point>
  </Placemark><Placemark>
    <name>Ayer, Blanches Pierre</name>
    <Style><LineStyle><width>2</width></LineStyle></Style>
    <Point>
      <extrude>1</extrude>
      <tesselate>0</tesselate>
      <altitudeMode>relativeToGround</altitudeMode>
      <coordinates>7.59832, 46.1831,20</coordinates>
    </Point>
  </Placemark><Placemark>
    <name>Ayer, Les Morasses</name>
    <Style><LineStyle><width>2</width></LineStyle></Style>
    <Point>
      <extrude>1</extrude>
      <tesselate>0</tesselate>
      <altitudeMode>relativeToGround</altitudeMode>
      <coordinates>7.60938, 46.1669,20</coordinates>
    </Point>
  </Placemark><Placemark>
    <name>Ayer, Prarrayer</name>
    <Style><LineStyle><width>2</width></LineStyle></Style>
    <Point>
      <extrude>1</extrude>
      <tesselate>0</tesselate>
      <altitudeMode>relativeToGround</altitudeMode>
      <coordinates>7.60076, 46.1802,20</coordinates>
    </Point>
  </Placemark><Placemark>
    <name>St-Martin VS, Proveric</name>
    <Style><LineStyle><width>2</width></LineStyle></Style>
    <Point>
      <extrude>1</extrude>
      <tesselate>0</tesselate>
      <altitudeMode>relativeToGround</altitudeMode>
      <coordinates>7.46827, 46.1529,20</coordinates>
    </Point>
  </Placemark></Document>
</kml>
