<kml>
<Document>

<Region>
<LatLonAltBox>
<north>46.266550</north><south>46.200306</south><east>7.619975</east><west>7.467704</west>
<minAltitude>0.000000</minAltitude><maxAltitude>0.000000</maxAltitude>
</LatLonAltBox>
<minLodPixels>2048</minLodPixels><maxLodPixels>1000000000</maxLodPixels>
<minFadeExtent>0</minFadeExtent><maxFadeExtent>0</maxFadeExtent>
</Region>
<Placemark>
    <name>Brie, Chalais</name>
    <Style><LineStyle><width>2</width></LineStyle></Style>
    <Point>
      <extrude>1</extrude>
      <tesselate>0</tesselate>
      <altitudeMode>relativeToGround</altitudeMode>
      <coordinates>7.52494, 46.2636,20</coordinates>
    </Point>
  </Placemark><Placemark>
    <name>Chalais, Les Noyers</name>
    <Style><LineStyle><width>2</width></LineStyle></Style>
    <Point>
      <extrude>1</extrude>
      <tesselate>0</tesselate>
      <altitudeMode>relativeToGround</altitudeMode>
      <coordinates>7.50012, 46.2643,20</coordinates>
    </Point>
  </Placemark><Placemark>
    <name>Vissoie, Tsampetros</name>
    <Style><LineStyle><width>2</width></LineStyle></Style>
    <Point>
      <extrude>1</extrude>
      <tesselate>0</tesselate>
      <altitudeMode>relativeToGround</altitudeMode>
      <coordinates>7.58418, 46.2199,20</coordinates>
    </Point>
  </Placemark><Placemark>
    <name>Vissoie, Les Barmes</name>
    <Style><LineStyle><width>2</width></LineStyle></Style>
    <Point>
      <extrude>1</extrude>
      <tesselate>0</tesselate>
      <altitudeMode>relativeToGround</altitudeMode>
      <coordinates>7.57504, 46.2509,20</coordinates>
    </Point>
  </Placemark><Placemark>
    <name>Vissoie, les Rotzecs</name>
    <Style><LineStyle><width>2</width></LineStyle></Style>
    <Point>
      <extrude>1</extrude>
      <tesselate>0</tesselate>
      <altitudeMode>relativeToGround</altitudeMode>
      <coordinates>7.58468, 46.2194,20</coordinates>
    </Point>
  </Placemark><Placemark>
    <name>Réchy, village</name>
    <Style><LineStyle><width>2</width></LineStyle></Style>
    <Point>
      <extrude>1</extrude>
      <tesselate>0</tesselate>
      <altitudeMode>relativeToGround</altitudeMode>
      <coordinates>7.49534, 46.2613,20</coordinates>
    </Point>
  </Placemark><Placemark>
    <name>Les Pontis</name>
    <Style><LineStyle><width>2</width></LineStyle></Style>
    <Point>
      <extrude>1</extrude>
      <tesselate>0</tesselate>
      <altitudeMode>relativeToGround</altitudeMode>
      <coordinates>7.56415, 46.2601,20</coordinates>
    </Point>
  </Placemark><Placemark>
    <name>Vercorin CBV</name>
    <Style><LineStyle><width>2</width></LineStyle></Style>
    <Point>
      <extrude>1</extrude>
      <tesselate>0</tesselate>
      <altitudeMode>relativeToGround</altitudeMode>
      <coordinates>7.52628, 46.2568,20</coordinates>
    </Point>
  </Placemark><Placemark>
    <name>Vercorin, poste</name>
    <Style><LineStyle><width>2</width></LineStyle></Style>
    <Point>
      <extrude>1</extrude>
      <tesselate>0</tesselate>
      <altitudeMode>relativeToGround</altitudeMode>
      <coordinates>7.52943, 46.2559,20</coordinates>
    </Point>
  </Placemark><Placemark>
    <name>Chandolin, poste</name>
    <Style><LineStyle><width>2</width></LineStyle></Style>
    <Point>
      <extrude>1</extrude>
      <tesselate>0</tesselate>
      <altitudeMode>relativeToGround</altitudeMode>
      <coordinates>7.59713, 46.2521,20</coordinates>
    </Point>
  </Placemark><Placemark>
    <name>St-Luc, poste</name>
    <Style><LineStyle><width>2</width></LineStyle></Style>
    <Point>
      <extrude>1</extrude>
      <tesselate>0</tesselate>
      <altitudeMode>relativeToGround</altitudeMode>
      <coordinates>7.59313, 46.2234,20</coordinates>
    </Point>
  </Placemark><Placemark>
    <name>Chandolin, télésiège</name>
    <Style><LineStyle><width>2</width></LineStyle></Style>
    <Point>
      <extrude>1</extrude>
      <tesselate>0</tesselate>
      <altitudeMode>relativeToGround</altitudeMode>
      <coordinates>7.6044, 46.2476,20</coordinates>
    </Point>
  </Placemark><Placemark>
    <name>St-Luc, La Forêt</name>
    <Style><LineStyle><width>2</width></LineStyle></Style>
    <Point>
      <extrude>1</extrude>
      <tesselate>0</tesselate>
      <altitudeMode>relativeToGround</altitudeMode>
      <coordinates>7.5906, 46.233,20</coordinates>
    </Point>
  </Placemark><Placemark>
    <name>St-Luc, Zattelet</name>
    <Style><LineStyle><width>2</width></LineStyle></Style>
    <Point>
      <extrude>1</extrude>
      <tesselate>0</tesselate>
      <altitudeMode>relativeToGround</altitudeMode>
      <coordinates>7.5929, 46.2209,20</coordinates>
    </Point>
  </Placemark><Placemark>
    <name>St-Luc, Hôtel Bella Tola</name>
    <Style><LineStyle><width>2</width></LineStyle></Style>
    <Point>
      <extrude>1</extrude>
      <tesselate>0</tesselate>
      <altitudeMode>relativeToGround</altitudeMode>
      <coordinates>7.5954, 46.2213,20</coordinates>
    </Point>
  </Placemark><Placemark>
    <name>St-Luc, Hôtel Beausite</name>
    <Style><LineStyle><width>2</width></LineStyle></Style>
    <Point>
      <extrude>1</extrude>
      <tesselate>0</tesselate>
      <altitudeMode>relativeToGround</altitudeMode>
      <coordinates>7.59209, 46.223,20</coordinates>
    </Point>
  </Placemark><Placemark>
    <name>Ayer, Les Morands</name>
    <Style><LineStyle><width>2</width></LineStyle></Style>
    <Point>
      <extrude>1</extrude>
      <tesselate>0</tesselate>
      <altitudeMode>relativeToGround</altitudeMode>
      <coordinates>7.58933, 46.2108,20</coordinates>
    </Point>
  </Placemark><Placemark>
    <name>Vissoie, poste</name>
    <Style><LineStyle><width>2</width></LineStyle></Style>
    <Point>
      <extrude>1</extrude>
      <tesselate>0</tesselate>
      <altitudeMode>relativeToGround</altitudeMode>
      <coordinates>7.58546, 46.2151,20</coordinates>
    </Point>
  </Placemark></Document>
</kml>
