<kml>
<Document>

<Region>
<LatLonAltBox>
<north>46.134062</north><south>46.001575</south><east>8.229060</east><west>7.924518</west>
<minAltitude>0.000000</minAltitude><maxAltitude>0.000000</maxAltitude>
</LatLonAltBox>
<minLodPixels>2048</minLodPixels><maxLodPixels>1000000000</maxLodPixels>
<minFadeExtent>0</minFadeExtent><maxFadeExtent>0</maxFadeExtent>
</Region>
<Placemark>
    <name>Saas Grund, Niwi</name>
    <Style><LineStyle><width>2</width></LineStyle></Style>
    <Point>
      <extrude>1</extrude>
      <tesselate>0</tesselate>
      <altitudeMode>relativeToGround</altitudeMode>
      <coordinates>7.93761, 46.1219,20</coordinates>
    </Point>
  </Placemark><Placemark>
    <name>Saas Grund, Unter dem Berg</name>
    <Style><LineStyle><width>2</width></LineStyle></Style>
    <Point>
      <extrude>1</extrude>
      <tesselate>0</tesselate>
      <altitudeMode>relativeToGround</altitudeMode>
      <coordinates>7.93589, 46.1305,20</coordinates>
    </Point>
  </Placemark><Placemark>
    <name>Saas Almagell, Zermeiggern</name>
    <Style><LineStyle><width>2</width></LineStyle></Style>
    <Point>
      <extrude>1</extrude>
      <tesselate>0</tesselate>
      <altitudeMode>relativeToGround</altitudeMode>
      <coordinates>7.95839, 46.0834,20</coordinates>
    </Point>
  </Placemark><Placemark>
    <name>Saas Grund, Unter den Bodmen</name>
    <Style><LineStyle><width>2</width></LineStyle></Style>
    <Point>
      <extrude>1</extrude>
      <tesselate>0</tesselate>
      <altitudeMode>relativeToGround</altitudeMode>
      <coordinates>7.93061, 46.1104,20</coordinates>
    </Point>
  </Placemark><Placemark>
    <name>Saas Almagell, Sportplatz</name>
    <Style><LineStyle><width>2</width></LineStyle></Style>
    <Point>
      <extrude>1</extrude>
      <tesselate>0</tesselate>
      <altitudeMode>relativeToGround</altitudeMode>
      <coordinates>7.95692, 46.0896,20</coordinates>
    </Point>
  </Placemark><Placemark>
    <name>Mattmark</name>
    <Style><LineStyle><width>2</width></LineStyle></Style>
    <Point>
      <extrude>1</extrude>
      <tesselate>0</tesselate>
      <altitudeMode>relativeToGround</altitudeMode>
      <coordinates>7.95677, 46.0489,20</coordinates>
    </Point>
  </Placemark></Document>
</kml>
