<kml>
<Document>

<Region>
<LatLonAltBox>
<north>46.399038</north><south>46.266550</south><east>9.447230</east><west>9.142688</west>
<minAltitude>0.000000</minAltitude><maxAltitude>0.000000</maxAltitude>
</LatLonAltBox>
<minLodPixels>2048</minLodPixels><maxLodPixels>1000000000</maxLodPixels>
<minFadeExtent>0</minFadeExtent><maxFadeExtent>0</maxFadeExtent>
</Region>
<Placemark>
    <name>Mesocco, Posta</name>
    <Style><LineStyle><width>2</width></LineStyle></Style>
    <Point>
      <extrude>1</extrude>
      <tesselate>0</tesselate>
      <altitudeMode>relativeToGround</altitudeMode>
      <coordinates>9.23323, 46.392,20</coordinates>
    </Point>
  </Placemark><Placemark>
    <name>Mesocco, Nord</name>
    <Style><LineStyle><width>2</width></LineStyle></Style>
    <Point>
      <extrude>1</extrude>
      <tesselate>0</tesselate>
      <altitudeMode>relativeToGround</altitudeMode>
      <coordinates>9.23228, 46.3929,20</coordinates>
    </Point>
  </Placemark><Placemark>
    <name>Verdabbio</name>
    <Style><LineStyle><width>2</width></LineStyle></Style>
    <Point>
      <extrude>1</extrude>
      <tesselate>0</tesselate>
      <altitudeMode>relativeToGround</altitudeMode>
      <coordinates>9.15812, 46.2685,20</coordinates>
    </Point>
  </Placemark><Placemark>
    <name>Mesocco, Ponte Anzone</name>
    <Style><LineStyle><width>2</width></LineStyle></Style>
    <Point>
      <extrude>1</extrude>
      <tesselate>0</tesselate>
      <altitudeMode>relativeToGround</altitudeMode>
      <coordinates>9.23052, 46.3988,20</coordinates>
    </Point>
  </Placemark><Placemark>
    <name>Chiavenna</name>
    <Style><LineStyle><width>2</width></LineStyle></Style>
    <Point>
      <extrude>1</extrude>
      <tesselate>0</tesselate>
      <altitudeMode>relativeToGround</altitudeMode>
      <coordinates>9.40506, 46.3197,20</coordinates>
    </Point>
  </Placemark><Placemark>
    <name>Lostallo, Posta</name>
    <Style><LineStyle><width>2</width></LineStyle></Style>
    <Point>
      <extrude>1</extrude>
      <tesselate>0</tesselate>
      <altitudeMode>relativeToGround</altitudeMode>
      <coordinates>9.19384, 46.3101,20</coordinates>
    </Point>
  </Placemark><Placemark>
    <name>Sorte</name>
    <Style><LineStyle><width>2</width></LineStyle></Style>
    <Point>
      <extrude>1</extrude>
      <tesselate>0</tesselate>
      <altitudeMode>relativeToGround</altitudeMode>
      <coordinates>9.17964, 46.2922,20</coordinates>
    </Point>
  </Placemark><Placemark>
    <name>Lostallo, Paese</name>
    <Style><LineStyle><width>2</width></LineStyle></Style>
    <Point>
      <extrude>1</extrude>
      <tesselate>0</tesselate>
      <altitudeMode>relativeToGround</altitudeMode>
      <coordinates>9.19587, 46.3127,20</coordinates>
    </Point>
  </Placemark><Placemark>
    <name>Cabbiolo, Paese</name>
    <Style><LineStyle><width>2</width></LineStyle></Style>
    <Point>
      <extrude>1</extrude>
      <tesselate>0</tesselate>
      <altitudeMode>relativeToGround</altitudeMode>
      <coordinates>9.20517, 46.3292,20</coordinates>
    </Point>
  </Placemark><Placemark>
    <name>Soazza</name>
    <Style><LineStyle><width>2</width></LineStyle></Style>
    <Point>
      <extrude>1</extrude>
      <tesselate>0</tesselate>
      <altitudeMode>relativeToGround</altitudeMode>
      <coordinates>9.22198, 46.3663,20</coordinates>
    </Point>
  </Placemark><Placemark>
    <name>Mesocco, Stazione</name>
    <Style><LineStyle><width>2</width></LineStyle></Style>
    <Point>
      <extrude>1</extrude>
      <tesselate>0</tesselate>
      <altitudeMode>relativeToGround</altitudeMode>
      <coordinates>9.23447, 46.3904,20</coordinates>
    </Point>
  </Placemark></Document>
</kml>
