<kml>
<Document>

<Region>
<LatLonAltBox>
<north>46.664012</north><south>46.531525</south><east>10.360858</east><west>10.056315</west>
<minAltitude>0.000000</minAltitude><maxAltitude>0.000000</maxAltitude>
</LatLonAltBox>
<minLodPixels>2048</minLodPixels><maxLodPixels>1000000000</maxLodPixels>
<minFadeExtent>0</minFadeExtent><maxFadeExtent>0</maxFadeExtent>
</Region>
<Placemark>
    <name>Buffalora</name>
    <Style><LineStyle><width>2</width></LineStyle></Style>
    <Point>
      <extrude>1</extrude>
      <tesselate>0</tesselate>
      <altitudeMode>relativeToGround</altitudeMode>
      <coordinates>10.2674, 46.648,20</coordinates>
    </Point>
  </Placemark><Placemark>
    <name>Zernez, Stabelchod</name>
    <Style><LineStyle><width>2</width></LineStyle></Style>
    <Point>
      <extrude>1</extrude>
      <tesselate>0</tesselate>
      <altitudeMode>relativeToGround</altitudeMode>
      <coordinates>10.2435, 46.6605,20</coordinates>
    </Point>
  </Placemark><Placemark>
    <name>Zernez, Vallun Chafuol</name>
    <Style><LineStyle><width>2</width></LineStyle></Style>
    <Point>
      <extrude>1</extrude>
      <tesselate>0</tesselate>
      <altitudeMode>relativeToGround</altitudeMode>
      <coordinates>10.1711, 46.6626,20</coordinates>
    </Point>
  </Placemark><Placemark>
    <name>Tschierv, Minschuns</name>
    <Style><LineStyle><width>2</width></LineStyle></Style>
    <Point>
      <extrude>1</extrude>
      <tesselate>0</tesselate>
      <altitudeMode>relativeToGround</altitudeMode>
      <coordinates>10.3244, 46.637,20</coordinates>
    </Point>
  </Placemark><Placemark>
    <name>Il Fuorn</name>
    <Style><LineStyle><width>2</width></LineStyle></Style>
    <Point>
      <extrude>1</extrude>
      <tesselate>0</tesselate>
      <altitudeMode>relativeToGround</altitudeMode>
      <coordinates>10.211, 46.664,20</coordinates>
    </Point>
  </Placemark><Placemark>
    <name>Süsom Givé (Passhöhe)</name>
    <Style><LineStyle><width>2</width></LineStyle></Style>
    <Point>
      <extrude>1</extrude>
      <tesselate>0</tesselate>
      <altitudeMode>relativeToGround</altitudeMode>
      <coordinates>10.2929, 46.6394,20</coordinates>
    </Point>
  </Placemark></Document>
</kml>
