<kml>
<Document>

<Region>
<LatLonAltBox>
<north>46.200306</north><south>46.134062</south><east>8.838145</east><west>8.685874</west>
<minAltitude>0.000000</minAltitude><maxAltitude>0.000000</maxAltitude>
</LatLonAltBox>
<minLodPixels>2048</minLodPixels><maxLodPixels>1000000000</maxLodPixels>
<minFadeExtent>0</minFadeExtent><maxFadeExtent>0</maxFadeExtent>
</Region>
<Placemark>
    <name>Ascona NLM</name>
    <Style><LineStyle><width>2</width></LineStyle></Style>
    <Point>
      <extrude>1</extrude>
      <tesselate>0</tesselate>
      <altitudeMode>relativeToGround</altitudeMode>
      <coordinates>8.76737, 46.1545,20</coordinates>
    </Point>
  </Placemark><Placemark>
    <name>Minusio, V. Borenco</name>
    <Style><LineStyle><width>2</width></LineStyle></Style>
    <Point>
      <extrude>1</extrude>
      <tesselate>0</tesselate>
      <altitudeMode>relativeToGround</altitudeMode>
      <coordinates>8.80997, 46.1734,20</coordinates>
    </Point>
  </Placemark><Placemark>
    <name>Auressio, Ronchetto</name>
    <Style><LineStyle><width>2</width></LineStyle></Style>
    <Point>
      <extrude>1</extrude>
      <tesselate>0</tesselate>
      <altitudeMode>relativeToGround</altitudeMode>
      <coordinates>8.68883, 46.1993,20</coordinates>
    </Point>
  </Placemark><Placemark>
    <name>Locarno, Residenza Lido</name>
    <Style><LineStyle><width>2</width></LineStyle></Style>
    <Point>
      <extrude>1</extrude>
      <tesselate>0</tesselate>
      <altitudeMode>relativeToGround</altitudeMode>
      <coordinates>8.80062, 46.162,20</coordinates>
    </Point>
  </Placemark><Placemark>
    <name>Locarno, Panorama</name>
    <Style><LineStyle><width>2</width></LineStyle></Style>
    <Point>
      <extrude>1</extrude>
      <tesselate>0</tesselate>
      <altitudeMode>relativeToGround</altitudeMode>
      <coordinates>8.79777, 46.1643,20</coordinates>
    </Point>
  </Placemark><Placemark>
    <name>Ponte Brolla, Stazione</name>
    <Style><LineStyle><width>2</width></LineStyle></Style>
    <Point>
      <extrude>1</extrude>
      <tesselate>0</tesselate>
      <altitudeMode>relativeToGround</altitudeMode>
      <coordinates>8.75202, 46.1869,20</coordinates>
    </Point>
  </Placemark><Placemark>
    <name>Solduno, Stazione</name>
    <Style><LineStyle><width>2</width></LineStyle></Style>
    <Point>
      <extrude>1</extrude>
      <tesselate>0</tesselate>
      <altitudeMode>relativeToGround</altitudeMode>
      <coordinates>8.77815, 46.1695,20</coordinates>
    </Point>
  </Placemark><Placemark>
    <name>Locarno, Cinque Vie</name>
    <Style><LineStyle><width>2</width></LineStyle></Style>
    <Point>
      <extrude>1</extrude>
      <tesselate>0</tesselate>
      <altitudeMode>relativeToGround</altitudeMode>
      <coordinates>8.78945, 46.1682,20</coordinates>
    </Point>
  </Placemark><Placemark>
    <name>Locarno, Via della Pace</name>
    <Style><LineStyle><width>2</width></LineStyle></Style>
    <Point>
      <extrude>1</extrude>
      <tesselate>0</tesselate>
      <altitudeMode>relativeToGround</altitudeMode>
      <coordinates>8.79887, 46.1697,20</coordinates>
    </Point>
  </Placemark><Placemark>
    <name>Cresmino, Funivia</name>
    <Style><LineStyle><width>2</width></LineStyle></Style>
    <Point>
      <extrude>1</extrude>
      <tesselate>0</tesselate>
      <altitudeMode>relativeToGround</altitudeMode>
      <coordinates>8.69573, 46.1893,20</coordinates>
    </Point>
  </Placemark><Placemark>
    <name>Locarno, Case Popolari</name>
    <Style><LineStyle><width>2</width></LineStyle></Style>
    <Point>
      <extrude>1</extrude>
      <tesselate>0</tesselate>
      <altitudeMode>relativeToGround</altitudeMode>
      <coordinates>8.79236, 46.163,20</coordinates>
    </Point>
  </Placemark><Placemark>
    <name>Muralto, Palazzo dei Congressi</name>
    <Style><LineStyle><width>2</width></LineStyle></Style>
    <Point>
      <extrude>1</extrude>
      <tesselate>0</tesselate>
      <altitudeMode>relativeToGround</altitudeMode>
      <coordinates>8.80594, 46.1729,20</coordinates>
    </Point>
  </Placemark><Placemark>
    <name>Locarno, Bivio V. Nessi</name>
    <Style><LineStyle><width>2</width></LineStyle></Style>
    <Point>
      <extrude>1</extrude>
      <tesselate>0</tesselate>
      <altitudeMode>relativeToGround</altitudeMode>
      <coordinates>8.79165, 46.1657,20</coordinates>
    </Point>
  </Placemark><Placemark>
    <name>Golino, Posta</name>
    <Style><LineStyle><width>2</width></LineStyle></Style>
    <Point>
      <extrude>1</extrude>
      <tesselate>0</tesselate>
      <altitudeMode>relativeToGround</altitudeMode>
      <coordinates>8.71299, 46.1797,20</coordinates>
    </Point>
  </Placemark><Placemark>
    <name>Losone, Mercato Cattori</name>
    <Style><LineStyle><width>2</width></LineStyle></Style>
    <Point>
      <extrude>1</extrude>
      <tesselate>0</tesselate>
      <altitudeMode>relativeToGround</altitudeMode>
      <coordinates>8.76866, 46.1653,20</coordinates>
    </Point>
  </Placemark><Placemark>
    <name>Contra, Costa</name>
    <Style><LineStyle><width>2</width></LineStyle></Style>
    <Point>
      <extrude>1</extrude>
      <tesselate>0</tesselate>
      <altitudeMode>relativeToGround</altitudeMode>
      <coordinates>8.83748, 46.1857,20</coordinates>
    </Point>
  </Placemark><Placemark>
    <name>Porto Ronco, Posta</name>
    <Style><LineStyle><width>2</width></LineStyle></Style>
    <Point>
      <extrude>1</extrude>
      <tesselate>0</tesselate>
      <altitudeMode>relativeToGround</altitudeMode>
      <coordinates>8.72631, 46.1404,20</coordinates>
    </Point>
  </Placemark><Placemark>
    <name>Locarno FLMS</name>
    <Style><LineStyle><width>2</width></LineStyle></Style>
    <Point>
      <extrude>1</extrude>
      <tesselate>0</tesselate>
      <altitudeMode>relativeToGround</altitudeMode>
      <coordinates>8.79744, 46.1719,20</coordinates>
    </Point>
  </Placemark><Placemark>
    <name>Muralto, Croce Bianca</name>
    <Style><LineStyle><width>2</width></LineStyle></Style>
    <Point>
      <extrude>1</extrude>
      <tesselate>0</tesselate>
      <altitudeMode>relativeToGround</altitudeMode>
      <coordinates>8.8048, 46.1737,20</coordinates>
    </Point>
  </Placemark><Placemark>
    <name>Madonna del Sasso</name>
    <Style><LineStyle><width>2</width></LineStyle></Style>
    <Point>
      <extrude>1</extrude>
      <tesselate>0</tesselate>
      <altitudeMode>relativeToGround</altitudeMode>
      <coordinates>8.79282, 46.1757,20</coordinates>
    </Point>
  </Placemark><Placemark>
    <name>Losone, Arbigo</name>
    <Style><LineStyle><width>2</width></LineStyle></Style>
    <Point>
      <extrude>1</extrude>
      <tesselate>0</tesselate>
      <altitudeMode>relativeToGround</altitudeMode>
      <coordinates>8.75777, 46.1702,20</coordinates>
    </Point>
  </Placemark><Placemark>
    <name>Minusio, Esplanade</name>
    <Style><LineStyle><width>2</width></LineStyle></Style>
    <Point>
      <extrude>1</extrude>
      <tesselate>0</tesselate>
      <altitudeMode>relativeToGround</altitudeMode>
      <coordinates>8.82273, 46.1786,20</coordinates>
    </Point>
  </Placemark></Document>
</kml>
