<kml>
<Document>

<Region>
<LatLonAltBox>
<north>46.067819</north><south>46.034697</south><east>8.990416</east><west>8.914281</west>
<minAltitude>0.000000</minAltitude><maxAltitude>0.000000</maxAltitude>
</LatLonAltBox>
<minLodPixels>2048</minLodPixels><maxLodPixels>1000000000</maxLodPixels>
<minFadeExtent>0</minFadeExtent><maxFadeExtent>0</maxFadeExtent>
</Region>
<Placemark>
    <name>Ponte Capriasca, Nogo Sopra</name>
    <Style><LineStyle><width>2</width></LineStyle></Style>
    <Point>
      <extrude>1</extrude>
      <tesselate>0</tesselate>
      <altitudeMode>relativeToGround</altitudeMode>
      <coordinates>8.94553, 46.06,20</coordinates>
    </Point>
  </Placemark><Placemark>
    <name>Taverne, Superiore</name>
    <Style><LineStyle><width>2</width></LineStyle></Style>
    <Point>
      <extrude>1</extrude>
      <tesselate>0</tesselate>
      <altitudeMode>relativeToGround</altitudeMode>
      <coordinates>8.93451, 46.0678,20</coordinates>
    </Point>
  </Placemark><Placemark>
    <name>Taverne, Posta</name>
    <Style><LineStyle><width>2</width></LineStyle></Style>
    <Point>
      <extrude>1</extrude>
      <tesselate>0</tesselate>
      <altitudeMode>relativeToGround</altitudeMode>
      <coordinates>8.93101, 46.065,20</coordinates>
    </Point>
  </Placemark><Placemark>
    <name>Canobbio, Stazione</name>
    <Style><LineStyle><width>2</width></LineStyle></Style>
    <Point>
      <extrude>1</extrude>
      <tesselate>0</tesselate>
      <altitudeMode>relativeToGround</altitudeMode>
      <coordinates>8.96285, 46.0367,20</coordinates>
    </Point>
  </Placemark><Placemark>
    <name>Tesserete, Stazione</name>
    <Style><LineStyle><width>2</width></LineStyle></Style>
    <Point>
      <extrude>1</extrude>
      <tesselate>0</tesselate>
      <altitudeMode>relativeToGround</altitudeMode>
      <coordinates>8.96651, 46.066,20</coordinates>
    </Point>
  </Placemark><Placemark>
    <name>Gravesano, Posta</name>
    <Style><LineStyle><width>2</width></LineStyle></Style>
    <Point>
      <extrude>1</extrude>
      <tesselate>0</tesselate>
      <altitudeMode>relativeToGround</altitudeMode>
      <coordinates>8.91789, 46.0411,20</coordinates>
    </Point>
  </Placemark><Placemark>
    <name>Cagiallo, San Matteo</name>
    <Style><LineStyle><width>2</width></LineStyle></Style>
    <Point>
      <extrude>1</extrude>
      <tesselate>0</tesselate>
      <altitudeMode>relativeToGround</altitudeMode>
      <coordinates>8.97894, 46.0666,20</coordinates>
    </Point>
  </Placemark><Placemark>
    <name>Sonvico, Stazione ARL</name>
    <Style><LineStyle><width>2</width></LineStyle></Style>
    <Point>
      <extrude>1</extrude>
      <tesselate>0</tesselate>
      <altitudeMode>relativeToGround</altitudeMode>
      <coordinates>8.98865, 46.058,20</coordinates>
    </Point>
  </Placemark><Placemark>
    <name>Davesco, Casteldavesco</name>
    <Style><LineStyle><width>2</width></LineStyle></Style>
    <Point>
      <extrude>1</extrude>
      <tesselate>0</tesselate>
      <altitudeMode>relativeToGround</altitudeMode>
      <coordinates>8.96391, 46.0375,20</coordinates>
    </Point>
  </Placemark><Placemark>
    <name>Comano, Paese</name>
    <Style><LineStyle><width>2</width></LineStyle></Style>
    <Point>
      <extrude>1</extrude>
      <tesselate>0</tesselate>
      <altitudeMode>relativeToGround</altitudeMode>
      <coordinates>8.95482, 46.0359,20</coordinates>
    </Point>
  </Placemark><Placemark>
    <name>Ponte Capriasca, Crano</name>
    <Style><LineStyle><width>2</width></LineStyle></Style>
    <Point>
      <extrude>1</extrude>
      <tesselate>0</tesselate>
      <altitudeMode>relativeToGround</altitudeMode>
      <coordinates>8.94985, 46.0568,20</coordinates>
    </Point>
  </Placemark><Placemark>
    <name>Carnago, Chiesa</name>
    <Style><LineStyle><width>2</width></LineStyle></Style>
    <Point>
      <extrude>1</extrude>
      <tesselate>0</tesselate>
      <altitudeMode>relativeToGround</altitudeMode>
      <coordinates>8.95012, 46.0529,20</coordinates>
    </Point>
  </Placemark><Placemark>
    <name>Vaglio, Piccolo Vaglio</name>
    <Style><LineStyle><width>2</width></LineStyle></Style>
    <Point>
      <extrude>1</extrude>
      <tesselate>0</tesselate>
      <altitudeMode>relativeToGround</altitudeMode>
      <coordinates>8.95658, 46.0573,20</coordinates>
    </Point>
  </Placemark><Placemark>
    <name>Carnago, Paese</name>
    <Style><LineStyle><width>2</width></LineStyle></Style>
    <Point>
      <extrude>1</extrude>
      <tesselate>0</tesselate>
      <altitudeMode>relativeToGround</altitudeMode>
      <coordinates>8.94958, 46.0519,20</coordinates>
    </Point>
  </Placemark><Placemark>
    <name>Origlio, Paese</name>
    <Style><LineStyle><width>2</width></LineStyle></Style>
    <Point>
      <extrude>1</extrude>
      <tesselate>0</tesselate>
      <altitudeMode>relativeToGround</altitudeMode>
      <coordinates>8.94454, 46.0542,20</coordinates>
    </Point>
  </Placemark><Placemark>
    <name>Ponte Capriasca, Nogo</name>
    <Style><LineStyle><width>2</width></LineStyle></Style>
    <Point>
      <extrude>1</extrude>
      <tesselate>0</tesselate>
      <altitudeMode>relativeToGround</altitudeMode>
      <coordinates>8.94747, 46.0598,20</coordinates>
    </Point>
  </Placemark><Placemark>
    <name>Ponte Capriasca, Paese</name>
    <Style><LineStyle><width>2</width></LineStyle></Style>
    <Point>
      <extrude>1</extrude>
      <tesselate>0</tesselate>
      <altitudeMode>relativeToGround</altitudeMode>
      <coordinates>8.95022, 46.0611,20</coordinates>
    </Point>
  </Placemark><Placemark>
    <name>Sala Capriasca, Paese</name>
    <Style><LineStyle><width>2</width></LineStyle></Style>
    <Point>
      <extrude>1</extrude>
      <tesselate>0</tesselate>
      <altitudeMode>relativeToGround</altitudeMode>
      <coordinates>8.95654, 46.0652,20</coordinates>
    </Point>
  </Placemark><Placemark>
    <name>Tesserete, Posta</name>
    <Style><LineStyle><width>2</width></LineStyle></Style>
    <Point>
      <extrude>1</extrude>
      <tesselate>0</tesselate>
      <altitudeMode>relativeToGround</altitudeMode>
      <coordinates>8.96653, 46.0667,20</coordinates>
    </Point>
  </Placemark><Placemark>
    <name>Lamone, Posta Vecchia</name>
    <Style><LineStyle><width>2</width></LineStyle></Style>
    <Point>
      <extrude>1</extrude>
      <tesselate>0</tesselate>
      <altitudeMode>relativeToGround</altitudeMode>
      <coordinates>8.9337, 46.0383,20</coordinates>
    </Point>
  </Placemark><Placemark>
    <name>Lamone-Cadempino, Stazione</name>
    <Style><LineStyle><width>2</width></LineStyle></Style>
    <Point>
      <extrude>1</extrude>
      <tesselate>0</tesselate>
      <altitudeMode>relativeToGround</altitudeMode>
      <coordinates>8.93195, 46.0404,20</coordinates>
    </Point>
  </Placemark><Placemark>
    <name>Cadempino, Municipio</name>
    <Style><LineStyle><width>2</width></LineStyle></Style>
    <Point>
      <extrude>1</extrude>
      <tesselate>0</tesselate>
      <altitudeMode>relativeToGround</altitudeMode>
      <coordinates>8.93446, 46.0378,20</coordinates>
    </Point>
  </Placemark><Placemark>
    <name>Gravesano, Grumo di Gravesano</name>
    <Style><LineStyle><width>2</width></LineStyle></Style>
    <Point>
      <extrude>1</extrude>
      <tesselate>0</tesselate>
      <altitudeMode>relativeToGround</altitudeMode>
      <coordinates>8.92317, 46.0407,20</coordinates>
    </Point>
  </Placemark><Placemark>
    <name>Torricella, Chiesa</name>
    <Style><LineStyle><width>2</width></LineStyle></Style>
    <Point>
      <extrude>1</extrude>
      <tesselate>0</tesselate>
      <altitudeMode>relativeToGround</altitudeMode>
      <coordinates>8.92227, 46.0645,20</coordinates>
    </Point>
  </Placemark><Placemark>
    <name>Torricella, Navaraz</name>
    <Style><LineStyle><width>2</width></LineStyle></Style>
    <Point>
      <extrude>1</extrude>
      <tesselate>0</tesselate>
      <altitudeMode>relativeToGround</altitudeMode>
      <coordinates>8.91906, 46.0604,20</coordinates>
    </Point>
  </Placemark><Placemark>
    <name>Manno, Boschetti</name>
    <Style><LineStyle><width>2</width></LineStyle></Style>
    <Point>
      <extrude>1</extrude>
      <tesselate>0</tesselate>
      <altitudeMode>relativeToGround</altitudeMode>
      <coordinates>8.91858, 46.0382,20</coordinates>
    </Point>
  </Placemark><Placemark>
    <name>Gravesano, Paese</name>
    <Style><LineStyle><width>2</width></LineStyle></Style>
    <Point>
      <extrude>1</extrude>
      <tesselate>0</tesselate>
      <altitudeMode>relativeToGround</altitudeMode>
      <coordinates>8.91802, 46.0411,20</coordinates>
    </Point>
  </Placemark><Placemark>
    <name>Manno, Paese</name>
    <Style><LineStyle><width>2</width></LineStyle></Style>
    <Point>
      <extrude>1</extrude>
      <tesselate>0</tesselate>
      <altitudeMode>relativeToGround</altitudeMode>
      <coordinates>8.92006, 46.0356,20</coordinates>
    </Point>
  </Placemark></Document>
</kml>
