<kml>
<Document>

<Region>
<LatLonAltBox>
<north>46.266550</north><south>46.200306</south><east>8.990416</east><west>8.838145</west>
<minAltitude>0.000000</minAltitude><maxAltitude>0.000000</maxAltitude>
</LatLonAltBox>
<minLodPixels>2048</minLodPixels><maxLodPixels>1000000000</maxLodPixels>
<minFadeExtent>0</minFadeExtent><maxFadeExtent>0</maxFadeExtent>
</Region>
<Placemark>
    <name>Lavertezzo, Ai Poss</name>
    <Style><LineStyle><width>2</width></LineStyle></Style>
    <Point>
      <extrude>1</extrude>
      <tesselate>0</tesselate>
      <altitudeMode>relativeToGround</altitudeMode>
      <coordinates>8.8431, 46.2528,20</coordinates>
    </Point>
  </Placemark><Placemark>
    <name>Vogorno, Fontobbia</name>
    <Style><LineStyle><width>2</width></LineStyle></Style>
    <Point>
      <extrude>1</extrude>
      <tesselate>0</tesselate>
      <altitudeMode>relativeToGround</altitudeMode>
      <coordinates>8.85877, 46.2072,20</coordinates>
    </Point>
  </Placemark><Placemark>
    <name>Vogorno, di Dentro</name>
    <Style><LineStyle><width>2</width></LineStyle></Style>
    <Point>
      <extrude>1</extrude>
      <tesselate>0</tesselate>
      <altitudeMode>relativeToGround</altitudeMode>
      <coordinates>8.85217, 46.2275,20</coordinates>
    </Point>
  </Placemark><Placemark>
    <name>Vogorno, Paese</name>
    <Style><LineStyle><width>2</width></LineStyle></Style>
    <Point>
      <extrude>1</extrude>
      <tesselate>0</tesselate>
      <altitudeMode>relativeToGround</altitudeMode>
      <coordinates>8.85661, 46.2237,20</coordinates>
    </Point>
  </Placemark><Placemark>
    <name>Berzona (Verzasca), Paese</name>
    <Style><LineStyle><width>2</width></LineStyle></Style>
    <Point>
      <extrude>1</extrude>
      <tesselate>0</tesselate>
      <altitudeMode>relativeToGround</altitudeMode>
      <coordinates>8.86028, 46.2155,20</coordinates>
    </Point>
  </Placemark><Placemark>
    <name>Corippo, Bivio</name>
    <Style><LineStyle><width>2</width></LineStyle></Style>
    <Point>
      <extrude>1</extrude>
      <tesselate>0</tesselate>
      <altitudeMode>relativeToGround</altitudeMode>
      <coordinates>8.84473, 46.2407,20</coordinates>
    </Point>
  </Placemark><Placemark>
    <name>Vogorno, San Bartolomeo</name>
    <Style><LineStyle><width>2</width></LineStyle></Style>
    <Point>
      <extrude>1</extrude>
      <tesselate>0</tesselate>
      <altitudeMode>relativeToGround</altitudeMode>
      <coordinates>8.84645, 46.2319,20</coordinates>
    </Point>
  </Placemark></Document>
</kml>
