<kml>
<Document>

<Region>
<LatLonAltBox>
<north>46.134062</north><south>46.067819</south><east>8.990416</east><west>8.838145</west>
<minAltitude>0.000000</minAltitude><maxAltitude>0.000000</maxAltitude>
</LatLonAltBox>
<minLodPixels>2048</minLodPixels><maxLodPixels>1000000000</maxLodPixels>
<minFadeExtent>0</minFadeExtent><maxFadeExtent>0</maxFadeExtent>
</Region>
<Placemark>
    <name>Mezzovico, Stazione</name>
    <Style><LineStyle><width>2</width></LineStyle></Style>
    <Point>
      <extrude>1</extrude>
      <tesselate>0</tesselate>
      <altitudeMode>relativeToGround</altitudeMode>
      <coordinates>8.92923, 46.0945,20</coordinates>
    </Point>
  </Placemark><Placemark>
    <name>Indemini, Monti</name>
    <Style><LineStyle><width>2</width></LineStyle></Style>
    <Point>
      <extrude>1</extrude>
      <tesselate>0</tesselate>
      <altitudeMode>relativeToGround</altitudeMode>
      <coordinates>8.8431, 46.1021,20</coordinates>
    </Point>
  </Placemark><Placemark>
    <name>Monti di Fosano, Monti</name>
    <Style><LineStyle><width>2</width></LineStyle></Style>
    <Point>
      <extrude>1</extrude>
      <tesselate>0</tesselate>
      <altitudeMode>relativeToGround</altitudeMode>
      <coordinates>8.84095, 46.1318,20</coordinates>
    </Point>
  </Placemark><Placemark>
    <name>Capriasca, Piana</name>
    <Style><LineStyle><width>2</width></LineStyle></Style>
    <Point>
      <extrude>1</extrude>
      <tesselate>0</tesselate>
      <altitudeMode>relativeToGround</altitudeMode>
      <coordinates>8.96977, 46.0803,20</coordinates>
    </Point>
  </Placemark><Placemark>
    <name>Mezzovico, Bivio per Vira</name>
    <Style><LineStyle><width>2</width></LineStyle></Style>
    <Point>
      <extrude>1</extrude>
      <tesselate>0</tesselate>
      <altitudeMode>relativeToGround</altitudeMode>
      <coordinates>8.92543, 46.0975,20</coordinates>
    </Point>
  </Placemark><Placemark>
    <name>Lelgio, Paese</name>
    <Style><LineStyle><width>2</width></LineStyle></Style>
    <Point>
      <extrude>1</extrude>
      <tesselate>0</tesselate>
      <altitudeMode>relativeToGround</altitudeMode>
      <coordinates>8.97195, 46.0848,20</coordinates>
    </Point>
  </Placemark><Placemark>
    <name>Odogno, Bivio per Bettagno</name>
    <Style><LineStyle><width>2</width></LineStyle></Style>
    <Point>
      <extrude>1</extrude>
      <tesselate>0</tesselate>
      <altitudeMode>relativeToGround</altitudeMode>
      <coordinates>8.97162, 46.0823,20</coordinates>
    </Point>
  </Placemark><Placemark>
    <name>Odogno, Paese</name>
    <Style><LineStyle><width>2</width></LineStyle></Style>
    <Point>
      <extrude>1</extrude>
      <tesselate>0</tesselate>
      <altitudeMode>relativeToGround</altitudeMode>
      <coordinates>8.9703, 46.0813,20</coordinates>
    </Point>
  </Placemark><Placemark>
    <name>Pezzolo, Paese</name>
    <Style><LineStyle><width>2</width></LineStyle></Style>
    <Point>
      <extrude>1</extrude>
      <tesselate>0</tesselate>
      <altitudeMode>relativeToGround</altitudeMode>
      <coordinates>8.96786, 46.0773,20</coordinates>
    </Point>
  </Placemark><Placemark>
    <name>Tesserete, Canvetto Tiratori</name>
    <Style><LineStyle><width>2</width></LineStyle></Style>
    <Point>
      <extrude>1</extrude>
      <tesselate>0</tesselate>
      <altitudeMode>relativeToGround</altitudeMode>
      <coordinates>8.96715, 46.075,20</coordinates>
    </Point>
  </Placemark><Placemark>
    <name>Tesserete, Resega</name>
    <Style><LineStyle><width>2</width></LineStyle></Style>
    <Point>
      <extrude>1</extrude>
      <tesselate>0</tesselate>
      <altitudeMode>relativeToGround</altitudeMode>
      <coordinates>8.96662, 46.0698,20</coordinates>
    </Point>
  </Placemark><Placemark>
    <name>Taverne, Dosso</name>
    <Style><LineStyle><width>2</width></LineStyle></Style>
    <Point>
      <extrude>1</extrude>
      <tesselate>0</tesselate>
      <altitudeMode>relativeToGround</altitudeMode>
      <coordinates>8.93377, 46.0715,20</coordinates>
    </Point>
  </Placemark><Placemark>
    <name>Medeglia, Paese</name>
    <Style><LineStyle><width>2</width></LineStyle></Style>
    <Point>
      <extrude>1</extrude>
      <tesselate>0</tesselate>
      <altitudeMode>relativeToGround</altitudeMode>
      <coordinates>8.96892, 46.1151,20</coordinates>
    </Point>
  </Placemark><Placemark>
    <name>Oggio, Paese</name>
    <Style><LineStyle><width>2</width></LineStyle></Style>
    <Point>
      <extrude>1</extrude>
      <tesselate>0</tesselate>
      <altitudeMode>relativeToGround</altitudeMode>
      <coordinates>8.98734, 46.0712,20</coordinates>
    </Point>
  </Placemark><Placemark>
    <name>Oggio, Fornaci</name>
    <Style><LineStyle><width>2</width></LineStyle></Style>
    <Point>
      <extrude>1</extrude>
      <tesselate>0</tesselate>
      <altitudeMode>relativeToGround</altitudeMode>
      <coordinates>8.98185, 46.069,20</coordinates>
    </Point>
  </Placemark><Placemark>
    <name>Indemini, Monti In Cima Al Pra</name>
    <Style><LineStyle><width>2</width></LineStyle></Style>
    <Point>
      <extrude>1</extrude>
      <tesselate>0</tesselate>
      <altitudeMode>relativeToGround</altitudeMode>
      <coordinates>8.84445, 46.1044,20</coordinates>
    </Point>
  </Placemark><Placemark>
    <name>Mezzovico, Posta</name>
    <Style><LineStyle><width>2</width></LineStyle></Style>
    <Point>
      <extrude>1</extrude>
      <tesselate>0</tesselate>
      <altitudeMode>relativeToGround</altitudeMode>
      <coordinates>8.91516, 46.0884,20</coordinates>
    </Point>
  </Placemark><Placemark>
    <name>Sigirino, Piazza</name>
    <Style><LineStyle><width>2</width></LineStyle></Style>
    <Point>
      <extrude>1</extrude>
      <tesselate>0</tesselate>
      <altitudeMode>relativeToGround</altitudeMode>
      <coordinates>8.91462, 46.0805,20</coordinates>
    </Point>
  </Placemark><Placemark>
    <name>Sigirino, Bivio</name>
    <Style><LineStyle><width>2</width></LineStyle></Style>
    <Point>
      <extrude>1</extrude>
      <tesselate>0</tesselate>
      <altitudeMode>relativeToGround</altitudeMode>
      <coordinates>8.9201, 46.08,20</coordinates>
    </Point>
  </Placemark><Placemark>
    <name>Rivera-Bironico, Posta/FFS</name>
    <Style><LineStyle><width>2</width></LineStyle></Style>
    <Point>
      <extrude>1</extrude>
      <tesselate>0</tesselate>
      <altitudeMode>relativeToGround</altitudeMode>
      <coordinates>8.92486, 46.124,20</coordinates>
    </Point>
  </Placemark><Placemark>
    <name>Rivera, Bivio Capidogno</name>
    <Style><LineStyle><width>2</width></LineStyle></Style>
    <Point>
      <extrude>1</extrude>
      <tesselate>0</tesselate>
      <altitudeMode>relativeToGround</altitudeMode>
      <coordinates>8.92671, 46.1206,20</coordinates>
    </Point>
  </Placemark><Placemark>
    <name>Isone, Paese</name>
    <Style><LineStyle><width>2</width></LineStyle></Style>
    <Point>
      <extrude>1</extrude>
      <tesselate>0</tesselate>
      <altitudeMode>relativeToGround</altitudeMode>
      <coordinates>8.98465, 46.1336,20</coordinates>
    </Point>
  </Placemark><Placemark>
    <name>Bironico, Piazza Guidetti</name>
    <Style><LineStyle><width>2</width></LineStyle></Style>
    <Point>
      <extrude>1</extrude>
      <tesselate>0</tesselate>
      <altitudeMode>relativeToGround</altitudeMode>
      <coordinates>8.93136, 46.1134,20</coordinates>
    </Point>
  </Placemark><Placemark>
    <name>Mezzovico, Palazzina</name>
    <Style><LineStyle><width>2</width></LineStyle></Style>
    <Point>
      <extrude>1</extrude>
      <tesselate>0</tesselate>
      <altitudeMode>relativeToGround</altitudeMode>
      <coordinates>8.91993, 46.0856,20</coordinates>
    </Point>
  </Placemark><Placemark>
    <name>Isone, Cardosio</name>
    <Style><LineStyle><width>2</width></LineStyle></Style>
    <Point>
      <extrude>1</extrude>
      <tesselate>0</tesselate>
      <altitudeMode>relativeToGround</altitudeMode>
      <coordinates>8.98758, 46.1298,20</coordinates>
    </Point>
  </Placemark><Placemark>
    <name>Camignolo, Scuola Media</name>
    <Style><LineStyle><width>2</width></LineStyle></Style>
    <Point>
      <extrude>1</extrude>
      <tesselate>0</tesselate>
      <altitudeMode>relativeToGround</altitudeMode>
      <coordinates>8.92667, 46.1049,20</coordinates>
    </Point>
  </Placemark><Placemark>
    <name>Bironico, Alla Motta</name>
    <Style><LineStyle><width>2</width></LineStyle></Style>
    <Point>
      <extrude>1</extrude>
      <tesselate>0</tesselate>
      <altitudeMode>relativeToGround</altitudeMode>
      <coordinates>8.94682, 46.1111,20</coordinates>
    </Point>
  </Placemark><Placemark>
    <name>Medeglia, Campaccio</name>
    <Style><LineStyle><width>2</width></LineStyle></Style>
    <Point>
      <extrude>1</extrude>
      <tesselate>0</tesselate>
      <altitudeMode>relativeToGround</altitudeMode>
      <coordinates>8.95827, 46.1159,20</coordinates>
    </Point>
  </Placemark><Placemark>
    <name>Medeglia, Sorgai</name>
    <Style><LineStyle><width>2</width></LineStyle></Style>
    <Point>
      <extrude>1</extrude>
      <tesselate>0</tesselate>
      <altitudeMode>relativeToGround</altitudeMode>
      <coordinates>8.95962, 46.1156,20</coordinates>
    </Point>
  </Placemark><Placemark>
    <name>Medeglia, Drossa</name>
    <Style><LineStyle><width>2</width></LineStyle></Style>
    <Point>
      <extrude>1</extrude>
      <tesselate>0</tesselate>
      <altitudeMode>relativeToGround</altitudeMode>
      <coordinates>8.9628, 46.1159,20</coordinates>
    </Point>
  </Placemark><Placemark>
    <name>Isone, Mulino</name>
    <Style><LineStyle><width>2</width></LineStyle></Style>
    <Point>
      <extrude>1</extrude>
      <tesselate>0</tesselate>
      <altitudeMode>relativeToGround</altitudeMode>
      <coordinates>8.98153, 46.1264,20</coordinates>
    </Point>
  </Placemark><Placemark>
    <name>Camignolo, Sopra</name>
    <Style><LineStyle><width>2</width></LineStyle></Style>
    <Point>
      <extrude>1</extrude>
      <tesselate>0</tesselate>
      <altitudeMode>relativeToGround</altitudeMode>
      <coordinates>8.93439, 46.1061,20</coordinates>
    </Point>
  </Placemark><Placemark>
    <name>Camignolo, Sotto</name>
    <Style><LineStyle><width>2</width></LineStyle></Style>
    <Point>
      <extrude>1</extrude>
      <tesselate>0</tesselate>
      <altitudeMode>relativeToGround</altitudeMode>
      <coordinates>8.93495, 46.103,20</coordinates>
    </Point>
  </Placemark><Placemark>
    <name>Alpe di Neggia, Alpe</name>
    <Style><LineStyle><width>2</width></LineStyle></Style>
    <Point>
      <extrude>1</extrude>
      <tesselate>0</tesselate>
      <altitudeMode>relativeToGround</altitudeMode>
      <coordinates>8.84525, 46.1102,20</coordinates>
    </Point>
  </Placemark><Placemark>
    <name>Alpe di Neggia, Bv. Trecciura</name>
    <Style><LineStyle><width>2</width></LineStyle></Style>
    <Point>
      <extrude>1</extrude>
      <tesselate>0</tesselate>
      <altitudeMode>relativeToGround</altitudeMode>
      <coordinates>8.84876, 46.121,20</coordinates>
    </Point>
  </Placemark><Placemark>
    <name>Indemini, Isolabella</name>
    <Style><LineStyle><width>2</width></LineStyle></Style>
    <Point>
      <extrude>1</extrude>
      <tesselate>0</tesselate>
      <altitudeMode>relativeToGround</altitudeMode>
      <coordinates>8.8393, 46.1053,20</coordinates>
    </Point>
  </Placemark></Document>
</kml>
