<kml>
<Document>

<Region>
<LatLonAltBox>
<north>46.067819</north><south>46.001575</south><east>9.142688</east><west>8.990416</west>
<minAltitude>0.000000</minAltitude><maxAltitude>0.000000</maxAltitude>
</LatLonAltBox>
<minLodPixels>2048</minLodPixels><maxLodPixels>1000000000</maxLodPixels>
<minFadeExtent>0</minFadeExtent><maxFadeExtent>0</maxFadeExtent>
</Region>
<Placemark>
    <name>Gandria, Paese</name>
    <Style><LineStyle><width>2</width></LineStyle></Style>
    <Point>
      <extrude>1</extrude>
      <tesselate>0</tesselate>
      <altitudeMode>relativeToGround</altitudeMode>
      <coordinates>9.01189, 46.0115,20</coordinates>
    </Point>
  </Placemark><Placemark>
    <name>Sonvico, Rosone</name>
    <Style><LineStyle><width>2</width></LineStyle></Style>
    <Point>
      <extrude>1</extrude>
      <tesselate>0</tesselate>
      <altitudeMode>relativeToGround</altitudeMode>
      <coordinates>9.00945, 46.0667,20</coordinates>
    </Point>
  </Placemark><Placemark>
    <name>Sonvico, Sassello</name>
    <Style><LineStyle><width>2</width></LineStyle></Style>
    <Point>
      <extrude>1</extrude>
      <tesselate>0</tesselate>
      <altitudeMode>relativeToGround</altitudeMode>
      <coordinates>8.99425, 46.0596,20</coordinates>
    </Point>
  </Placemark><Placemark>
    <name>S. Mamete SNL</name>
    <Style><LineStyle><width>2</width></LineStyle></Style>
    <Point>
      <extrude>1</extrude>
      <tesselate>0</tesselate>
      <altitudeMode>relativeToGround</altitudeMode>
      <coordinates>9.0536, 46.0242,20</coordinates>
    </Point>
  </Placemark><Placemark>
    <name>Gandria, Dogana</name>
    <Style><LineStyle><width>2</width></LineStyle></Style>
    <Point>
      <extrude>1</extrude>
      <tesselate>0</tesselate>
      <altitudeMode>relativeToGround</altitudeMode>
      <coordinates>9.01946, 46.0151,20</coordinates>
    </Point>
  </Placemark><Placemark>
    <name>Oria</name>
    <Style><LineStyle><width>2</width></LineStyle></Style>
    <Point>
      <extrude>1</extrude>
      <tesselate>0</tesselate>
      <altitudeMode>relativeToGround</altitudeMode>
      <coordinates>9.03268, 46.0212,20</coordinates>
    </Point>
  </Placemark><Placemark>
    <name>Osteno</name>
    <Style><LineStyle><width>2</width></LineStyle></Style>
    <Point>
      <extrude>1</extrude>
      <tesselate>0</tesselate>
      <altitudeMode>relativeToGround</altitudeMode>
      <coordinates>9.0834, 46.0071,20</coordinates>
    </Point>
  </Placemark><Placemark>
    <name>Villa Luganese</name>
    <Style><LineStyle><width>2</width></LineStyle></Style>
    <Point>
      <extrude>1</extrude>
      <tesselate>0</tesselate>
      <altitudeMode>relativeToGround</altitudeMode>
      <coordinates>8.99433, 46.0534,20</coordinates>
    </Point>
  </Placemark><Placemark>
    <name>Gandria SNL</name>
    <Style><LineStyle><width>2</width></LineStyle></Style>
    <Point>
      <extrude>1</extrude>
      <tesselate>0</tesselate>
      <altitudeMode>relativeToGround</altitudeMode>
      <coordinates>9.00396, 46.0055,20</coordinates>
    </Point>
  </Placemark><Placemark>
    <name>Porlezza</name>
    <Style><LineStyle><width>2</width></LineStyle></Style>
    <Point>
      <extrude>1</extrude>
      <tesselate>0</tesselate>
      <altitudeMode>relativeToGround</altitudeMode>
      <coordinates>9.1188, 46.0339,20</coordinates>
    </Point>
  </Placemark><Placemark>
    <name>Gandria Confine</name>
    <Style><LineStyle><width>2</width></LineStyle></Style>
    <Point>
      <extrude>1</extrude>
      <tesselate>0</tesselate>
      <altitudeMode>relativeToGround</altitudeMode>
      <coordinates>9.01973, 46.015,20</coordinates>
    </Point>
  </Placemark><Placemark>
    <name>Gandria, Strada</name>
    <Style><LineStyle><width>2</width></LineStyle></Style>
    <Point>
      <extrude>1</extrude>
      <tesselate>0</tesselate>
      <altitudeMode>relativeToGround</altitudeMode>
      <coordinates>9.00161, 46.0061,20</coordinates>
    </Point>
  </Placemark></Document>
</kml>
